$GPGGA,101012.635,5547.844,N,03747.957,E,1,12,1.0,0.0,M,0.0,M,,*6A
$GPGSA,A,3,01,02,03,04,05,06,07,08,09,10,11,12,1.0,1.0,1.0*30
$GPRMC,101012.635,A,5547.844,N,03747.957,E,388.8,090.2,020622,000.0,W*7A
$GPGGA,101012.735,5547.844,N,03747.976,E,1,12,1.0,0.0,M,0.0,M,,*68
$GPGSA,A,3,01,02,03,04,05,06,07,08,09,10,11,12,1.0,1.0,1.0*30
$GPRMC,101012.735,A,5547.844,N,03747.976,E,388.8,090.2,020622,000.0,W*78
$GPGGA,101012.835,5547.844,N,03747.995,E,1,12,1.0,0.0,M,0.0,M,,*6A
$GPGSA,A,3,01,02,03,04,05,06,07,08,09,10,11,12,1.0,1.0,1.0*30
$GPRMC,101012.835,A,5547.844,N,03747.995,E,388.8,090.2,020622,000.0,W*7A
$GPGGA,101012.935,5547.844,N,03748.014,E,1,12,1.0,0.0,M,0.0,M,,*64
$GPGSA,A,3,01,02,03,04,05,06,07,08,09,10,11,12,1.0,1.0,1.0*30
$GPRMC,101012.935,A,5547.844,N,03748.014,E,388.8,090.2,020622,000.0,W*74
$GPGGA,101013.035,5547.844,N,03748.033,E,1,12,1.0,0.0,M,0.0,M,,*69
$GPGSA,A,3,01,02,03,04,05,06,07,08,09,10,11,12,1.0,1.0,1.0*30
$GPRMC,101013.035,A,5547.844,N,03748.033,E,388.8,090.2,020622,000.0,W*79
$GPGGA,101013.135,5547.843,N,03748.053,E,1,12,1.0,0.0,M,0.0,M,,*69
$GPGSA,A,3,01,02,03,04,05,06,07,08,09,10,11,12,1.0,1.0,1.0*30
$GPRMC,101013.135,A,5547.843,N,03748.053,E,388.8,090.2,020622,000.0,W*79
$GPGGA,101013.235,5547.843,N,03748.072,E,1,12,1.0,0.0,M,0.0,M,,*69
$GPGSA,A,3,01,02,03,04,05,06,07,08,09,10,11,12,1.0,1.0,1.0*30
$GPRMC,101013.235,A,5547.843,N,03748.072,E,388.8,090.2,020622,000.0,W*79
$GPGGA,101013.335,5547.843,N,03748.091,E,1,12,1.0,0.0,M,0.0,M,,*65
$GPGSA,A,3,01,02,03,04,05,06,07,08,09,10,11,12,1.0,1.0,1.0*30
$GPRMC,101013.335,A,5547.843,N,03748.091,E,388.8,090.2,020622,000.0,W*75
$GPGGA,101013.435,5547.843,N,03748.110,E,1,12,1.0,0.0,M,0.0,M,,*6A
$GPGSA,A,3,01,02,03,04,05,06,07,08,09,10,11,12,1.0,1.0,1.0*30
$GPRMC,101013.435,A,5547.843,N,03748.110,E,388.8,090.2,020622,000.0,W*7A
$GPGGA,101013.535,5547.843,N,03748.129,E,1,12,1.0,0.0,M,0.0,M,,*61
$GPGSA,A,3,01,02,03,04,05,06,07,08,09,10,11,12,1.0,1.0,1.0*30
$GPRMC,101013.535,A,5547.843,N,03748.129,E,388.8,090.2,020622,000.0,W*71
$GPGGA,101013.635,5547.843,N,03748.149,E,1,12,1.0,0.0,M,0.0,M,,*64
$GPGSA,A,3,01,02,03,04,05,06,07,08,09,10,11,12,1.0,1.0,1.0*30
$GPRMC,101013.635,A,5547.843,N,03748.149,E,388.8,090.2,020622,000.0,W*74
$GPGGA,101013.735,5547.843,N,03748.168,E,1,12,1.0,0.0,M,0.0,M,,*66
$GPGSA,A,3,01,02,03,04,05,06,07,08,09,10,11,12,1.0,1.0,1.0*30
$GPRMC,101013.735,A,5547.843,N,03748.168,E,388.8,090.2,020622,000.0,W*76
$GPGGA,101013.835,5547.843,N,03748.187,E,1,12,1.0,0.0,M,0.0,M,,*68
$GPGSA,A,3,01,02,03,04,05,06,07,08,09,10,11,12,1.0,1.0,1.0*30
$GPRMC,101013.835,A,5547.843,N,03748.187,E,388.8,090.2,020622,000.0,W*78
$GPGGA,101013.935,5547.843,N,03748.206,E,1,12,1.0,0.0,M,0.0,M,,*63
$GPGSA,A,3,01,02,03,04,05,06,07,08,09,10,11,12,1.0,1.0,1.0*30
$GPRMC,101013.935,A,5547.843,N,03748.206,E,388.8,090.2,020622,000.0,W*73
$GPGGA,101014.035,5547.843,N,03748.225,E,1,12,1.0,0.0,M,0.0,M,,*6C
$GPGSA,A,3,01,02,03,04,05,06,07,08,09,10,11,12,1.0,1.0,1.0*30
$GPRMC,101014.035,A,5547.843,N,03748.225,E,388.8,090.2,020622,000.0,W*7C
$GPGGA,101014.135,5547.843,N,03748.245,E,1,12,1.0,0.0,M,0.0,M,,*6B
$GPGSA,A,3,01,02,03,04,05,06,07,08,09,10,11,12,1.0,1.0,1.0*30
$GPRMC,101014.135,A,5547.843,N,03748.245,E,388.8,090.2,020622,000.0,W*7B
$GPGGA,101014.235,5547.843,N,03748.264,E,1,12,1.0,0.0,M,0.0,M,,*6B
$GPGSA,A,3,01,02,03,04,05,06,07,08,09,10,11,12,1.0,1.0,1.0*30
$GPRMC,101014.235,A,5547.843,N,03748.264,E,388.8,090.2,020622,000.0,W*7B
$GPGGA,101014.335,5547.843,N,03748.283,E,1,12,1.0,0.0,M,0.0,M,,*63
$GPGSA,A,3,01,02,03,04,05,06,07,08,09,10,11,12,1.0,1.0,1.0*30
$GPRMC,101014.335,A,5547.843,N,03748.283,E,388.8,090.2,020622,000.0,W*73
$GPGGA,101014.435,5547.843,N,03748.302,E,1,12,1.0,0.0,M,0.0,M,,*6C
$GPGSA,A,3,01,02,03,04,05,06,07,08,09,10,11,12,1.0,1.0,1.0*30
$GPRMC,101014.435,A,5547.843,N,03748.302,E,388.8,090.2,020622,000.0,W*7C
$GPGGA,101014.535,5547.843,N,03748.321,E,1,12,1.0,0.0,M,0.0,M,,*6C
$GPGSA,A,3,01,02,03,04,05,06,07,08,09,10,11,12,1.0,1.0,1.0*30
$GPRMC,101014.535,A,5547.843,N,03748.321,E,388.8,090.2,020622,000.0,W*7C
$GPGGA,101014.635,5547.842,N,03748.341,E,1,12,1.0,0.0,M,0.0,M,,*68
$GPGSA,A,3,01,02,03,04,05,06,07,08,09,10,11,12,1.0,1.0,1.0*30
$GPRMC,101014.635,A,5547.842,N,03748.341,E,388.8,090.2,020622,000.0,W*78
$GPGGA,101014.735,5547.842,N,03748.360,E,1,12,1.0,0.0,M,0.0,M,,*6A
$GPGSA,A,3,01,02,03,04,05,06,07,08,09,10,11,12,1.0,1.0,1.0*30
$GPRMC,101014.735,A,5547.842,N,03748.360,E,388.8,090.2,020622,000.0,W*7A
$GPGGA,101014.835,5547.842,N,03748.379,E,1,12,1.0,0.0,M,0.0,M,,*6D
$GPGSA,A,3,01,02,03,04,05,06,07,08,09,10,11,12,1.0,1.0,1.0*30
$GPRMC,101014.835,A,5547.842,N,03748.379,E,388.8,090.2,020622,000.0,W*7D
$GPGGA,101014.935,5547.842,N,03748.398,E,1,12,1.0,0.0,M,0.0,M,,*63
$GPGSA,A,3,01,02,03,04,05,06,07,08,09,10,11,12,1.0,1.0,1.0*30
$GPRMC,101014.935,A,5547.842,N,03748.398,E,388.8,090.2,020622,000.0,W*73
$GPGGA,101015.035,5547.842,N,03748.417,E,1,12,1.0,0.0,M,0.0,M,,*6B
$GPGSA,A,3,01,02,03,04,05,06,07,08,09,10,11,12,1.0,1.0,1.0*30
$GPRMC,101015.035,A,5547.842,N,03748.417,E,388.8,090.2,020622,000.0,W*7B
$GPGGA,101015.135,5547.842,N,03748.437,E,1,12,1.0,0.0,M,0.0,M,,*68
$GPGSA,A,3,01,02,03,04,05,06,07,08,09,10,11,12,1.0,1.0,1.0*30
$GPRMC,101015.135,A,5547.842,N,03748.437,E,388.8,090.2,020622,000.0,W*78
$GPGGA,101015.235,5547.842,N,03748.456,E,1,12,1.0,0.0,M,0.0,M,,*6C
$GPGSA,A,3,01,02,03,04,05,06,07,08,09,10,11,12,1.0,1.0,1.0*30
$GPRMC,101015.235,A,5547.842,N,03748.456,E,388.8,090.2,020622,000.0,W*7C
$GPGGA,101015.335,5547.842,N,03748.475,E,1,12,1.0,0.0,M,0.0,M,,*6C
$GPGSA,A,3,01,02,03,04,05,06,07,08,09,10,11,12,1.0,1.0,1.0*30
$GPRMC,101015.335,A,5547.842,N,03748.475,E,388.8,090.2,020622,000.0,W*7C
$GPGGA,101015.435,5547.842,N,03748.494,E,1,12,1.0,0.0,M,0.0,M,,*64
$GPGSA,A,3,01,02,03,04,05,06,07,08,09,10,11,12,1.0,1.0,1.0*30
$GPRMC,101015.435,A,5547.842,N,03748.494,E,388.8,090.2,020622,000.0,W*74
$GPGGA,101015.535,5547.842,N,03748.513,E,1,12,1.0,0.0,M,0.0,M,,*6B
$GPGSA,A,3,01,02,03,04,05,06,07,08,09,10,11,12,1.0,1.0,1.0*30
$GPRMC,101015.535,A,5547.842,N,03748.513,E,388.8,090.2,020622,000.0,W*7B
$GPGGA,101015.635,5547.842,N,03748.533,E,1,12,1.0,0.0,M,0.0,M,,*6A
$GPGSA,A,3,01,02,03,04,05,06,07,08,09,10,11,12,1.0,1.0,1.0*30
$GPRMC,101015.635,A,5547.842,N,03748.533,E,388.8,090.2,020622,000.0,W*7A
$GPGGA,101015.735,5547.842,N,03748.552,E,1,12,1.0,0.0,M,0.0,M,,*6C
$GPGSA,A,3,01,02,03,04,05,06,07,08,09,10,11,12,1.0,1.0,1.0*30
$GPRMC,101015.735,A,5547.842,N,03748.552,E,388.8,090.2,020622,000.0,W*7C
$GPGGA,101015.835,5547.842,N,03748.571,E,1,12,1.0,0.0,M,0.0,M,,*62
$GPGSA,A,3,01,02,03,04,05,06,07,08,09,10,11,12,1.0,1.0,1.0*30
$GPRMC,101015.835,A,5547.842,N,03748.571,E,388.8,090.2,020622,000.0,W*72
$GPGGA,101015.935,5547.842,N,03748.590,E,1,12,1.0,0.0,M,0.0,M,,*6C
$GPGSA,A,3,01,02,03,04,05,06,07,08,09,10,11,12,1.0,1.0,1.0*30
$GPRMC,101015.935,A,5547.842,N,03748.590,E,388.8,090.2,020622,000.0,W*7C
$GPGGA,101016.035,5547.841,N,03748.609,E,1,12,1.0,0.0,M,0.0,M,,*66
$GPGSA,A,3,01,02,03,04,05,06,07,08,09,10,11,12,1.0,1.0,1.0*30
$GPRMC,101016.035,A,5547.841,N,03748.609,E,388.8,090.2,020622,000.0,W*76
$GPGGA,101016.135,5547.841,N,03748.629,E,1,12,1.0,0.0,M,0.0,M,,*65
$GPGSA,A,3,01,02,03,04,05,06,07,08,09,10,11,12,1.0,1.0,1.0*30
$GPRMC,101016.135,A,5547.841,N,03748.629,E,388.8,090.2,020622,000.0,W*75
$GPGGA,101016.235,5547.841,N,03748.648,E,1,12,1.0,0.0,M,0.0,M,,*61
$GPGSA,A,3,01,02,03,04,05,06,07,08,09,10,11,12,1.0,1.0,1.0*30
$GPRMC,101016.235,A,5547.841,N,03748.648,E,388.8,090.2,020622,000.0,W*71
$GPGGA,101016.335,5547.841,N,03748.667,E,1,12,1.0,0.0,M,0.0,M,,*6D
$GPGSA,A,3,01,02,03,04,05,06,07,08,09,10,11,12,1.0,1.0,1.0*30
$GPRMC,101016.335,A,5547.841,N,03748.667,E,388.8,090.2,020622,000.0,W*7D
$GPGGA,101016.435,5547.841,N,03748.686,E,1,12,1.0,0.0,M,0.0,M,,*65
$GPGSA,A,3,01,02,03,04,05,06,07,08,09,10,11,12,1.0,1.0,1.0*30
$GPRMC,101016.435,A,5547.841,N,03748.686,E,388.8,090.2,020622,000.0,W*75
$GPGGA,101016.535,5547.841,N,03748.705,E,1,12,1.0,0.0,M,0.0,M,,*6E
$GPGSA,A,3,01,02,03,04,05,06,07,08,09,10,11,12,1.0,1.0,1.0*30
$GPRMC,101016.535,A,5547.841,N,03748.705,E,388.8,090.2,020622,000.0,W*7E
$GPGGA,101016.635,5547.841,N,03748.725,E,1,12,1.0,0.0,M,0.0,M,,*6F
$GPGSA,A,3,01,02,03,04,05,06,07,08,09,10,11,12,1.0,1.0,1.0*30
$GPRMC,101016.635,A,5547.841,N,03748.725,E,388.8,090.2,020622,000.0,W*7F
$GPGGA,101016.735,5547.841,N,03748.744,E,1,12,1.0,0.0,M,0.0,M,,*69
$GPGSA,A,3,01,02,03,04,05,06,07,08,09,10,11,12,1.0,1.0,1.0*30
$GPRMC,101016.735,A,5547.841,N,03748.744,E,388.8,177.8,020622,000.0,W*7B
$GPGGA,101016.835,5547.830,N,03748.744,E,1,12,1.0,0.0,M,0.0,M,,*60
$GPGSA,A,3,01,02,03,04,05,06,07,08,09,10,11,12,1.0,1.0,1.0*30
$GPRMC,101016.835,A,5547.830,N,03748.744,E,388.8,177.8,020622,000.0,W*72
$GPGGA,101016.935,5547.819,N,03748.745,E,1,12,1.0,0.0,M,0.0,M,,*6B
$GPGSA,A,3,01,02,03,04,05,06,07,08,09,10,11,12,1.0,1.0,1.0*30
$GPRMC,101016.935,A,5547.819,N,03748.745,E,388.8,177.8,020622,000.0,W*79
$GPGGA,101017.035,5547.809,N,03748.745,E,1,12,1.0,0.0,M,0.0,M,,*62
$GPGSA,A,3,01,02,03,04,05,06,07,08,09,10,11,12,1.0,1.0,1.0*30
$GPRMC,101017.035,A,5547.809,N,03748.745,E,388.8,177.8,020622,000.0,W*70
$GPGGA,101017.135,5547.798,N,03748.745,E,1,12,1.0,0.0,M,0.0,M,,*64
$GPGSA,A,3,01,02,03,04,05,06,07,08,09,10,11,12,1.0,1.0,1.0*30
$GPRMC,101017.135,A,5547.798,N,03748.745,E,388.8,177.8,020622,000.0,W*76
$GPGGA,101017.235,5547.787,N,03748.746,E,1,12,1.0,0.0,M,0.0,M,,*6A
$GPGSA,A,3,01,02,03,04,05,06,07,08,09,10,11,12,1.0,1.0,1.0*30
$GPRMC,101017.235,A,5547.787,N,03748.746,E,388.8,177.8,020622,000.0,W*78
$GPGGA,101017.335,5547.776,N,03748.746,E,1,12,1.0,0.0,M,0.0,M,,*65
$GPGSA,A,3,01,02,03,04,05,06,07,08,09,10,11,12,1.0,1.0,1.0*30
$GPRMC,101017.335,A,5547.776,N,03748.746,E,388.8,177.8,020622,000.0,W*77
$GPGGA,101017.435,5547.765,N,03748.747,E,1,12,1.0,0.0,M,0.0,M,,*61
$GPGSA,A,3,01,02,03,04,05,06,07,08,09,10,11,12,1.0,1.0,1.0*30
$GPRMC,101017.435,A,5547.765,N,03748.747,E,388.8,177.8,020622,000.0,W*73
$GPGGA,101017.535,5547.755,N,03748.747,E,1,12,1.0,0.0,M,0.0,M,,*63
$GPGSA,A,3,01,02,03,04,05,06,07,08,09,10,11,12,1.0,1.0,1.0*30
$GPRMC,101017.535,A,5547.755,N,03748.747,E,388.8,177.8,020622,000.0,W*71
$GPGGA,101017.635,5547.744,N,03748.747,E,1,12,1.0,0.0,M,0.0,M,,*60
$GPGSA,A,3,01,02,03,04,05,06,07,08,09,10,11,12,1.0,1.0,1.0*30
$GPRMC,101017.635,A,5547.744,N,03748.747,E,388.8,177.8,020622,000.0,W*72
$GPGGA,101017.735,5547.733,N,03748.748,E,1,12,1.0,0.0,M,0.0,M,,*6E
$GPGSA,A,3,01,02,03,04,05,06,07,08,09,10,11,12,1.0,1.0,1.0*30
$GPRMC,101017.735,A,5547.733,N,03748.748,E,388.8,177.8,020622,000.0,W*7C
$GPGGA,101017.835,5547.722,N,03748.748,E,1,12,1.0,0.0,M,0.0,M,,*61
$GPGSA,A,3,01,02,03,04,05,06,07,08,09,10,11,12,1.0,1.0,1.0*30
$GPRMC,101017.835,A,5547.722,N,03748.748,E,388.8,177.8,020622,000.0,W*73
$GPGGA,101017.935,5547.711,N,03748.749,E,1,12,1.0,0.0,M,0.0,M,,*61
$GPGSA,A,3,01,02,03,04,05,06,07,08,09,10,11,12,1.0,1.0,1.0*30
$GPRMC,101017.935,A,5547.711,N,03748.749,E,388.8,177.8,020622,000.0,W*73
$GPGGA,101018.035,5547.701,N,03748.749,E,1,12,1.0,0.0,M,0.0,M,,*66
$GPGSA,A,3,01,02,03,04,05,06,07,08,09,10,11,12,1.0,1.0,1.0*30
$GPRMC,101018.035,A,5547.701,N,03748.749,E,388.8,177.8,020622,000.0,W*74
$GPGGA,101018.135,5547.690,N,03748.750,E,1,12,1.0,0.0,M,0.0,M,,*66
$GPGSA,A,3,01,02,03,04,05,06,07,08,09,10,11,12,1.0,1.0,1.0*30
$GPRMC,101018.135,A,5547.690,N,03748.750,E,388.8,177.8,020622,000.0,W*74
$GPGGA,101018.235,5547.679,N,03748.750,E,1,12,1.0,0.0,M,0.0,M,,*62
$GPGSA,A,3,01,02,03,04,05,06,07,08,09,10,11,12,1.0,1.0,1.0*30
$GPRMC,101018.235,A,5547.679,N,03748.750,E,388.8,177.8,020622,000.0,W*70
$GPGGA,101018.335,5547.668,N,03748.750,E,1,12,1.0,0.0,M,0.0,M,,*63
$GPGSA,A,3,01,02,03,04,05,06,07,08,09,10,11,12,1.0,1.0,1.0*30
$GPRMC,101018.335,A,5547.668,N,03748.750,E,388.8,177.8,020622,000.0,W*71
$GPGGA,101018.435,5547.658,N,03748.751,E,1,12,1.0,0.0,M,0.0,M,,*66
$GPGSA,A,3,01,02,03,04,05,06,07,08,09,10,11,12,1.0,1.0,1.0*30
$GPRMC,101018.435,A,5547.658,N,03748.751,E,388.8,177.8,020622,000.0,W*74
$GPGGA,101018.535,5547.647,N,03748.751,E,1,12,1.0,0.0,M,0.0,M,,*69
$GPGSA,A,3,01,02,03,04,05,06,07,08,09,10,11,12,1.0,1.0,1.0*30
$GPRMC,101018.535,A,5547.647,N,03748.751,E,388.8,177.8,020622,000.0,W*7B
$GPGGA,101018.635,5547.636,N,03748.752,E,1,12,1.0,0.0,M,0.0,M,,*6F
$GPGSA,A,3,01,02,03,04,05,06,07,08,09,10,11,12,1.0,1.0,1.0*30
$GPRMC,101018.635,A,5547.636,N,03748.752,E,388.8,177.8,020622,000.0,W*7D
$GPGGA,101018.735,5547.625,N,03748.752,E,1,12,1.0,0.0,M,0.0,M,,*6C
$GPGSA,A,3,01,02,03,04,05,06,07,08,09,10,11,12,1.0,1.0,1.0*30
$GPRMC,101018.735,A,5547.625,N,03748.752,E,388.8,268.3,020622,000.0,W*78
$GPGGA,101018.835,5547.625,N,03748.733,E,1,12,1.0,0.0,M,0.0,M,,*64
$GPGSA,A,3,01,02,03,04,05,06,07,08,09,10,11,12,1.0,1.0,1.0*30
$GPRMC,101018.835,A,5547.625,N,03748.733,E,388.8,268.3,020622,000.0,W*70
$GPGGA,101018.935,5547.624,N,03748.714,E,1,12,1.0,0.0,M,0.0,M,,*61
$GPGSA,A,3,01,02,03,04,05,06,07,08,09,10,11,12,1.0,1.0,1.0*30
$GPRMC,101018.935,A,5547.624,N,03748.714,E,388.8,268.3,020622,000.0,W*75
$GPGGA,101019.035,5547.623,N,03748.695,E,1,12,1.0,0.0,M,0.0,M,,*66
$GPGSA,A,3,01,02,03,04,05,06,07,08,09,10,11,12,1.0,1.0,1.0*30
$GPRMC,101019.035,A,5547.623,N,03748.695,E,388.8,268.3,020622,000.0,W*72
$GPGGA,101019.135,5547.623,N,03748.675,E,1,12,1.0,0.0,M,0.0,M,,*69
$GPGSA,A,3,01,02,03,04,05,06,07,08,09,10,11,12,1.0,1.0,1.0*30
$GPRMC,101019.135,A,5547.623,N,03748.675,E,388.8,268.3,020622,000.0,W*7D
$GPGGA,101019.235,5547.622,N,03748.656,E,1,12,1.0,0.0,M,0.0,M,,*6A
$GPGSA,A,3,01,02,03,04,05,06,07,08,09,10,11,12,1.0,1.0,1.0*30
$GPRMC,101019.235,A,5547.622,N,03748.656,E,388.8,268.3,020622,000.0,W*7E
$GPGGA,101019.335,5547.622,N,03748.637,E,1,12,1.0,0.0,M,0.0,M,,*6C
$GPGSA,A,3,01,02,03,04,05,06,07,08,09,10,11,12,1.0,1.0,1.0*30
$GPRMC,101019.335,A,5547.622,N,03748.637,E,388.8,268.3,020622,000.0,W*78
$GPGGA,101019.435,5547.621,N,03748.618,E,1,12,1.0,0.0,M,0.0,M,,*65
$GPGSA,A,3,01,02,03,04,05,06,07,08,09,10,11,12,1.0,1.0,1.0*30
$GPRMC,101019.435,A,5547.621,N,03748.618,E,388.8,268.3,020622,000.0,W*71
$GPGGA,101019.535,5547.621,N,03748.599,E,1,12,1.0,0.0,M,0.0,M,,*6E
$GPGSA,A,3,01,02,03,04,05,06,07,08,09,10,11,12,1.0,1.0,1.0*30
$GPRMC,101019.535,A,5547.621,N,03748.599,E,388.8,268.3,020622,000.0,W*7A
$GPGGA,101019.635,5547.620,N,03748.579,E,1,12,1.0,0.0,M,0.0,M,,*62
$GPGSA,A,3,01,02,03,04,05,06,07,08,09,10,11,12,1.0,1.0,1.0*30
$GPRMC,101019.635,A,5547.620,N,03748.579,E,388.8,268.3,020622,000.0,W*76
$GPGGA,101019.735,5547.620,N,03748.560,E,1,12,1.0,0.0,M,0.0,M,,*6B
$GPGSA,A,3,01,02,03,04,05,06,07,08,09,10,11,12,1.0,1.0,1.0*30
$GPRMC,101019.735,A,5547.620,N,03748.560,E,388.8,268.3,020622,000.0,W*7F
$GPGGA,101019.835,5547.619,N,03748.541,E,1,12,1.0,0.0,M,0.0,M,,*6D
$GPGSA,A,3,01,02,03,04,05,06,07,08,09,10,11,12,1.0,1.0,1.0*30
$GPRMC,101019.835,A,5547.619,N,03748.541,E,388.8,268.3,020622,000.0,W*79
$GPGGA,101019.935,5547.618,N,03748.522,E,1,12,1.0,0.0,M,0.0,M,,*68
$GPGSA,A,3,01,02,03,04,05,06,07,08,09,10,11,12,1.0,1.0,1.0*30
$GPRMC,101019.935,A,5547.618,N,03748.522,E,388.8,268.3,020622,000.0,W*7C
$GPGGA,101020.035,5547.618,N,03748.503,E,1,12,1.0,0.0,M,0.0,M,,*68
$GPGSA,A,3,01,02,03,04,05,06,07,08,09,10,11,12,1.0,1.0,1.0*30
$GPRMC,101020.035,A,5547.618,N,03748.503,E,388.8,268.3,020622,000.0,W*7C
$GPGGA,101020.135,5547.617,N,03748.484,E,1,12,1.0,0.0,M,0.0,M,,*68
$GPGSA,A,3,01,02,03,04,05,06,07,08,09,10,11,12,1.0,1.0,1.0*30
$GPRMC,101020.135,A,5547.617,N,03748.484,E,388.8,268.3,020622,000.0,W*7C
$GPGGA,101020.235,5547.617,N,03748.464,E,1,12,1.0,0.0,M,0.0,M,,*65
$GPGSA,A,3,01,02,03,04,05,06,07,08,09,10,11,12,1.0,1.0,1.0*30
$GPRMC,101020.235,A,5547.617,N,03748.464,E,388.8,268.3,020622,000.0,W*71
$GPGGA,101020.335,5547.616,N,03748.445,E,1,12,1.0,0.0,M,0.0,M,,*66
$GPGSA,A,3,01,02,03,04,05,06,07,08,09,10,11,12,1.0,1.0,1.0*30
$GPRMC,101020.335,A,5547.616,N,03748.445,E,388.8,268.3,020622,000.0,W*72
$GPGGA,101020.435,5547.616,N,03748.426,E,1,12,1.0,0.0,M,0.0,M,,*64
$GPGSA,A,3,01,02,03,04,05,06,07,08,09,10,11,12,1.0,1.0,1.0*30
$GPRMC,101020.435,A,5547.616,N,03748.426,E,388.8,268.3,020622,000.0,W*70
$GPGGA,101020.535,5547.615,N,03748.407,E,1,12,1.0,0.0,M,0.0,M,,*65
$GPGSA,A,3,01,02,03,04,05,06,07,08,09,10,11,12,1.0,1.0,1.0*30
$GPRMC,101020.535,A,5547.615,N,03748.407,E,388.8,268.3,020622,000.0,W*71
$GPGGA,101020.635,5547.615,N,03748.388,E,1,12,1.0,0.0,M,0.0,M,,*66
$GPGSA,A,3,01,02,03,04,05,06,07,08,09,10,11,12,1.0,1.0,1.0*30
$GPRMC,101020.635,A,5547.615,N,03748.388,E,388.8,268.3,020622,000.0,W*72
$GPGGA,101020.735,5547.614,N,03748.369,E,1,12,1.0,0.0,M,0.0,M,,*69
$GPGSA,A,3,01,02,03,04,05,06,07,08,09,10,11,12,1.0,1.0,1.0*30
$GPRMC,101020.735,A,5547.614,N,03748.369,E,388.8,268.3,020622,000.0,W*7D
$GPGGA,101020.835,5547.613,N,03748.349,E,1,12,1.0,0.0,M,0.0,M,,*63
$GPGSA,A,3,01,02,03,04,05,06,07,08,09,10,11,12,1.0,1.0,1.0*30
$GPRMC,101020.835,A,5547.613,N,03748.349,E,388.8,268.3,020622,000.0,W*77
$GPGGA,101020.935,5547.613,N,03748.330,E,1,12,1.0,0.0,M,0.0,M,,*6C
$GPGSA,A,3,01,02,03,04,05,06,07,08,09,10,11,12,1.0,1.0,1.0*30
$GPRMC,101020.935,A,5547.613,N,03748.330,E,388.8,268.3,020622,000.0,W*78
$GPGGA,101021.035,5547.612,N,03748.311,E,1,12,1.0,0.0,M,0.0,M,,*66
$GPGSA,A,3,01,02,03,04,05,06,07,08,09,10,11,12,1.0,1.0,1.0*30
$GPRMC,101021.035,A,5547.612,N,03748.311,E,388.8,268.3,020622,000.0,W*72
$GPGGA,101021.135,5547.612,N,03748.292,E,1,12,1.0,0.0,M,0.0,M,,*6D
$GPGSA,A,3,01,02,03,04,05,06,07,08,09,10,11,12,1.0,1.0,1.0*30
$GPRMC,101021.135,A,5547.612,N,03748.292,E,388.8,268.3,020622,000.0,W*79
$GPGGA,101021.235,5547.611,N,03748.273,E,1,12,1.0,0.0,M,0.0,M,,*62
$GPGSA,A,3,01,02,03,04,05,06,07,08,09,10,11,12,1.0,1.0,1.0*30
$GPRMC,101021.235,A,5547.611,N,03748.273,E,388.8,268.3,020622,000.0,W*76
$GPGGA,101021.335,5547.611,N,03748.254,E,1,12,1.0,0.0,M,0.0,M,,*66
$GPGSA,A,3,01,02,03,04,05,06,07,08,09,10,11,12,1.0,1.0,1.0*30
$GPRMC,101021.335,A,5547.611,N,03748.254,E,388.8,268.3,020622,000.0,W*72
$GPGGA,101021.435,5547.610,N,03748.234,E,1,12,1.0,0.0,M,0.0,M,,*66
$GPGSA,A,3,01,02,03,04,05,06,07,08,09,10,11,12,1.0,1.0,1.0*30
$GPRMC,101021.435,A,5547.610,N,03748.234,E,388.8,268.3,020622,000.0,W*72
$GPGGA,101021.535,5547.609,N,03748.215,E,1,12,1.0,0.0,M,0.0,M,,*6C
$GPGSA,A,3,01,02,03,04,05,06,07,08,09,10,11,12,1.0,1.0,1.0*30
$GPRMC,101021.535,A,5547.609,N,03748.215,E,388.8,268.3,020622,000.0,W*78
$GPGGA,101021.635,5547.609,N,03748.196,E,1,12,1.0,0.0,M,0.0,M,,*67
$GPGSA,A,3,01,02,03,04,05,06,07,08,09,10,11,12,1.0,1.0,1.0*30
$GPRMC,101021.635,A,5547.609,N,03748.196,E,388.8,268.3,020622,000.0,W*73
$GPGGA,101021.735,5547.608,N,03748.177,E,1,12,1.0,0.0,M,0.0,M,,*68
$GPGSA,A,3,01,02,03,04,05,06,07,08,09,10,11,12,1.0,1.0,1.0*30
$GPRMC,101021.735,A,5547.608,N,03748.177,E,388.8,268.3,020622,000.0,W*7C
$GPGGA,101021.835,5547.608,N,03748.158,E,1,12,1.0,0.0,M,0.0,M,,*6A
$GPGSA,A,3,01,02,03,04,05,06,07,08,09,10,11,12,1.0,1.0,1.0*30
$GPRMC,101021.835,A,5547.608,N,03748.158,E,388.8,268.3,020622,000.0,W*7E
$GPGGA,101021.935,5547.607,N,03748.139,E,1,12,1.0,0.0,M,0.0,M,,*63
$GPGSA,A,3,01,02,03,04,05,06,07,08,09,10,11,12,1.0,1.0,1.0*30
$GPRMC,101021.935,A,5547.607,N,03748.139,E,388.8,268.3,020622,000.0,W*77
$GPGGA,101022.035,5547.607,N,03748.119,E,1,12,1.0,0.0,M,0.0,M,,*6B
$GPGSA,A,3,01,02,03,04,05,06,07,08,09,10,11,12,1.0,1.0,1.0*30
$GPRMC,101022.035,A,5547.607,N,03748.119,E,388.8,268.3,020622,000.0,W*7F
$GPGGA,101022.135,5547.606,N,03748.100,E,1,12,1.0,0.0,M,0.0,M,,*63
$GPGSA,A,3,01,02,03,04,05,06,07,08,09,10,11,12,1.0,1.0,1.0*30
$GPRMC,101022.135,A,5547.606,N,03748.100,E,388.8,268.3,020622,000.0,W*77
$GPGGA,101022.235,5547.606,N,03748.081,E,1,12,1.0,0.0,M,0.0,M,,*68
$GPGSA,A,3,01,02,03,04,05,06,07,08,09,10,11,12,1.0,1.0,1.0*30
$GPRMC,101022.235,A,5547.606,N,03748.081,E,388.8,268.3,020622,000.0,W*7C
$GPGGA,101022.335,5547.605,N,03748.062,E,1,12,1.0,0.0,M,0.0,M,,*67
$GPGSA,A,3,01,02,03,04,05,06,07,08,09,10,11,12,1.0,1.0,1.0*30
$GPRMC,101022.335,A,5547.605,N,03748.062,E,388.8,268.3,020622,000.0,W*73
$GPGGA,101022.435,5547.604,N,03748.043,E,1,12,1.0,0.0,M,0.0,M,,*62
$GPGSA,A,3,01,02,03,04,05,06,07,08,09,10,11,12,1.0,1.0,1.0*30
$GPRMC,101022.435,A,5547.604,N,03748.043,E,388.8,268.3,020622,000.0,W*76
$GPGGA,101022.535,5547.604,N,03748.024,E,1,12,1.0,0.0,M,0.0,M,,*62
$GPGSA,A,3,01,02,03,04,05,06,07,08,09,10,11,12,1.0,1.0,1.0*30
$GPRMC,101022.535,A,5547.604,N,03748.024,E,388.8,268.3,020622,000.0,W*76
$GPGGA,101022.635,5547.603,N,03748.004,E,1,12,1.0,0.0,M,0.0,M,,*64
$GPGSA,A,3,01,02,03,04,05,06,07,08,09,10,11,12,1.0,1.0,1.0*30
$GPRMC,101022.635,A,5547.603,N,03748.004,E,388.8,268.3,020622,000.0,W*70
$GPGGA,101022.735,5547.603,N,03747.985,E,1,12,1.0,0.0,M,0.0,M,,*6A
$GPGSA,A,3,01,02,03,04,05,06,07,08,09,10,11,12,1.0,1.0,1.0*30
$GPRMC,101022.735,A,5547.603,N,03747.985,E,388.8,268.3,020622,000.0,W*7E
$GPGGA,101022.835,5547.602,N,03747.966,E,1,12,1.0,0.0,M,0.0,M,,*69
$GPGSA,A,3,01,02,03,04,05,06,07,08,09,10,11,12,1.0,1.0,1.0*30
$GPRMC,101022.835,A,5547.602,N,03747.966,E,388.8,357.3,020622,000.0,W*70
$GPGGA,101022.935,5547.613,N,03747.966,E,1,12,1.0,0.0,M,0.0,M,,*68
$GPGSA,A,3,01,02,03,04,05,06,07,08,09,10,11,12,1.0,1.0,1.0*30
$GPRMC,101022.935,A,5547.613,N,03747.966,E,388.8,357.3,020622,000.0,W*71
$GPGGA,101023.035,5547.624,N,03747.965,E,1,12,1.0,0.0,M,0.0,M,,*67
$GPGSA,A,3,01,02,03,04,05,06,07,08,09,10,11,12,1.0,1.0,1.0*30
$GPRMC,101023.035,A,5547.624,N,03747.965,E,388.8,357.3,020622,000.0,W*7E
$GPGGA,101023.135,5547.635,N,03747.964,E,1,12,1.0,0.0,M,0.0,M,,*67
$GPGSA,A,3,01,02,03,04,05,06,07,08,09,10,11,12,1.0,1.0,1.0*30
$GPRMC,101023.135,A,5547.635,N,03747.964,E,388.8,357.3,020622,000.0,W*7E
$GPGGA,101023.235,5547.645,N,03747.964,E,1,12,1.0,0.0,M,0.0,M,,*63
$GPGSA,A,3,01,02,03,04,05,06,07,08,09,10,11,12,1.0,1.0,1.0*30
$GPRMC,101023.235,A,5547.645,N,03747.964,E,388.8,357.3,020622,000.0,W*7A
$GPGGA,101023.335,5547.656,N,03747.963,E,1,12,1.0,0.0,M,0.0,M,,*67
$GPGSA,A,3,01,02,03,04,05,06,07,08,09,10,11,12,1.0,1.0,1.0*30
$GPRMC,101023.335,A,5547.656,N,03747.963,E,388.8,357.3,020622,000.0,W*7E
$GPGGA,101023.435,5547.667,N,03747.963,E,1,12,1.0,0.0,M,0.0,M,,*62
$GPGSA,A,3,01,02,03,04,05,06,07,08,09,10,11,12,1.0,1.0,1.0*30
$GPRMC,101023.435,A,5547.667,N,03747.963,E,388.8,357.3,020622,000.0,W*7B
$GPGGA,101023.535,5547.678,N,03747.962,E,1,12,1.0,0.0,M,0.0,M,,*6C
$GPGSA,A,3,01,02,03,04,05,06,07,08,09,10,11,12,1.0,1.0,1.0*30
$GPRMC,101023.535,A,5547.678,N,03747.962,E,388.8,357.3,020622,000.0,W*75
$GPGGA,101023.635,5547.688,N,03747.962,E,1,12,1.0,0.0,M,0.0,M,,*60
$GPGSA,A,3,01,02,03,04,05,06,07,08,09,10,11,12,1.0,1.0,1.0*30
$GPRMC,101023.635,A,5547.688,N,03747.962,E,388.8,357.3,020622,000.0,W*79
$GPGGA,101023.735,5547.699,N,03747.961,E,1,12,1.0,0.0,M,0.0,M,,*62
$GPGSA,A,3,01,02,03,04,05,06,07,08,09,10,11,12,1.0,1.0,1.0*30
$GPRMC,101023.735,A,5547.699,N,03747.961,E,388.8,357.3,020622,000.0,W*7B
$GPGGA,101023.835,5547.710,N,03747.961,E,1,12,1.0,0.0,M,0.0,M,,*6D
$GPGSA,A,3,01,02,03,04,05,06,07,08,09,10,11,12,1.0,1.0,1.0*30
$GPRMC,101023.835,A,5547.710,N,03747.961,E,388.8,357.3,020622,000.0,W*74
$GPGGA,101023.935,5547.721,N,03747.960,E,1,12,1.0,0.0,M,0.0,M,,*6F
$GPGSA,A,3,01,02,03,04,05,06,07,08,09,10,11,12,1.0,1.0,1.0*30
$GPRMC,101023.935,A,5547.721,N,03747.960,E,388.8,357.3,020622,000.0,W*76
$GPGGA,101024.035,5547.732,N,03747.960,E,1,12,1.0,0.0,M,0.0,M,,*63
$GPGSA,A,3,01,02,03,04,05,06,07,08,09,10,11,12,1.0,1.0,1.0*30
$GPRMC,101024.035,A,5547.732,N,03747.960,E,388.8,357.3,020622,000.0,W*7A
$GPGGA,101024.135,5547.742,N,03747.959,E,1,12,1.0,0.0,M,0.0,M,,*6F
$GPGSA,A,3,01,02,03,04,05,06,07,08,09,10,11,12,1.0,1.0,1.0*30
$GPRMC,101024.135,A,5547.742,N,03747.959,E,388.8,357.3,020622,000.0,W*76
$GPGGA,101024.235,5547.753,N,03747.959,E,1,12,1.0,0.0,M,0.0,M,,*6C
$GPGSA,A,3,01,02,03,04,05,06,07,08,09,10,11,12,1.0,1.0,1.0*30
$GPRMC,101024.235,A,5547.753,N,03747.959,E,388.8,357.3,020622,000.0,W*75
$GPGGA,101024.335,5547.764,N,03747.958,E,1,12,1.0,0.0,M,0.0,M,,*68
$GPGSA,A,3,01,02,03,04,05,06,07,08,09,10,11,12,1.0,1.0,1.0*30
$GPRMC,101024.335,A,5547.764,N,03747.958,E,388.8,357.3,020622,000.0,W*71
$GPGGA,101024.435,5547.775,N,03747.958,E,1,12,1.0,0.0,M,0.0,M,,*6F
$GPGSA,A,3,01,02,03,04,05,06,07,08,09,10,11,12,1.0,1.0,1.0*30
$GPRMC,101024.435,A,5547.775,N,03747.958,E,388.8,357.3,020622,000.0,W*76
$GPGGA,101024.535,5547.786,N,03747.957,E,1,12,1.0,0.0,M,0.0,M,,*6D
$GPGSA,A,3,01,02,03,04,05,06,07,08,09,10,11,12,1.0,1.0,1.0*30
$GPRMC,101024.535,A,5547.786,N,03747.957,E,388.8,357.3,020622,000.0,W*74
$GPGGA,101024.635,5547.796,N,03747.957,E,1,12,1.0,0.0,M,0.0,M,,*6F
$GPGSA,A,3,01,02,03,04,05,06,07,08,09,10,11,12,1.0,1.0,1.0*30
$GPRMC,101024.635,A,5547.796,N,03747.957,E,388.8,269.2,020622,000.0,W*7B
$GPGGA,101024.735,5547.796,N,03747.938,E,1,12,1.0,0.0,M,0.0,M,,*67
$GPGSA,A,3,01,02,03,04,05,06,07,08,09,10,11,12,1.0,1.0,1.0*30
$GPRMC,101024.735,A,5547.796,N,03747.938,E,388.8,269.2,020622,000.0,W*73
$GPGGA,101024.835,5547.796,N,03747.918,E,1,12,1.0,0.0,M,0.0,M,,*6A
$GPGSA,A,3,01,02,03,04,05,06,07,08,09,10,11,12,1.0,1.0,1.0*30
$GPRMC,101024.835,A,5547.796,N,03747.918,E,388.8,269.2,020622,000.0,W*7E
$GPGGA,101024.935,5547.796,N,03747.899,E,1,12,1.0,0.0,M,0.0,M,,*63
$GPGSA,A,3,01,02,03,04,05,06,07,08,09,10,11,12,1.0,1.0,1.0*30
$GPRMC,101024.935,A,5547.796,N,03747.899,E,388.8,269.2,020622,000.0,W*77
$GPGGA,101025.035,5547.795,N,03747.880,E,1,12,1.0,0.0,M,0.0,M,,*60
$GPGSA,A,3,01,02,03,04,05,06,07,08,09,10,11,12,1.0,1.0,1.0*30
$GPRMC,101025.035,A,5547.795,N,03747.880,E,388.8,269.2,020622,000.0,W*74
$GPGGA,101025.135,5547.795,N,03747.861,E,1,12,1.0,0.0,M,0.0,M,,*6E
$GPGSA,A,3,01,02,03,04,05,06,07,08,09,10,11,12,1.0,1.0,1.0*30
$GPRMC,101025.135,A,5547.795,N,03747.861,E,388.8,269.2,020622,000.0,W*7A
$GPGGA,101025.235,5547.795,N,03747.842,E,1,12,1.0,0.0,M,0.0,M,,*6C
$GPGSA,A,3,01,02,03,04,05,06,07,08,09,10,11,12,1.0,1.0,1.0*30
$GPRMC,101025.235,A,5547.795,N,03747.842,E,388.8,269.2,020622,000.0,W*78
$GPGGA,101025.335,5547.795,N,03747.822,E,1,12,1.0,0.0,M,0.0,M,,*6B
$GPGSA,A,3,01,02,03,04,05,06,07,08,09,10,11,12,1.0,1.0,1.0*30
$GPRMC,101025.335,A,5547.795,N,03747.822,E,388.8,269.2,020622,000.0,W*7F
$GPGGA,101025.435,5547.794,N,03747.803,E,1,12,1.0,0.0,M,0.0,M,,*6E
$GPGSA,A,3,01,02,03,04,05,06,07,08,09,10,11,12,1.0,1.0,1.0*30
$GPRMC,101025.435,A,5547.794,N,03747.803,E,388.8,269.2,020622,000.0,W*7A
$GPGGA,101025.535,5547.794,N,03747.784,E,1,12,1.0,0.0,M,0.0,M,,*6F
$GPGSA,A,3,01,02,03,04,05,06,07,08,09,10,11,12,1.0,1.0,1.0*30
$GPRMC,101025.535,A,5547.794,N,03747.784,E,388.8,269.2,020622,000.0,W*7B
$GPGGA,101025.635,5547.794,N,03747.765,E,1,12,1.0,0.0,M,0.0,M,,*63
$GPGSA,A,3,01,02,03,04,05,06,07,08,09,10,11,12,1.0,1.0,1.0*30
$GPRMC,101025.635,A,5547.794,N,03747.765,E,388.8,269.2,020622,000.0,W*77
$GPGGA,101025.735,5547.793,N,03747.746,E,1,12,1.0,0.0,M,0.0,M,,*64
$GPGSA,A,3,01,02,03,04,05,06,07,08,09,10,11,12,1.0,1.0,1.0*30
$GPRMC,101025.735,A,5547.793,N,03747.746,E,388.8,269.2,020622,000.0,W*70
$GPGGA,101025.835,5547.793,N,03747.727,E,1,12,1.0,0.0,M,0.0,M,,*6C
$GPGSA,A,3,01,02,03,04,05,06,07,08,09,10,11,12,1.0,1.0,1.0*30
$GPRMC,101025.835,A,5547.793,N,03747.727,E,388.8,269.2,020622,000.0,W*78
$GPGGA,101025.935,5547.793,N,03747.707,E,1,12,1.0,0.0,M,0.0,M,,*6F
$GPGSA,A,3,01,02,03,04,05,06,07,08,09,10,11,12,1.0,1.0,1.0*30
$GPRMC,101025.935,A,5547.793,N,03747.707,E,388.8,269.2,020622,000.0,W*7B
$GPGGA,101026.035,5547.793,N,03747.688,E,1,12,1.0,0.0,M,0.0,M,,*63
$GPGSA,A,3,01,02,03,04,05,06,07,08,09,10,11,12,1.0,1.0,1.0*30
$GPRMC,101026.035,A,5547.793,N,03747.688,E,388.8,269.2,020622,000.0,W*77
$GPGGA,101026.135,5547.792,N,03747.669,E,1,12,1.0,0.0,M,0.0,M,,*6C
$GPGSA,A,3,01,02,03,04,05,06,07,08,09,10,11,12,1.0,1.0,1.0*30
$GPRMC,101026.135,A,5547.792,N,03747.669,E,388.8,269.2,020622,000.0,W*78
$GPGGA,101026.235,5547.792,N,03747.650,E,1,12,1.0,0.0,M,0.0,M,,*65
$GPGSA,A,3,01,02,03,04,05,06,07,08,09,10,11,12,1.0,1.0,1.0*30
$GPRMC,101026.235,A,5547.792,N,03747.650,E,388.8,269.2,020622,000.0,W*71
$GPGGA,101026.335,5547.792,N,03747.631,E,1,12,1.0,0.0,M,0.0,M,,*63
$GPGSA,A,3,01,02,03,04,05,06,07,08,09,10,11,12,1.0,1.0,1.0*30
$GPRMC,101026.335,A,5547.792,N,03747.631,E,388.8,176.6,020622,000.0,W*7E
$GPGGA,101026.435,5547.781,N,03747.631,E,1,12,1.0,0.0,M,0.0,M,,*66
$GPGSA,A,3,01,02,03,04,05,06,07,08,09,10,11,12,1.0,1.0,1.0*30
$GPRMC,101026.435,A,5547.781,N,03747.631,E,388.8,176.6,020622,000.0,W*7B
$GPGGA,101026.535,5547.770,N,03747.632,E,1,12,1.0,0.0,M,0.0,M,,*6A
$GPGSA,A,3,01,02,03,04,05,06,07,08,09,10,11,12,1.0,1.0,1.0*30
$GPRMC,101026.535,A,5547.770,N,03747.632,E,388.8,176.6,020622,000.0,W*77
$GPGGA,101026.635,5547.760,N,03747.632,E,1,12,1.0,0.0,M,0.0,M,,*68
$GPGSA,A,3,01,02,03,04,05,06,07,08,09,10,11,12,1.0,1.0,1.0*30
$GPRMC,101026.635,A,5547.760,N,03747.632,E,388.8,176.6,020622,000.0,W*75
$GPGGA,101026.735,5547.749,N,03747.633,E,1,12,1.0,0.0,M,0.0,M,,*63
$GPGSA,A,3,01,02,03,04,05,06,07,08,09,10,11,12,1.0,1.0,1.0*30
$GPRMC,101026.735,A,5547.749,N,03747.633,E,388.8,176.6,020622,000.0,W*7E
$GPGGA,101026.835,5547.738,N,03747.634,E,1,12,1.0,0.0,M,0.0,M,,*6D
$GPGSA,A,3,01,02,03,04,05,06,07,08,09,10,11,12,1.0,1.0,1.0*30
$GPRMC,101026.835,A,5547.738,N,03747.634,E,388.8,176.6,020622,000.0,W*70
$GPGGA,101026.935,5547.727,N,03747.634,E,1,12,1.0,0.0,M,0.0,M,,*62
$GPGSA,A,3,01,02,03,04,05,06,07,08,09,10,11,12,1.0,1.0,1.0*30
$GPRMC,101026.935,A,5547.727,N,03747.634,E,388.8,176.6,020622,000.0,W*7F
$GPGGA,101027.035,5547.716,N,03747.635,E,1,12,1.0,0.0,M,0.0,M,,*69
$GPGSA,A,3,01,02,03,04,05,06,07,08,09,10,11,12,1.0,1.0,1.0*30
$GPRMC,101027.035,A,5547.716,N,03747.635,E,388.8,176.6,020622,000.0,W*74
$GPGGA,101027.135,5547.706,N,03747.636,E,1,12,1.0,0.0,M,0.0,M,,*6A
$GPGSA,A,3,01,02,03,04,05,06,07,08,09,10,11,12,1.0,1.0,1.0*30
$GPRMC,101027.135,A,5547.706,N,03747.636,E,388.8,176.6,020622,000.0,W*77
$GPGGA,101027.235,5547.695,N,03747.636,E,1,12,1.0,0.0,M,0.0,M,,*62
$GPGSA,A,3,01,02,03,04,05,06,07,08,09,10,11,12,1.0,1.0,1.0*30
$GPRMC,101027.235,A,5547.695,N,03747.636,E,388.8,176.6,020622,000.0,W*7F
$GPGGA,101027.335,5547.684,N,03747.637,E,1,12,1.0,0.0,M,0.0,M,,*62
$GPGSA,A,3,01,02,03,04,05,06,07,08,09,10,11,12,1.0,1.0,1.0*30
$GPRMC,101027.335,A,5547.684,N,03747.637,E,388.8,176.6,020622,000.0,W*7F
$GPGGA,101027.435,5547.673,N,03747.638,E,1,12,1.0,0.0,M,0.0,M,,*62
$GPGSA,A,3,01,02,03,04,05,06,07,08,09,10,11,12,1.0,1.0,1.0*30
$GPRMC,101027.435,A,5547.673,N,03747.638,E,388.8,176.6,020622,000.0,W*7F
$GPGGA,101027.535,5547.663,N,03747.638,E,1,12,1.0,0.0,M,0.0,M,,*62
$GPGSA,A,3,01,02,03,04,05,06,07,08,09,10,11,12,1.0,1.0,1.0*30
$GPRMC,101027.535,A,5547.663,N,03747.638,E,388.8,176.6,020622,000.0,W*7F
$GPGGA,101027.635,5547.652,N,03747.639,E,1,12,1.0,0.0,M,0.0,M,,*62
$GPGSA,A,3,01,02,03,04,05,06,07,08,09,10,11,12,1.0,1.0,1.0*30
$GPRMC,101027.635,A,5547.652,N,03747.639,E,388.8,176.6,020622,000.0,W*7F
$GPGGA,101027.735,5547.641,N,03747.640,E,1,12,1.0,0.0,M,0.0,M,,*6F
$GPGSA,A,3,01,02,03,04,05,06,07,08,09,10,11,12,1.0,1.0,1.0*30
$GPRMC,101027.735,A,5547.641,N,03747.640,E,388.8,176.6,020622,000.0,W*72
$GPGGA,101027.835,5547.630,N,03747.640,E,1,12,1.0,0.0,M,0.0,M,,*66
$GPGSA,A,3,01,02,03,04,05,06,07,08,09,10,11,12,1.0,1.0,1.0*30
$GPRMC,101027.835,A,5547.630,N,03747.640,E,388.8,176.6,020622,000.0,W*7B
$GPGGA,101027.935,5547.619,N,03747.641,E,1,12,1.0,0.0,M,0.0,M,,*6D
$GPGSA,A,3,01,02,03,04,05,06,07,08,09,10,11,12,1.0,1.0,1.0*30
$GPRMC,101027.935,A,5547.619,N,03747.641,E,388.8,176.6,020622,000.0,W*70
$GPGGA,101028.035,5547.609,N,03747.641,E,1,12,1.0,0.0,M,0.0,M,,*6A
$GPGSA,A,3,01,02,03,04,05,06,07,08,09,10,11,12,1.0,1.0,1.0*30
$GPRMC,101028.035,A,5547.609,N,03747.641,E,388.8,176.6,020622,000.0,W*77
$GPGGA,101028.135,5547.598,N,03747.642,E,1,12,1.0,0.0,M,0.0,M,,*63
$GPGSA,A,3,01,02,03,04,05,06,07,08,09,10,11,12,1.0,1.0,1.0*30
$GPRMC,101028.135,A,5547.598,N,03747.642,E,388.8,268.8,020622,000.0,W*7C
$GPGGA,101028.235,5547.597,N,03747.623,E,1,12,1.0,0.0,M,0.0,M,,*68
$GPGSA,A,3,01,02,03,04,05,06,07,08,09,10,11,12,1.0,1.0,1.0*30
$GPRMC,101028.235,A,5547.597,N,03747.623,E,388.8,268.8,020622,000.0,W*77
$GPGGA,101028.335,5547.597,N,03747.604,E,1,12,1.0,0.0,M,0.0,M,,*6C
$GPGSA,A,3,01,02,03,04,05,06,07,08,09,10,11,12,1.0,1.0,1.0*30
$GPRMC,101028.335,A,5547.597,N,03747.604,E,388.8,268.8,020622,000.0,W*73
$GPGGA,101028.435,5547.597,N,03747.585,E,1,12,1.0,0.0,M,0.0,M,,*61
$GPGSA,A,3,01,02,03,04,05,06,07,08,09,10,11,12,1.0,1.0,1.0*30
$GPRMC,101028.435,A,5547.597,N,03747.585,E,388.8,268.8,020622,000.0,W*7E
$GPGGA,101028.535,5547.596,N,03747.565,E,1,12,1.0,0.0,M,0.0,M,,*6F
$GPGSA,A,3,01,02,03,04,05,06,07,08,09,10,11,12,1.0,1.0,1.0*30
$GPRMC,101028.535,A,5547.596,N,03747.565,E,388.8,268.8,020622,000.0,W*70
$GPGGA,101028.635,5547.596,N,03747.546,E,1,12,1.0,0.0,M,0.0,M,,*6D
$GPGSA,A,3,01,02,03,04,05,06,07,08,09,10,11,12,1.0,1.0,1.0*30
$GPRMC,101028.635,A,5547.596,N,03747.546,E,388.8,268.8,020622,000.0,W*72
$GPGGA,101028.735,5547.595,N,03747.527,E,1,12,1.0,0.0,M,0.0,M,,*68
$GPGSA,A,3,01,02,03,04,05,06,07,08,09,10,11,12,1.0,1.0,1.0*30
$GPRMC,101028.735,A,5547.595,N,03747.527,E,388.8,268.8,020622,000.0,W*77
$GPGGA,101028.835,5547.595,N,03747.508,E,1,12,1.0,0.0,M,0.0,M,,*6A
$GPGSA,A,3,01,02,03,04,05,06,07,08,09,10,11,12,1.0,1.0,1.0*30
$GPRMC,101028.835,A,5547.595,N,03747.508,E,388.8,268.8,020622,000.0,W*75
$GPGGA,101028.935,5547.595,N,03747.489,E,1,12,1.0,0.0,M,0.0,M,,*63
$GPGSA,A,3,01,02,03,04,05,06,07,08,09,10,11,12,1.0,1.0,1.0*30
$GPRMC,101028.935,A,5547.595,N,03747.489,E,388.8,268.8,020622,000.0,W*7C
$GPGGA,101029.035,5547.594,N,03747.469,E,1,12,1.0,0.0,M,0.0,M,,*64
$GPGSA,A,3,01,02,03,04,05,06,07,08,09,10,11,12,1.0,1.0,1.0*30
$GPRMC,101029.035,A,5547.594,N,03747.469,E,388.8,268.8,020622,000.0,W*7B
$GPGGA,101029.135,5547.594,N,03747.450,E,1,12,1.0,0.0,M,0.0,M,,*6F
$GPGSA,A,3,01,02,03,04,05,06,07,08,09,10,11,12,1.0,1.0,1.0*30
$GPRMC,101029.135,A,5547.594,N,03747.450,E,388.8,268.8,020622,000.0,W*70
$GPGGA,101029.235,5547.593,N,03747.431,E,1,12,1.0,0.0,M,0.0,M,,*6C
$GPGSA,A,3,01,02,03,04,05,06,07,08,09,10,11,12,1.0,1.0,1.0*30
$GPRMC,101029.235,A,5547.593,N,03747.431,E,388.8,268.8,020622,000.0,W*73
$GPGGA,101029.335,5547.593,N,03747.412,E,1,12,1.0,0.0,M,0.0,M,,*6C
$GPGSA,A,3,01,02,03,04,05,06,07,08,09,10,11,12,1.0,1.0,1.0*30
$GPRMC,101029.335,A,5547.593,N,03747.412,E,388.8,268.8,020622,000.0,W*73
$GPGGA,101029.435,5547.593,N,03747.393,E,1,12,1.0,0.0,M,0.0,M,,*65
$GPGSA,A,3,01,02,03,04,05,06,07,08,09,10,11,12,1.0,1.0,1.0*30
$GPRMC,101029.435,A,5547.593,N,03747.393,E,388.8,268.8,020622,000.0,W*7A
$GPGGA,101029.535,5547.592,N,03747.373,E,1,12,1.0,0.0,M,0.0,M,,*6B
$GPGSA,A,3,01,02,03,04,05,06,07,08,09,10,11,12,1.0,1.0,1.0*30
$GPRMC,101029.535,A,5547.592,N,03747.373,E,388.8,268.8,020622,000.0,W*74
$GPGGA,101029.635,5547.592,N,03747.354,E,1,12,1.0,0.0,M,0.0,M,,*6D
$GPGSA,A,3,01,02,03,04,05,06,07,08,09,10,11,12,1.0,1.0,1.0*30
$GPRMC,101029.635,A,5547.592,N,03747.354,E,388.8,268.8,020622,000.0,W*72
$GPGGA,101029.735,5547.591,N,03747.335,E,1,12,1.0,0.0,M,0.0,M,,*68
$GPGSA,A,3,01,02,03,04,05,06,07,08,09,10,11,12,1.0,1.0,1.0*30
$GPRMC,101029.735,A,5547.591,N,03747.335,E,388.8,268.8,020622,000.0,W*77
$GPGGA,101029.835,5547.591,N,03747.316,E,1,12,1.0,0.0,M,0.0,M,,*66
$GPGSA,A,3,01,02,03,04,05,06,07,08,09,10,11,12,1.0,1.0,1.0*30
$GPRMC,101029.835,A,5547.591,N,03747.316,E,388.8,268.8,020622,000.0,W*79
$GPGGA,101029.935,5547.591,N,03747.297,E,1,12,1.0,0.0,M,0.0,M,,*6F
$GPGSA,A,3,01,02,03,04,05,06,07,08,09,10,11,12,1.0,1.0,1.0*30
$GPRMC,101029.935,A,5547.591,N,03747.297,E,388.8,176.1,020622,000.0,W*75
$GPGGA,101030.035,5547.580,N,03747.298,E,1,12,1.0,0.0,M,0.0,M,,*61
$GPGSA,A,3,01,02,03,04,05,06,07,08,09,10,11,12,1.0,1.0,1.0*30
$GPRMC,101030.035,A,5547.580,N,03747.298,E,388.8,176.1,020622,000.0,W*7B
$GPGGA,101030.135,5547.569,N,03747.298,E,1,12,1.0,0.0,M,0.0,M,,*67
$GPGSA,A,3,01,02,03,04,05,06,07,08,09,10,11,12,1.0,1.0,1.0*30
$GPRMC,101030.135,A,5547.569,N,03747.298,E,388.8,176.1,020622,000.0,W*7D
$GPGGA,101030.235,5547.558,N,03747.299,E,1,12,1.0,0.0,M,0.0,M,,*67
$GPGSA,A,3,01,02,03,04,05,06,07,08,09,10,11,12,1.0,1.0,1.0*30
$GPRMC,101030.235,A,5547.558,N,03747.299,E,388.8,176.1,020622,000.0,W*7D
$GPGGA,101030.335,5547.548,N,03747.300,E,1,12,1.0,0.0,M,0.0,M,,*66
$GPGSA,A,3,01,02,03,04,05,06,07,08,09,10,11,12,1.0,1.0,1.0*30
$GPRMC,101030.335,A,5547.548,N,03747.300,E,388.8,176.1,020622,000.0,W*7C
$GPGGA,101030.435,5547.537,N,03747.301,E,1,12,1.0,0.0,M,0.0,M,,*68
$GPGSA,A,3,01,02,03,04,05,06,07,08,09,10,11,12,1.0,1.0,1.0*30
$GPRMC,101030.435,A,5547.537,N,03747.301,E,388.8,176.1,020622,000.0,W*72
$GPGGA,101030.535,5547.526,N,03747.301,E,1,12,1.0,0.0,M,0.0,M,,*69
$GPGSA,A,3,01,02,03,04,05,06,07,08,09,10,11,12,1.0,1.0,1.0*30
$GPRMC,101030.535,A,5547.526,N,03747.301,E,388.8,176.1,020622,000.0,W*73
$GPGGA,101030.635,5547.515,N,03747.302,E,1,12,1.0,0.0,M,0.0,M,,*69
$GPGSA,A,3,01,02,03,04,05,06,07,08,09,10,11,12,1.0,1.0,1.0*30
$GPRMC,101030.635,A,5547.515,N,03747.302,E,388.8,176.1,020622,000.0,W*73
$GPGGA,101030.735,5547.504,N,03747.303,E,1,12,1.0,0.0,M,0.0,M,,*69
$GPGSA,A,3,01,02,03,04,05,06,07,08,09,10,11,12,1.0,1.0,1.0*30
$GPRMC,101030.735,A,5547.504,N,03747.303,E,388.8,176.1,020622,000.0,W*73
$GPGGA,101030.835,5547.494,N,03747.303,E,1,12,1.0,0.0,M,0.0,M,,*6E
$GPGSA,A,3,01,02,03,04,05,06,07,08,09,10,11,12,1.0,1.0,1.0*30
$GPRMC,101030.835,A,5547.494,N,03747.303,E,388.8,176.1,020622,000.0,W*74
$GPGGA,101030.935,5547.483,N,03747.304,E,1,12,1.0,0.0,M,0.0,M,,*6E
$GPGSA,A,3,01,02,03,04,05,06,07,08,09,10,11,12,1.0,1.0,1.0*30
$GPRMC,101030.935,A,5547.483,N,03747.304,E,388.8,176.1,020622,000.0,W*74
$GPGGA,101031.035,5547.472,N,03747.305,E,1,12,1.0,0.0,M,0.0,M,,*69
$GPGSA,A,3,01,02,03,04,05,06,07,08,09,10,11,12,1.0,1.0,1.0*30
$GPRMC,101031.035,A,5547.472,N,03747.305,E,388.8,176.1,020622,000.0,W*73
$GPGGA,101031.135,5547.461,N,03747.306,E,1,12,1.0,0.0,M,0.0,M,,*69
$GPGSA,A,3,01,02,03,04,05,06,07,08,09,10,11,12,1.0,1.0,1.0*30
$GPRMC,101031.135,A,5547.461,N,03747.306,E,388.8,176.1,020622,000.0,W*73
$GPGGA,101031.235,5547.450,N,03747.306,E,1,12,1.0,0.0,M,0.0,M,,*68
$GPGSA,A,3,01,02,03,04,05,06,07,08,09,10,11,12,1.0,1.0,1.0*30
$GPRMC,101031.235,A,5547.450,N,03747.306,E,388.8,176.1,020622,000.0,W*72
$GPGGA,101031.335,5547.440,N,03747.307,E,1,12,1.0,0.0,M,0.0,M,,*69
$GPGSA,A,3,01,02,03,04,05,06,07,08,09,10,11,12,1.0,1.0,1.0*30
$GPRMC,101031.335,A,5547.440,N,03747.307,E,388.8,176.1,020622,000.0,W*73
$GPGGA,101031.435,5547.429,N,03747.308,E,1,12,1.0,0.0,M,0.0,M,,*6E
$GPGSA,A,3,01,02,03,04,05,06,07,08,09,10,11,12,1.0,1.0,1.0*30
$GPRMC,101031.435,A,5547.429,N,03747.308,E,388.8,176.1,020622,000.0,W*74
$GPGGA,101031.535,5547.418,N,03747.309,E,1,12,1.0,0.0,M,0.0,M,,*6C
$GPGSA,A,3,01,02,03,04,05,06,07,08,09,10,11,12,1.0,1.0,1.0*30
$GPRMC,101031.535,A,5547.418,N,03747.309,E,388.8,176.1,020622,000.0,W*76
$GPGGA,101031.635,5547.407,N,03747.309,E,1,12,1.0,0.0,M,0.0,M,,*61
$GPGSA,A,3,01,02,03,04,05,06,07,08,09,10,11,12,1.0,1.0,1.0*30
$GPRMC,101031.635,A,5547.407,N,03747.309,E,388.8,176.1,020622,000.0,W*7B
$GPGGA,101031.735,5547.397,N,03747.310,E,1,12,1.0,0.0,M,0.0,M,,*66
$GPGSA,A,3,01,02,03,04,05,06,07,08,09,10,11,12,1.0,1.0,1.0*30
$GPRMC,101031.735,A,5547.397,N,03747.310,E,388.8,269.3,020622,000.0,W*73
$GPGGA,101031.835,5547.396,N,03747.291,E,1,12,1.0,0.0,M,0.0,M,,*60
$GPGSA,A,3,01,02,03,04,05,06,07,08,09,10,11,12,1.0,1.0,1.0*30
$GPRMC,101031.835,A,5547.396,N,03747.291,E,388.8,269.3,020622,000.0,W*75
$GPGGA,101031.935,5547.396,N,03747.272,E,1,12,1.0,0.0,M,0.0,M,,*6C
$GPGSA,A,3,01,02,03,04,05,06,07,08,09,10,11,12,1.0,1.0,1.0*30
$GPRMC,101031.935,A,5547.396,N,03747.272,E,388.8,269.3,020622,000.0,W*79
$GPGGA,101032.035,5547.396,N,03747.253,E,1,12,1.0,0.0,M,0.0,M,,*65
$GPGSA,A,3,01,02,03,04,05,06,07,08,09,10,11,12,1.0,1.0,1.0*30
$GPRMC,101032.035,A,5547.396,N,03747.253,E,388.8,269.3,020622,000.0,W*70
$GPGGA,101032.135,5547.396,N,03747.233,E,1,12,1.0,0.0,M,0.0,M,,*62
$GPGSA,A,3,01,02,03,04,05,06,07,08,09,10,11,12,1.0,1.0,1.0*30
$GPRMC,101032.135,A,5547.396,N,03747.233,E,388.8,269.3,020622,000.0,W*77
$GPGGA,101032.235,5547.395,N,03747.214,E,1,12,1.0,0.0,M,0.0,M,,*67
$GPGSA,A,3,01,02,03,04,05,06,07,08,09,10,11,12,1.0,1.0,1.0*30
$GPRMC,101032.235,A,5547.395,N,03747.214,E,388.8,269.3,020622,000.0,W*72
$GPGGA,101032.335,5547.395,N,03747.195,E,1,12,1.0,0.0,M,0.0,M,,*6C
$GPGSA,A,3,01,02,03,04,05,06,07,08,09,10,11,12,1.0,1.0,1.0*30
$GPRMC,101032.335,A,5547.395,N,03747.195,E,388.8,269.3,020622,000.0,W*79
$GPGGA,101032.435,5547.395,N,03747.176,E,1,12,1.0,0.0,M,0.0,M,,*66
$GPGSA,A,3,01,02,03,04,05,06,07,08,09,10,11,12,1.0,1.0,1.0*30
$GPRMC,101032.435,A,5547.395,N,03747.176,E,388.8,269.3,020622,000.0,W*73
$GPGGA,101032.535,5547.395,N,03747.157,E,1,12,1.0,0.0,M,0.0,M,,*64
$GPGSA,A,3,01,02,03,04,05,06,07,08,09,10,11,12,1.0,1.0,1.0*30
$GPRMC,101032.535,A,5547.395,N,03747.157,E,388.8,269.3,020622,000.0,W*71
$GPGGA,101032.635,5547.395,N,03747.138,E,1,12,1.0,0.0,M,0.0,M,,*6E
$GPGSA,A,3,01,02,03,04,05,06,07,08,09,10,11,12,1.0,1.0,1.0*30
$GPRMC,101032.635,A,5547.395,N,03747.138,E,388.8,269.3,020622,000.0,W*7B
$GPGGA,101032.735,5547.394,N,03747.118,E,1,12,1.0,0.0,M,0.0,M,,*6C
$GPGSA,A,3,01,02,03,04,05,06,07,08,09,10,11,12,1.0,1.0,1.0*30
$GPRMC,101032.735,A,5547.394,N,03747.118,E,388.8,269.3,020622,000.0,W*79
$GPGGA,101032.835,5547.394,N,03747.099,E,1,12,1.0,0.0,M,0.0,M,,*6B
$GPGSA,A,3,01,02,03,04,05,06,07,08,09,10,11,12,1.0,1.0,1.0*30
$GPRMC,101032.835,A,5547.394,N,03747.099,E,388.8,269.3,020622,000.0,W*7E
$GPGGA,101032.935,5547.394,N,03747.080,E,1,12,1.0,0.0,M,0.0,M,,*62
$GPGSA,A,3,01,02,03,04,05,06,07,08,09,10,11,12,1.0,1.0,1.0*30
$GPRMC,101032.935,A,5547.394,N,03747.080,E,388.8,330.5,020622,000.0,W*7C
$GPGGA,101033.035,5547.404,N,03747.074,E,1,12,1.0,0.0,M,0.0,M,,*6F
$GPGSA,A,3,01,02,03,04,05,06,07,08,09,10,11,12,1.0,1.0,1.0*30
$GPRMC,101033.035,A,5547.404,N,03747.074,E,388.8,330.5,020622,000.0,W*71
$GPGGA,101033.135,5547.414,N,03747.068,E,1,12,1.0,0.0,M,0.0,M,,*62
$GPGSA,A,3,01,02,03,04,05,06,07,08,09,10,11,12,1.0,1.0,1.0*30
$GPRMC,101033.135,A,5547.414,N,03747.068,E,388.8,330.5,020622,000.0,W*7C
$GPGGA,101033.235,5547.425,N,03747.062,E,1,12,1.0,0.0,M,0.0,M,,*69
$GPGSA,A,3,01,02,03,04,05,06,07,08,09,10,11,12,1.0,1.0,1.0*30
$GPRMC,101033.235,A,5547.425,N,03747.062,E,388.8,330.5,020622,000.0,W*77
$GPGGA,101033.335,5547.435,N,03747.057,E,1,12,1.0,0.0,M,0.0,M,,*6F
$GPGSA,A,3,01,02,03,04,05,06,07,08,09,10,11,12,1.0,1.0,1.0*30
$GPRMC,101033.335,A,5547.435,N,03747.057,E,388.8,330.5,020622,000.0,W*71
$GPGGA,101033.435,5547.445,N,03747.051,E,1,12,1.0,0.0,M,0.0,M,,*69
$GPGSA,A,3,01,02,03,04,05,06,07,08,09,10,11,12,1.0,1.0,1.0*30
$GPRMC,101033.435,A,5547.445,N,03747.051,E,388.8,330.5,020622,000.0,W*77
$GPGGA,101033.535,5547.456,N,03747.045,E,1,12,1.0,0.0,M,0.0,M,,*6F
$GPGSA,A,3,01,02,03,04,05,06,07,08,09,10,11,12,1.0,1.0,1.0*30
$GPRMC,101033.535,A,5547.456,N,03747.045,E,388.8,330.5,020622,000.0,W*71
$GPGGA,101033.635,5547.466,N,03747.039,E,1,12,1.0,0.0,M,0.0,M,,*64
$GPGSA,A,3,01,02,03,04,05,06,07,08,09,10,11,12,1.0,1.0,1.0*30
$GPRMC,101033.635,A,5547.466,N,03747.039,E,388.8,330.5,020622,000.0,W*7A
$GPGGA,101033.735,5547.476,N,03747.033,E,1,12,1.0,0.0,M,0.0,M,,*6E
$GPGSA,A,3,01,02,03,04,05,06,07,08,09,10,11,12,1.0,1.0,1.0*30
$GPRMC,101033.735,A,5547.476,N,03747.033,E,388.8,330.5,020622,000.0,W*70
$GPGGA,101033.835,5547.486,N,03747.027,E,1,12,1.0,0.0,M,0.0,M,,*6B
$GPGSA,A,3,01,02,03,04,05,06,07,08,09,10,11,12,1.0,1.0,1.0*30
$GPRMC,101033.835,A,5547.486,N,03747.027,E,388.8,330.5,020622,000.0,W*75
$GPGGA,101033.935,5547.497,N,03747.022,E,1,12,1.0,0.0,M,0.0,M,,*6F
$GPGSA,A,3,01,02,03,04,05,06,07,08,09,10,11,12,1.0,1.0,1.0*30
$GPRMC,101033.935,A,5547.497,N,03747.022,E,388.8,330.5,020622,000.0,W*71
$GPGGA,101034.035,5547.507,N,03747.016,E,1,12,1.0,0.0,M,0.0,M,,*6E
$GPGSA,A,3,01,02,03,04,05,06,07,08,09,10,11,12,1.0,1.0,1.0*30
$GPRMC,101034.035,A,5547.507,N,03747.016,E,388.8,330.5,020622,000.0,W*70
$GPGGA,101034.135,5547.517,N,03747.010,E,1,12,1.0,0.0,M,0.0,M,,*68
$GPGSA,A,3,01,02,03,04,05,06,07,08,09,10,11,12,1.0,1.0,1.0*30
$GPRMC,101034.135,A,5547.517,N,03747.010,E,388.8,330.5,020622,000.0,W*76
$GPGGA,101034.235,5547.527,N,03747.004,E,1,12,1.0,0.0,M,0.0,M,,*6D
$GPGSA,A,3,01,02,03,04,05,06,07,08,09,10,11,12,1.0,1.0,1.0*30
$GPRMC,101034.235,A,5547.527,N,03747.004,E,388.8,330.5,020622,000.0,W*73
$GPGGA,101034.335,5547.538,N,03746.998,E,1,12,1.0,0.0,M,0.0,M,,*6F
$GPGSA,A,3,01,02,03,04,05,06,07,08,09,10,11,12,1.0,1.0,1.0*30
$GPRMC,101034.335,A,5547.538,N,03746.998,E,388.8,330.5,020622,000.0,W*71
$GPGGA,101034.435,5547.548,N,03746.992,E,1,12,1.0,0.0,M,0.0,M,,*65
$GPGSA,A,3,01,02,03,04,05,06,07,08,09,10,11,12,1.0,1.0,1.0*30
$GPRMC,101034.435,A,5547.548,N,03746.992,E,388.8,330.5,020622,000.0,W*7B
$GPGGA,101034.535,5547.558,N,03746.987,E,1,12,1.0,0.0,M,0.0,M,,*61
$GPGSA,A,3,01,02,03,04,05,06,07,08,09,10,11,12,1.0,1.0,1.0*30
$GPRMC,101034.535,A,5547.558,N,03746.987,E,388.8,330.5,020622,000.0,W*7F
$GPGGA,101034.635,5547.569,N,03746.981,E,1,12,1.0,0.0,M,0.0,M,,*66
$GPGSA,A,3,01,02,03,04,05,06,07,08,09,10,11,12,1.0,1.0,1.0*30
$GPRMC,101034.635,A,5547.569,N,03746.981,E,388.8,351.6,020622,000.0,W*7C
$GPGGA,101034.735,5547.579,N,03746.979,E,1,12,1.0,0.0,M,0.0,M,,*61
$GPGSA,A,3,01,02,03,04,05,06,07,08,09,10,11,12,1.0,1.0,1.0*30
$GPRMC,101034.735,A,5547.579,N,03746.979,E,388.8,351.6,020622,000.0,W*7B
$GPGGA,101034.835,5547.590,N,03746.978,E,1,12,1.0,0.0,M,0.0,M,,*68
$GPGSA,A,3,01,02,03,04,05,06,07,08,09,10,11,12,1.0,1.0,1.0*30
$GPRMC,101034.835,A,5547.590,N,03746.978,E,388.8,351.6,020622,000.0,W*72
$GPGGA,101034.935,5547.601,N,03746.976,E,1,12,1.0,0.0,M,0.0,M,,*6C
$GPGSA,A,3,01,02,03,04,05,06,07,08,09,10,11,12,1.0,1.0,1.0*30
$GPRMC,101034.935,A,5547.601,N,03746.976,E,388.8,351.6,020622,000.0,W*76
$GPGGA,101035.035,5547.612,N,03746.974,E,1,12,1.0,0.0,M,0.0,M,,*64
$GPGSA,A,3,01,02,03,04,05,06,07,08,09,10,11,12,1.0,1.0,1.0*30
$GPRMC,101035.035,A,5547.612,N,03746.974,E,388.8,351.6,020622,000.0,W*7E
$GPGGA,101035.135,5547.622,N,03746.973,E,1,12,1.0,0.0,M,0.0,M,,*61
$GPGSA,A,3,01,02,03,04,05,06,07,08,09,10,11,12,1.0,1.0,1.0*30
$GPRMC,101035.135,A,5547.622,N,03746.973,E,388.8,351.6,020622,000.0,W*7B
$GPGGA,101035.235,5547.633,N,03746.971,E,1,12,1.0,0.0,M,0.0,M,,*60
$GPGSA,A,3,01,02,03,04,05,06,07,08,09,10,11,12,1.0,1.0,1.0*30
$GPRMC,101035.235,A,5547.633,N,03746.971,E,388.8,351.6,020622,000.0,W*7A
$GPGGA,101035.335,5547.644,N,03746.970,E,1,12,1.0,0.0,M,0.0,M,,*60
$GPGSA,A,3,01,02,03,04,05,06,07,08,09,10,11,12,1.0,1.0,1.0*30
$GPRMC,101035.335,A,5547.644,N,03746.970,E,388.8,351.6,020622,000.0,W*7A
$GPGGA,101035.435,5547.655,N,03746.968,E,1,12,1.0,0.0,M,0.0,M,,*6E
$GPGSA,A,3,01,02,03,04,05,06,07,08,09,10,11,12,1.0,1.0,1.0*30
$GPRMC,101035.435,A,5547.655,N,03746.968,E,388.8,351.6,020622,000.0,W*74
$GPGGA,101035.535,5547.665,N,03746.966,E,1,12,1.0,0.0,M,0.0,M,,*62
$GPGSA,A,3,01,02,03,04,05,06,07,08,09,10,11,12,1.0,1.0,1.0*30
$GPRMC,101035.535,A,5547.665,N,03746.966,E,388.8,351.6,020622,000.0,W*78
$GPGGA,101035.635,5547.676,N,03746.965,E,1,12,1.0,0.0,M,0.0,M,,*60
$GPGSA,A,3,01,02,03,04,05,06,07,08,09,10,11,12,1.0,1.0,1.0*30
$GPRMC,101035.635,A,5547.676,N,03746.965,E,388.8,351.6,020622,000.0,W*7A
$GPGGA,101035.735,5547.687,N,03746.963,E,1,12,1.0,0.0,M,0.0,M,,*69
$GPGSA,A,3,01,02,03,04,05,06,07,08,09,10,11,12,1.0,1.0,1.0*30
$GPRMC,101035.735,A,5547.687,N,03746.963,E,388.8,351.6,020622,000.0,W*73
$GPGGA,101035.835,5547.698,N,03746.962,E,1,12,1.0,0.0,M,0.0,M,,*69
$GPGSA,A,3,01,02,03,04,05,06,07,08,09,10,11,12,1.0,1.0,1.0*30
$GPRMC,101035.835,A,5547.698,N,03746.962,E,388.8,351.6,020622,000.0,W*73
$GPGGA,101035.935,5547.708,N,03746.960,E,1,12,1.0,0.0,M,0.0,M,,*62
$GPGSA,A,3,01,02,03,04,05,06,07,08,09,10,11,12,1.0,1.0,1.0*30
$GPRMC,101035.935,A,5547.708,N,03746.960,E,388.8,351.6,020622,000.0,W*78
$GPGGA,101036.035,5547.719,N,03746.958,E,1,12,1.0,0.0,M,0.0,M,,*63
$GPGSA,A,3,01,02,03,04,05,06,07,08,09,10,11,12,1.0,1.0,1.0*30
$GPRMC,101036.035,A,5547.719,N,03746.958,E,388.8,351.6,020622,000.0,W*79
$GPGGA,101036.135,5547.730,N,03746.957,E,1,12,1.0,0.0,M,0.0,M,,*66
$GPGSA,A,3,01,02,03,04,05,06,07,08,09,10,11,12,1.0,1.0,1.0*30
$GPRMC,101036.135,A,5547.730,N,03746.957,E,388.8,351.6,020622,000.0,W*7C
$GPGGA,101036.235,5547.741,N,03746.955,E,1,12,1.0,0.0,M,0.0,M,,*61
$GPGSA,A,3,01,02,03,04,05,06,07,08,09,10,11,12,1.0,1.0,1.0*30
$GPRMC,101036.235,A,5547.741,N,03746.955,E,388.8,351.6,020622,000.0,W*7B
$GPGGA,101036.335,5547.751,N,03746.954,E,1,12,1.0,0.0,M,0.0,M,,*60
$GPGSA,A,3,01,02,03,04,05,06,07,08,09,10,11,12,1.0,1.0,1.0*30
$GPRMC,101036.335,A,5547.751,N,03746.954,E,388.8,351.6,020622,000.0,W*7A
$GPGGA,101036.435,5547.762,N,03746.952,E,1,12,1.0,0.0,M,0.0,M,,*61
$GPGSA,A,3,01,02,03,04,05,06,07,08,09,10,11,12,1.0,1.0,1.0*30
$GPRMC,101036.435,A,5547.762,N,03746.952,E,388.8,351.6,020622,000.0,W*7B
$GPGGA,101036.535,5547.773,N,03746.950,E,1,12,1.0,0.0,M,0.0,M,,*62
$GPGSA,A,3,01,02,03,04,05,06,07,08,09,10,11,12,1.0,1.0,1.0*30
$GPRMC,101036.535,A,5547.773,N,03746.950,E,388.8,351.6,020622,000.0,W*78
$GPGGA,101036.635,5547.784,N,03746.949,E,1,12,1.0,0.0,M,0.0,M,,*61
$GPGSA,A,3,01,02,03,04,05,06,07,08,09,10,11,12,1.0,1.0,1.0*30
$GPRMC,101036.635,A,5547.784,N,03746.949,E,388.8,351.6,020622,000.0,W*7B
$GPGGA,101036.735,5547.794,N,03746.947,E,1,12,1.0,0.0,M,0.0,M,,*6F
$GPGSA,A,3,01,02,03,04,05,06,07,08,09,10,11,12,1.0,1.0,1.0*30
$GPRMC,101036.735,A,5547.794,N,03746.947,E,388.8,351.6,020622,000.0,W*75
$GPGGA,101036.835,5547.805,N,03746.946,E,1,12,1.0,0.0,M,0.0,M,,*66
$GPGSA,A,3,01,02,03,04,05,06,07,08,09,10,11,12,1.0,1.0,1.0*30
$GPRMC,101036.835,A,5547.805,N,03746.946,E,388.8,351.6,020622,000.0,W*7C
$GPGGA,101036.935,5547.816,N,03746.944,E,1,12,1.0,0.0,M,0.0,M,,*67
$GPGSA,A,3,01,02,03,04,05,06,07,08,09,10,11,12,1.0,1.0,1.0*30
$GPRMC,101036.935,A,5547.816,N,03746.944,E,388.8,351.6,020622,000.0,W*7D
$GPGGA,101037.035,5547.827,N,03746.942,E,1,12,1.0,0.0,M,0.0,M,,*6B
$GPGSA,A,3,01,02,03,04,05,06,07,08,09,10,11,12,1.0,1.0,1.0*30
$GPRMC,101037.035,A,5547.827,N,03746.942,E,388.8,276.7,020622,000.0,W*74
$GPGGA,101037.135,5547.829,N,03746.923,E,1,12,1.0,0.0,M,0.0,M,,*63
$GPGSA,A,3,01,02,03,04,05,06,07,08,09,10,11,12,1.0,1.0,1.0*30
$GPRMC,101037.135,A,5547.829,N,03746.923,E,388.8,276.7,020622,000.0,W*7C
$GPGGA,101037.235,5547.831,N,03746.905,E,1,12,1.0,0.0,M,0.0,M,,*6D
$GPGSA,A,3,01,02,03,04,05,06,07,08,09,10,11,12,1.0,1.0,1.0*30
$GPRMC,101037.235,A,5547.831,N,03746.905,E,388.8,276.7,020622,000.0,W*72
$GPGGA,101037.335,5547.833,N,03746.886,E,1,12,1.0,0.0,M,0.0,M,,*64
$GPGSA,A,3,01,02,03,04,05,06,07,08,09,10,11,12,1.0,1.0,1.0*30
$GPRMC,101037.335,A,5547.833,N,03746.886,E,388.8,276.7,020622,000.0,W*7B
$GPGGA,101037.435,5547.835,N,03746.867,E,1,12,1.0,0.0,M,0.0,M,,*6A
$GPGSA,A,3,01,02,03,04,05,06,07,08,09,10,11,12,1.0,1.0,1.0*30
$GPRMC,101037.435,A,5547.835,N,03746.867,E,388.8,276.7,020622,000.0,W*75
$GPGGA,101037.535,5547.838,N,03746.848,E,1,12,1.0,0.0,M,0.0,M,,*6B
$GPGSA,A,3,01,02,03,04,05,06,07,08,09,10,11,12,1.0,1.0,1.0*30
$GPRMC,101037.535,A,5547.838,N,03746.848,E,388.8,276.7,020622,000.0,W*74
$GPGGA,101037.635,5547.840,N,03746.830,E,1,12,1.0,0.0,M,0.0,M,,*68
$GPGSA,A,3,01,02,03,04,05,06,07,08,09,10,11,12,1.0,1.0,1.0*30
$GPRMC,101037.635,A,5547.840,N,03746.830,E,388.8,276.7,020622,000.0,W*77
$GPGGA,101037.735,5547.842,N,03746.811,E,1,12,1.0,0.0,M,0.0,M,,*68
$GPGSA,A,3,01,02,03,04,05,06,07,08,09,10,11,12,1.0,1.0,1.0*30
$GPRMC,101037.735,A,5547.842,N,03746.811,E,388.8,276.7,020622,000.0,W*77
$GPGGA,101037.835,5547.844,N,03746.792,E,1,12,1.0,0.0,M,0.0,M,,*65
$GPGSA,A,3,01,02,03,04,05,06,07,08,09,10,11,12,1.0,1.0,1.0*30
$GPRMC,101037.835,A,5547.844,N,03746.792,E,388.8,276.7,020622,000.0,W*7A
$GPGGA,101037.935,5547.846,N,03746.773,E,1,12,1.0,0.0,M,0.0,M,,*69
$GPGSA,A,3,01,02,03,04,05,06,07,08,09,10,11,12,1.0,1.0,1.0*30
$GPRMC,101037.935,A,5547.846,N,03746.773,E,388.8,276.7,020622,000.0,W*76
$GPGGA,101038.035,5547.849,N,03746.754,E,1,12,1.0,0.0,M,0.0,M,,*65
$GPGSA,A,3,01,02,03,04,05,06,07,08,09,10,11,12,1.0,1.0,1.0*30
$GPRMC,101038.035,A,5547.849,N,03746.754,E,388.8,276.7,020622,000.0,W*7A
$GPGGA,101038.135,5547.851,N,03746.736,E,1,12,1.0,0.0,M,0.0,M,,*69
$GPGSA,A,3,01,02,03,04,05,06,07,08,09,10,11,12,1.0,1.0,1.0*30
$GPRMC,101038.135,A,5547.851,N,03746.736,E,388.8,276.7,020622,000.0,W*76
$GPGGA,101038.235,5547.853,N,03746.717,E,1,12,1.0,0.0,M,0.0,M,,*6B
$GPGSA,A,3,01,02,03,04,05,06,07,08,09,10,11,12,1.0,1.0,1.0*30
$GPRMC,101038.235,A,5547.853,N,03746.717,E,388.8,276.7,020622,000.0,W*74
$GPGGA,101038.335,5547.855,N,03746.698,E,1,12,1.0,0.0,M,0.0,M,,*6A
$GPGSA,A,3,01,02,03,04,05,06,07,08,09,10,11,12,1.0,1.0,1.0*30
$GPRMC,101038.335,A,5547.855,N,03746.698,E,388.8,276.7,020622,000.0,W*75
$GPGGA,101038.435,5547.857,N,03746.679,E,1,12,1.0,0.0,M,0.0,M,,*60
$GPGSA,A,3,01,02,03,04,05,06,07,08,09,10,11,12,1.0,1.0,1.0*30
$GPRMC,101038.435,A,5547.857,N,03746.679,E,388.8,276.7,020622,000.0,W*7F
$GPGGA,101038.535,5547.860,N,03746.660,E,1,12,1.0,0.0,M,0.0,M,,*6D
$GPGSA,A,3,01,02,03,04,05,06,07,08,09,10,11,12,1.0,1.0,1.0*30
$GPRMC,101038.535,A,5547.860,N,03746.660,E,388.8,276.7,020622,000.0,W*72
$GPGGA,101038.635,5547.862,N,03746.642,E,1,12,1.0,0.0,M,0.0,M,,*6C
$GPGSA,A,3,01,02,03,04,05,06,07,08,09,10,11,12,1.0,1.0,1.0*30
$GPRMC,101038.635,A,5547.862,N,03746.642,E,388.8,276.7,020622,000.0,W*73
$GPGGA,101038.735,5547.864,N,03746.623,E,1,12,1.0,0.0,M,0.0,M,,*6C
$GPGSA,A,3,01,02,03,04,05,06,07,08,09,10,11,12,1.0,1.0,1.0*30
$GPRMC,101038.735,A,5547.864,N,03746.623,E,388.8,276.7,020622,000.0,W*73
$GPGGA,101038.835,5547.866,N,03746.604,E,1,12,1.0,0.0,M,0.0,M,,*64
$GPGSA,A,3,01,02,03,04,05,06,07,08,09,10,11,12,1.0,1.0,1.0*30
$GPRMC,101038.835,A,5547.866,N,03746.604,E,388.8,276.7,020622,000.0,W*7B
$GPGGA,101038.935,5547.868,N,03746.585,E,1,12,1.0,0.0,M,0.0,M,,*61
$GPGSA,A,3,01,02,03,04,05,06,07,08,09,10,11,12,1.0,1.0,1.0*30
$GPRMC,101038.935,A,5547.868,N,03746.585,E,388.8,276.7,020622,000.0,W*7E
$GPGGA,101039.035,5547.871,N,03746.566,E,1,12,1.0,0.0,M,0.0,M,,*6C
$GPGSA,A,3,01,02,03,04,05,06,07,08,09,10,11,12,1.0,1.0,1.0*30
$GPRMC,101039.035,A,5547.871,N,03746.566,E,388.8,276.7,020622,000.0,W*73
$GPGGA,101039.135,5547.873,N,03746.548,E,1,12,1.0,0.0,M,0.0,M,,*63
$GPGSA,A,3,01,02,03,04,05,06,07,08,09,10,11,12,1.0,1.0,1.0*30
$GPRMC,101039.135,A,5547.873,N,03746.548,E,388.8,276.7,020622,000.0,W*7C
$GPGGA,101039.235,5547.875,N,03746.529,E,1,12,1.0,0.0,M,0.0,M,,*61
$GPGSA,A,3,01,02,03,04,05,06,07,08,09,10,11,12,1.0,1.0,1.0*30
$GPRMC,101039.235,A,5547.875,N,03746.529,E,388.8,276.7,020622,000.0,W*7E
$GPGGA,101039.335,5547.877,N,03746.510,E,1,12,1.0,0.0,M,0.0,M,,*68
$GPGSA,A,3,01,02,03,04,05,06,07,08,09,10,11,12,1.0,1.0,1.0*30
$GPRMC,101039.335,A,5547.877,N,03746.510,E,388.8,276.7,020622,000.0,W*77
