$GPRMC,160718.572,A,5545.130,N,03745.534,E,001.9,076.7,310522,000.0,W*7E
$GPRMC,160719.572,A,5545.130,N,03745.535,E,001.9,076.7,310522,000.0,W*7E
$GPRMC,160720.572,A,5545.130,N,03745.535,E,001.9,076.7,310522,000.0,W*74
$GPRMC,160721.572,A,5545.130,N,03745.536,E,001.9,076.7,310522,000.0,W*76
$GPRMC,160722.572,A,5545.131,N,03745.537,E,001.9,076.7,310522,000.0,W*75
$GPRMC,160723.572,A,5545.131,N,03745.538,E,001.9,076.7,310522,000.0,W*7B
$GPRMC,160724.572,A,5545.131,N,03745.539,E,001.9,076.7,310522,000.0,W*7D
$GPRMC,160725.572,A,5545.131,N,03745.540,E,001.9,076.7,310522,000.0,W*72
$GPRMC,160726.572,A,5545.131,N,03745.541,E,001.9,076.7,310522,000.0,W*70
$GPRMC,160727.572,A,5545.132,N,03745.542,E,001.9,076.7,310522,000.0,W*71
$GPRMC,160728.572,A,5545.132,N,03745.542,E,001.9,076.7,310522,000.0,W*7E
$GPRMC,160729.572,A,5545.132,N,03745.543,E,001.9,076.7,310522,000.0,W*7E
$GPRMC,160730.572,A,5545.132,N,03745.544,E,001.9,076.7,310522,000.0,W*71
$GPRMC,160731.572,A,5545.133,N,03745.545,E,001.9,076.7,310522,000.0,W*70
$GPRMC,160732.572,A,5545.133,N,03745.546,E,001.9,076.7,310522,000.0,W*70
$GPRMC,160733.572,A,5545.133,N,03745.547,E,001.9,076.7,310522,000.0,W*70
$GPRMC,160734.572,A,5545.133,N,03745.548,E,001.9,076.7,310522,000.0,W*78
$GPRMC,160735.572,A,5545.133,N,03745.549,E,001.9,076.7,310522,000.0,W*78
$GPRMC,160736.572,A,5545.134,N,03745.550,E,001.9,076.7,310522,000.0,W*74
$GPRMC,160737.572,A,5545.134,N,03745.550,E,001.9,076.7,310522,000.0,W*75
$GPRMC,160738.572,A,5545.134,N,03745.551,E,001.9,076.7,310522,000.0,W*7B
$GPRMC,160739.572,A,5545.134,N,03745.552,E,001.9,076.7,310522,000.0,W*79
$GPRMC,160740.572,A,5545.134,N,03745.553,E,001.9,076.7,310522,000.0,W*76
$GPRMC,160741.572,A,5545.135,N,03745.554,E,001.9,076.7,310522,000.0,W*71
$GPRMC,160742.572,A,5545.135,N,03745.555,E,001.9,076.7,310522,000.0,W*73
$GPRMC,160743.572,A,5545.135,N,03745.556,E,001.9,076.7,310522,000.0,W*71
$GPRMC,160744.572,A,5545.135,N,03745.557,E,001.9,076.7,310522,000.0,W*77
$GPRMC,160745.572,A,5545.135,N,03745.558,E,001.9,076.7,310522,000.0,W*79
$GPRMC,160746.572,A,5545.136,N,03745.558,E,001.9,076.7,310522,000.0,W*79
$GPRMC,160747.572,A,5545.136,N,03745.559,E,001.9,076.7,310522,000.0,W*79
$GPRMC,160748.572,A,5545.136,N,03745.560,E,001.9,076.7,310522,000.0,W*7C
$GPRMC,160749.572,A,5545.136,N,03745.561,E,001.9,076.7,310522,000.0,W*7C
$GPRMC,160750.572,A,5545.136,N,03745.562,E,001.9,076.7,310522,000.0,W*77
$GPRMC,160751.572,A,5545.137,N,03745.563,E,001.9,076.7,310522,000.0,W*76
$GPRMC,160752.572,A,5545.137,N,03745.564,E,001.9,076.7,310522,000.0,W*72
$GPRMC,160753.572,A,5545.137,N,03745.565,E,001.9,076.7,310522,000.0,W*72
$GPRMC,160754.572,A,5545.137,N,03745.565,E,001.9,076.7,310522,000.0,W*75
$GPRMC,160755.572,A,5545.137,N,03745.566,E,001.9,076.7,310522,000.0,W*77
$GPRMC,160756.572,A,5545.138,N,03745.567,E,001.9,076.7,310522,000.0,W*7A
$GPRMC,160757.572,A,5545.138,N,03745.568,E,001.9,076.7,310522,000.0,W*74
$GPRMC,160758.572,A,5545.138,N,03745.569,E,001.9,076.7,310522,000.0,W*7A
$GPRMC,160759.572,A,5545.138,N,03745.570,E,001.9,076.7,310522,000.0,W*73
$GPRMC,160800.572,A,5545.139,N,03745.571,E,001.9,076.7,310522,000.0,W*70
$GPRMC,160801.572,A,5545.139,N,03745.572,E,001.9,076.7,310522,000.0,W*72
$GPRMC,160802.572,A,5545.139,N,03745.573,E,001.9,076.7,310522,000.0,W*70
$GPRMC,160803.572,A,5545.139,N,03745.573,E,001.9,076.7,310522,000.0,W*71
$GPRMC,160804.572,A,5545.139,N,03745.574,E,001.9,076.7,310522,000.0,W*71
$GPRMC,160805.572,A,5545.140,N,03745.575,E,001.9,076.7,310522,000.0,W*7F
$GPRMC,160806.572,A,5545.140,N,03745.576,E,001.9,076.7,310522,000.0,W*7F
$GPRMC,160807.572,A,5545.140,N,03745.577,E,001.9,076.7,310522,000.0,W*7F
$GPRMC,160808.572,A,5545.140,N,03745.578,E,001.9,076.7,310522,000.0,W*7F
$GPRMC,160809.572,A,5545.140,N,03745.579,E,001.9,076.7,310522,000.0,W*7F
$GPRMC,160810.572,A,5545.141,N,03745.580,E,001.9,076.7,310522,000.0,W*70
$GPRMC,160811.572,A,5545.141,N,03745.581,E,001.9,076.7,310522,000.0,W*70
$GPRMC,160812.572,A,5545.141,N,03745.581,E,001.9,076.7,310522,000.0,W*73
$GPRMC,160813.572,A,5545.141,N,03745.582,E,001.9,076.7,310522,000.0,W*71
$GPRMC,160814.572,A,5545.141,N,03745.583,E,001.9,076.7,310522,000.0,W*77
$GPRMC,160815.572,A,5545.142,N,03745.584,E,001.9,076.7,310522,000.0,W*72
$GPRMC,160816.572,A,5545.142,N,03745.585,E,001.9,076.7,310522,000.0,W*70
$GPRMC,160817.572,A,5545.142,N,03745.586,E,001.9,076.7,310522,000.0,W*72
$GPRMC,160818.572,A,5545.142,N,03745.587,E,001.9,076.7,310522,000.0,W*7C
$GPRMC,160819.572,A,5545.142,N,03745.588,E,001.9,076.7,310522,000.0,W*72
$GPRMC,160820.572,A,5545.143,N,03745.588,E,001.9,076.7,310522,000.0,W*79
$GPRMC,160821.572,A,5545.143,N,03745.589,E,001.9,076.7,310522,000.0,W*79
$GPRMC,160822.572,A,5545.143,N,03745.590,E,001.9,076.7,310522,000.0,W*72
$GPRMC,160823.572,A,5545.143,N,03745.591,E,001.9,076.7,310522,000.0,W*72
$GPRMC,160824.572,A,5545.144,N,03745.592,E,001.9,076.7,310522,000.0,W*71
$GPRMC,160825.572,A,5545.144,N,03745.593,E,001.9,076.7,310522,000.0,W*71
$GPRMC,160826.572,A,5545.144,N,03745.594,E,001.9,076.7,310522,000.0,W*75
$GPRMC,160827.572,A,5545.144,N,03745.595,E,001.9,076.7,310522,000.0,W*75
$GPRMC,160828.572,A,5545.144,N,03745.596,E,001.9,076.7,310522,000.0,W*79
$GPRMC,160829.572,A,5545.145,N,03745.596,E,001.9,076.7,310522,000.0,W*79
$GPRMC,160830.572,A,5545.145,N,03745.597,E,001.9,076.7,310522,000.0,W*70
$GPRMC,160831.572,A,5545.145,N,03745.598,E,001.9,076.7,310522,000.0,W*7E
$GPRMC,160832.572,A,5545.145,N,03745.599,E,001.9,076.7,310522,000.0,W*7C
$GPRMC,160833.572,A,5545.145,N,03745.600,E,001.9,076.7,310522,000.0,W*7E
$GPRMC,160834.572,A,5545.146,N,03745.601,E,001.9,076.7,310522,000.0,W*7B
$GPRMC,160835.572,A,5545.146,N,03745.602,E,001.9,076.7,310522,000.0,W*79
$GPRMC,160836.572,A,5545.146,N,03745.603,E,001.9,076.7,310522,000.0,W*7B
$GPRMC,160837.572,A,5545.146,N,03745.604,E,001.9,076.7,310522,000.0,W*7D
$GPRMC,160838.572,A,5545.146,N,03745.604,E,001.9,076.7,310522,000.0,W*72
$GPRMC,160839.572,A,5545.147,N,03745.605,E,001.9,076.7,310522,000.0,W*73
$GPRMC,160840.572,A,5545.147,N,03745.606,E,001.9,076.7,310522,000.0,W*7E
$GPRMC,160841.572,A,5545.147,N,03745.607,E,001.9,076.7,310522,000.0,W*7E
$GPRMC,160842.572,A,5545.147,N,03745.608,E,001.9,076.7,310522,000.0,W*72
$GPRMC,160843.572,A,5545.147,N,03745.609,E,001.9,076.7,310522,000.0,W*72
$GPRMC,160844.572,A,5545.148,N,03745.610,E,001.9,076.7,310522,000.0,W*72
$GPRMC,160845.572,A,5545.148,N,03745.611,E,001.9,076.7,310522,000.0,W*72
$GPRMC,160846.572,A,5545.148,N,03745.611,E,001.9,076.7,310522,000.0,W*71
$GPRMC,160847.572,A,5545.148,N,03745.612,E,001.9,076.7,310522,000.0,W*73
$GPRMC,160848.572,A,5545.149,N,03745.613,E,001.9,076.7,310522,000.0,W*7C
$GPRMC,160849.572,A,5545.149,N,03745.614,E,001.9,076.7,310522,000.0,W*7A
$GPRMC,160850.572,A,5545.149,N,03745.615,E,001.9,076.7,310522,000.0,W*73
$GPRMC,160851.572,A,5545.149,N,03745.616,E,001.9,076.7,310522,000.0,W*71
$GPRMC,160852.572,A,5545.149,N,03745.617,E,001.9,076.7,310522,000.0,W*73
$GPRMC,160853.572,A,5545.150,N,03745.618,E,001.9,076.7,310522,000.0,W*75
$GPRMC,160854.572,A,5545.150,N,03745.619,E,001.9,076.7,310522,000.0,W*73
$GPRMC,160855.572,A,5545.150,N,03745.619,E,001.9,076.7,310522,000.0,W*72
$GPRMC,160856.572,A,5545.150,N,03745.620,E,001.9,076.7,310522,000.0,W*7B
$GPRMC,160857.572,A,5545.150,N,03745.621,E,001.9,076.7,310522,000.0,W*7B
$GPRMC,160858.572,A,5545.151,N,03745.622,E,001.9,076.7,310522,000.0,W*76
$GPRMC,160859.572,A,5545.151,N,03745.623,E,001.9,076.7,310522,000.0,W*76
$GPRMC,160900.572,A,5545.151,N,03745.624,E,001.9,076.7,310522,000.0,W*7C
$GPRMC,160901.572,A,5545.151,N,03745.625,E,001.9,076.7,310522,000.0,W*7C
$GPRMC,160902.572,A,5545.151,N,03745.626,E,001.9,076.7,310522,000.0,W*7C
$GPRMC,160903.572,A,5545.152,N,03745.627,E,001.9,076.7,310522,000.0,W*7F
$GPRMC,160904.572,A,5545.152,N,03745.627,E,001.9,076.7,310522,000.0,W*78
$GPRMC,160905.572,A,5545.152,N,03745.628,E,001.9,076.7,310522,000.0,W*76
$GPRMC,160906.572,A,5545.152,N,03745.629,E,001.9,076.7,310522,000.0,W*74
$GPRMC,160907.572,A,5545.152,N,03745.630,E,001.9,076.7,310522,000.0,W*7D
$GPRMC,160908.572,A,5545.153,N,03745.631,E,001.9,076.7,310522,000.0,W*72
$GPRMC,160909.572,A,5545.153,N,03745.632,E,001.9,076.7,310522,000.0,W*70
$GPRMC,160910.572,A,5545.153,N,03745.633,E,001.9,076.7,310522,000.0,W*79
$GPRMC,160911.572,A,5545.153,N,03745.634,E,001.9,076.7,310522,000.0,W*7F
$GPRMC,160912.572,A,5545.154,N,03745.634,E,001.9,146.4,310522,000.0,W*7A
$GPRMC,160913.572,A,5545.153,N,03745.635,E,001.9,146.4,310522,000.0,W*7D
$GPRMC,160914.572,A,5545.153,N,03745.635,E,001.9,146.4,310522,000.0,W*7A
$GPRMC,160915.572,A,5545.152,N,03745.636,E,001.9,146.4,310522,000.0,W*79
$GPRMC,160916.572,A,5545.151,N,03745.636,E,001.9,146.4,310522,000.0,W*79
$GPRMC,160917.572,A,5545.151,N,03745.636,E,001.9,146.4,310522,000.0,W*78
$GPRMC,160918.572,A,5545.150,N,03745.637,E,001.9,146.4,310522,000.0,W*77
$GPRMC,160919.572,A,5545.150,N,03745.637,E,001.9,146.4,310522,000.0,W*76
$GPRMC,160920.572,A,5545.149,N,03745.637,E,001.9,146.4,310522,000.0,W*74
$GPRMC,160921.572,A,5545.149,N,03745.638,E,001.9,146.4,310522,000.0,W*7A
$GPRMC,160922.572,A,5545.148,N,03745.638,E,001.9,146.4,310522,000.0,W*78
$GPRMC,160923.572,A,5545.148,N,03745.638,E,001.9,146.4,310522,000.0,W*79
$GPRMC,160924.572,A,5545.147,N,03745.639,E,001.9,146.4,310522,000.0,W*70
$GPRMC,160925.572,A,5545.147,N,03745.639,E,001.9,146.4,310522,000.0,W*71
$GPRMC,160926.572,A,5545.146,N,03745.639,E,001.9,146.4,310522,000.0,W*73
$GPRMC,160927.572,A,5545.146,N,03745.640,E,001.9,146.4,310522,000.0,W*7C
$GPRMC,160928.572,A,5545.145,N,03745.640,E,001.9,146.4,310522,000.0,W*70
$GPRMC,160929.572,A,5545.145,N,03745.640,E,001.9,146.4,310522,000.0,W*71
$GPRMC,160930.572,A,5545.144,N,03745.641,E,001.9,146.4,310522,000.0,W*79
$GPRMC,160931.572,A,5545.144,N,03745.641,E,001.9,146.4,310522,000.0,W*78
$GPRMC,160932.572,A,5545.143,N,03745.641,E,001.9,146.4,310522,000.0,W*7C
$GPRMC,160933.572,A,5545.143,N,03745.642,E,001.9,146.4,310522,000.0,W*7E
$GPRMC,160934.572,A,5545.142,N,03745.642,E,001.9,146.4,310522,000.0,W*78
$GPRMC,160935.572,A,5545.142,N,03745.642,E,001.9,146.4,310522,000.0,W*79
$GPRMC,160936.572,A,5545.141,N,03745.643,E,001.9,146.4,310522,000.0,W*78
$GPRMC,160937.572,A,5545.141,N,03745.643,E,001.9,146.4,310522,000.0,W*79
$GPRMC,160938.572,A,5545.140,N,03745.643,E,001.9,146.4,310522,000.0,W*77
$GPRMC,160939.572,A,5545.140,N,03745.644,E,001.9,146.4,310522,000.0,W*71
$GPRMC,160940.572,A,5545.139,N,03745.644,E,001.9,146.4,310522,000.0,W*71
$GPRMC,160941.572,A,5545.139,N,03745.644,E,001.9,146.4,310522,000.0,W*70
$GPRMC,160942.572,A,5545.138,N,03745.645,E,001.9,146.4,310522,000.0,W*73
$GPRMC,160943.572,A,5545.138,N,03745.645,E,001.9,146.4,310522,000.0,W*72
$GPRMC,160944.572,A,5545.137,N,03745.645,E,001.9,146.4,310522,000.0,W*7A
$GPRMC,160945.572,A,5545.137,N,03745.646,E,001.9,146.4,310522,000.0,W*78
$GPRMC,160946.572,A,5545.136,N,03745.646,E,001.9,146.4,310522,000.0,W*7A
$GPRMC,160947.572,A,5545.136,N,03745.646,E,001.9,146.4,310522,000.0,W*7B
$GPRMC,160948.572,A,5545.135,N,03745.647,E,001.9,146.4,310522,000.0,W*76
$GPRMC,160949.572,A,5545.135,N,03745.647,E,001.9,146.4,310522,000.0,W*77
$GPRMC,160950.572,A,5545.134,N,03745.647,E,001.9,146.4,310522,000.0,W*7E
$GPRMC,160951.572,A,5545.134,N,03745.648,E,001.9,146.4,310522,000.0,W*70
$GPRMC,160952.572,A,5545.133,N,03745.648,E,001.9,146.4,310522,000.0,W*74
$GPRMC,160953.572,A,5545.133,N,03745.648,E,001.9,146.4,310522,000.0,W*75
$GPRMC,160954.572,A,5545.132,N,03745.649,E,001.9,146.4,310522,000.0,W*72
$GPRMC,160955.572,A,5545.132,N,03745.649,E,001.9,146.4,310522,000.0,W*73
$GPRMC,160956.572,A,5545.131,N,03745.649,E,001.9,146.4,310522,000.0,W*73
$GPRMC,160957.572,A,5545.131,N,03745.650,E,001.9,146.4,310522,000.0,W*7A
$GPRMC,160958.572,A,5545.130,N,03745.650,E,001.9,146.4,310522,000.0,W*74
$GPRMC,160959.572,A,5545.130,N,03745.650,E,001.9,146.4,310522,000.0,W*75
$GPRMC,161000.572,A,5545.129,N,03745.651,E,001.9,146.4,310522,000.0,W*78
$GPRMC,161001.572,A,5545.129,N,03745.651,E,001.9,146.4,310522,000.0,W*79
$GPRMC,161002.572,A,5545.128,N,03745.651,E,001.9,146.4,310522,000.0,W*7B
$GPRMC,161003.572,A,5545.128,N,03745.652,E,001.9,146.4,310522,000.0,W*79
$GPRMC,161004.572,A,5545.127,N,03745.652,E,001.9,146.4,310522,000.0,W*71
$GPRMC,161005.572,A,5545.127,N,03745.652,E,001.9,146.4,310522,000.0,W*70
$GPRMC,161006.572,A,5545.126,N,03745.653,E,001.9,146.4,310522,000.0,W*73
$GPRMC,161007.572,A,5545.126,N,03745.653,E,001.9,146.4,310522,000.0,W*72
$GPRMC,161008.572,A,5545.125,N,03745.653,E,001.9,146.4,310522,000.0,W*7E
$GPRMC,161009.572,A,5545.125,N,03745.654,E,001.9,146.4,310522,000.0,W*78
$GPRMC,161010.572,A,5545.124,N,03745.654,E,001.9,146.4,310522,000.0,W*71
$GPRMC,161011.572,A,5545.124,N,03745.654,E,001.9,146.4,310522,000.0,W*70
$GPRMC,161012.572,A,5545.123,N,03745.655,E,001.9,146.4,310522,000.0,W*75
$GPRMC,161013.572,A,5545.123,N,03745.655,E,001.9,146.4,310522,000.0,W*74
$GPRMC,161014.572,A,5545.122,N,03745.655,E,001.9,146.4,310522,000.0,W*72
$GPRMC,161015.572,A,5545.122,N,03745.656,E,001.9,146.4,310522,000.0,W*70
$GPRMC,161016.572,A,5545.121,N,03745.656,E,001.9,146.4,310522,000.0,W*70
$GPRMC,161017.572,A,5545.121,N,03745.656,E,001.9,146.4,310522,000.0,W*71
$GPRMC,161018.572,A,5545.120,N,03745.657,E,001.9,146.4,310522,000.0,W*7E
$GPRMC,161019.572,A,5545.120,N,03745.657,E,001.9,146.4,310522,000.0,W*7F
$GPRMC,161020.572,A,5545.119,N,03745.657,E,001.9,146.4,310522,000.0,W*7F
$GPRMC,161021.572,A,5545.119,N,03745.658,E,001.9,146.4,310522,000.0,W*71
$GPRMC,161022.572,A,5545.118,N,03745.658,E,001.9,146.4,310522,000.0,W*73
$GPRMC,161023.572,A,5545.118,N,03745.658,E,001.9,146.4,310522,000.0,W*72
$GPRMC,161024.572,A,5545.117,N,03745.659,E,001.9,146.4,310522,000.0,W*7B
$GPRMC,161025.572,A,5545.117,N,03745.659,E,001.9,146.4,310522,000.0,W*7A
$GPRMC,161026.572,A,5545.116,N,03745.659,E,001.9,146.4,310522,000.0,W*78
$GPRMC,161027.572,A,5545.116,N,03745.660,E,001.9,146.4,310522,000.0,W*73
$GPRMC,161028.572,A,5545.115,N,03745.660,E,001.9,146.4,310522,000.0,W*7F
$GPRMC,161029.572,A,5545.115,N,03745.660,E,001.9,146.4,310522,000.0,W*7E
$GPRMC,161030.572,A,5545.114,N,03745.661,E,001.9,146.4,310522,000.0,W*76
$GPRMC,161031.572,A,5545.114,N,03745.661,E,001.9,146.4,310522,000.0,W*77
$GPRMC,161032.572,A,5545.113,N,03745.661,E,001.9,146.4,310522,000.0,W*73
$GPRMC,161033.572,A,5545.113,N,03745.662,E,001.9,146.4,310522,000.0,W*71
$GPRMC,161034.572,A,5545.112,N,03745.662,E,001.9,146.4,310522,000.0,W*77
$GPRMC,161035.572,A,5545.112,N,03745.662,E,001.9,146.4,310522,000.0,W*76
$GPRMC,161036.572,A,5545.111,N,03745.663,E,001.9,146.4,310522,000.0,W*77
$GPRMC,161037.572,A,5545.111,N,03745.663,E,001.9,146.4,310522,000.0,W*76
$GPRMC,161038.572,A,5545.110,N,03745.663,E,001.9,146.4,310522,000.0,W*78
$GPRMC,161039.572,A,5545.110,N,03745.664,E,001.9,146.4,310522,000.0,W*7E
$GPRMC,161040.572,A,5545.109,N,03745.664,E,001.9,146.4,310522,000.0,W*78
$GPRMC,161041.572,A,5545.109,N,03745.664,E,001.9,146.4,310522,000.0,W*79
$GPRMC,161042.572,A,5545.108,N,03745.665,E,001.9,146.4,310522,000.0,W*7A
$GPRMC,161043.572,A,5545.108,N,03745.665,E,001.9,146.4,310522,000.0,W*7B
$GPRMC,161044.572,A,5545.107,N,03745.666,E,001.9,146.4,310522,000.0,W*70
$GPRMC,161045.572,A,5545.107,N,03745.666,E,001.9,146.4,310522,000.0,W*71
$GPRMC,161046.572,A,5545.106,N,03745.666,E,001.9,146.4,310522,000.0,W*73
$GPRMC,161047.572,A,5545.106,N,03745.667,E,001.9,146.4,310522,000.0,W*73
$GPRMC,161048.572,A,5545.105,N,03745.667,E,001.9,146.4,310522,000.0,W*7F
$GPRMC,161049.572,A,5545.105,N,03745.667,E,001.9,146.4,310522,000.0,W*7E
$GPRMC,161050.572,A,5545.104,N,03745.668,E,001.9,146.4,310522,000.0,W*78
$GPRMC,161051.572,A,5545.104,N,03745.668,E,001.9,146.4,310522,000.0,W*79
$GPRMC,161052.572,A,5545.103,N,03745.668,E,001.9,146.4,310522,000.0,W*7D
$GPRMC,161053.572,A,5545.102,N,03745.669,E,001.9,146.4,310522,000.0,W*7C
$GPRMC,161054.572,A,5545.102,N,03745.669,E,001.9,146.4,310522,000.0,W*7B
$GPRMC,161055.572,A,5545.101,N,03745.669,E,001.9,146.4,310522,000.0,W*79
$GPRMC,161056.572,A,5545.101,N,03745.670,E,001.9,146.4,310522,000.0,W*72
$GPRMC,161057.572,A,5545.100,N,03745.670,E,001.9,146.4,310522,000.0,W*72
$GPRMC,161058.572,A,5545.100,N,03745.670,E,001.9,146.4,310522,000.0,W*7D
$GPRMC,161059.572,A,5545.099,N,03745.671,E,001.9,146.4,310522,000.0,W*7C
$GPRMC,161100.572,A,5545.099,N,03745.671,E,001.9,146.4,310522,000.0,W*71
$GPRMC,161101.572,A,5545.098,N,03745.671,E,001.9,146.4,310522,000.0,W*71
$GPRMC,161102.572,A,5545.098,N,03745.672,E,001.9,146.4,310522,000.0,W*71
$GPRMC,161103.572,A,5545.097,N,03745.672,E,001.9,146.4,310522,000.0,W*7F
$GPRMC,161104.572,A,5545.097,N,03745.672,E,001.9,146.4,310522,000.0,W*78
$GPRMC,161105.572,A,5545.096,N,03745.673,E,001.9,146.4,310522,000.0,W*79
$GPRMC,161106.572,A,5545.096,N,03745.673,E,001.9,146.4,310522,000.0,W*7A
$GPRMC,161107.572,A,5545.095,N,03745.673,E,001.9,146.4,310522,000.0,W*78
$GPRMC,161108.572,A,5545.095,N,03745.674,E,001.9,146.4,310522,000.0,W*70
$GPRMC,161109.572,A,5545.094,N,03745.674,E,001.9,146.4,310522,000.0,W*70
$GPRMC,161110.572,A,5545.094,N,03745.674,E,001.9,146.4,310522,000.0,W*78
$GPRMC,161111.572,A,5545.093,N,03745.675,E,001.9,146.4,310522,000.0,W*7F
$GPRMC,161112.572,A,5545.093,N,03745.675,E,001.9,146.4,310522,000.0,W*7C
$GPRMC,161113.572,A,5545.092,N,03745.675,E,001.9,146.4,310522,000.0,W*7C
$GPRMC,161114.572,A,5545.092,N,03745.676,E,001.9,146.4,310522,000.0,W*78
$GPRMC,161115.572,A,5545.091,N,03745.676,E,001.9,146.4,310522,000.0,W*7A
$GPRMC,161116.572,A,5545.091,N,03745.676,E,001.9,146.4,310522,000.0,W*79
$GPRMC,161117.572,A,5545.090,N,03745.677,E,001.9,146.4,310522,000.0,W*78
$GPRMC,161118.572,A,5545.090,N,03745.677,E,001.9,146.4,310522,000.0,W*77
$GPRMC,161119.572,A,5545.089,N,03745.677,E,001.9,146.4,310522,000.0,W*7E
$GPRMC,161120.572,A,5545.089,N,03745.678,E,001.9,146.4,310522,000.0,W*7B
$GPRMC,161121.572,A,5545.088,N,03745.678,E,001.9,146.4,310522,000.0,W*7B
$GPRMC,161122.572,A,5545.088,N,03745.678,E,001.9,146.4,310522,000.0,W*78
$GPRMC,161123.572,A,5545.087,N,03745.679,E,001.9,146.4,310522,000.0,W*77
$GPRMC,161124.572,A,5545.087,N,03745.679,E,001.9,146.4,310522,000.0,W*70
$GPRMC,161125.572,A,5545.086,N,03745.679,E,001.9,146.4,310522,000.0,W*70
$GPRMC,161126.572,A,5545.086,N,03745.680,E,001.9,146.4,310522,000.0,W*75
$GPRMC,161127.572,A,5545.085,N,03745.680,E,001.9,146.4,310522,000.0,W*77
$GPRMC,161128.572,A,5545.085,N,03745.680,E,001.9,146.4,310522,000.0,W*78
$GPRMC,161129.572,A,5545.084,N,03745.681,E,001.9,146.4,310522,000.0,W*79
$GPRMC,161130.572,A,5545.084,N,03745.681,E,001.9,146.4,310522,000.0,W*71
$GPRMC,161131.572,A,5545.083,N,03745.681,E,001.9,146.4,310522,000.0,W*77
$GPRMC,161132.572,A,5545.083,N,03745.682,E,001.9,146.4,310522,000.0,W*77
$GPRMC,161133.572,A,5545.082,N,03745.682,E,001.9,146.4,310522,000.0,W*77
$GPRMC,161134.572,A,5545.082,N,03745.682,E,001.9,146.4,310522,000.0,W*70
$GPRMC,161135.572,A,5545.081,N,03745.683,E,001.9,146.4,310522,000.0,W*73
$GPRMC,161136.572,A,5545.081,N,03745.683,E,001.9,146.4,310522,000.0,W*70
$GPRMC,161137.572,A,5545.080,N,03745.683,E,001.9,146.4,310522,000.0,W*70
$GPRMC,161138.572,A,5545.080,N,03745.684,E,001.9,146.4,310522,000.0,W*78
$GPRMC,161139.572,A,5545.079,N,03745.684,E,001.9,146.4,310522,000.0,W*7F
$GPRMC,161140.572,A,5545.079,N,03745.684,E,001.9,146.4,310522,000.0,W*71
$GPRMC,161141.572,A,5545.078,N,03745.685,E,001.9,146.4,310522,000.0,W*70
$GPRMC,161142.572,A,5545.078,N,03745.685,E,001.9,146.4,310522,000.0,W*73
$GPRMC,161143.572,A,5545.077,N,03745.685,E,001.9,146.4,310522,000.0,W*7D
$GPRMC,161144.572,A,5545.077,N,03745.686,E,001.9,146.4,310522,000.0,W*79
$GPRMC,161145.572,A,5545.076,N,03745.686,E,001.9,146.4,310522,000.0,W*79
$GPRMC,161146.572,A,5545.076,N,03745.686,E,001.9,146.4,310522,000.0,W*7A
$GPRMC,161147.572,A,5545.075,N,03745.687,E,001.9,146.4,310522,000.0,W*79
$GPRMC,161148.572,A,5545.075,N,03745.687,E,001.9,146.4,310522,000.0,W*76
$GPRMC,161149.572,A,5545.074,N,03745.687,E,001.9,146.4,310522,000.0,W*76
$GPRMC,161150.572,A,5545.074,N,03745.688,E,001.9,146.4,310522,000.0,W*71
$GPRMC,161151.572,A,5545.073,N,03745.688,E,001.9,146.4,310522,000.0,W*77
$GPRMC,161152.572,A,5545.073,N,03745.688,E,001.9,146.4,310522,000.0,W*74
$GPRMC,161153.572,A,5545.072,N,03745.689,E,001.9,146.4,310522,000.0,W*75
$GPRMC,161154.572,A,5545.072,N,03745.689,E,001.9,146.4,310522,000.0,W*72
$GPRMC,161155.572,A,5545.071,N,03745.689,E,001.9,146.4,310522,000.0,W*70
$GPRMC,161156.572,A,5545.071,N,03745.690,E,001.9,146.4,310522,000.0,W*7B
$GPRMC,161157.572,A,5545.070,N,03745.690,E,001.9,146.4,310522,000.0,W*7B
$GPRMC,161158.572,A,5545.070,N,03745.690,E,001.9,146.4,310522,000.0,W*74
$GPRMC,161159.572,A,5545.069,N,03745.691,E,001.9,146.4,310522,000.0,W*7C
$GPRMC,161200.572,A,5545.069,N,03745.691,E,001.9,146.4,310522,000.0,W*73
$GPRMC,161201.572,A,5545.068,N,03745.691,E,001.9,146.4,310522,000.0,W*73
$GPRMC,161202.572,A,5545.068,N,03745.692,E,001.9,146.4,310522,000.0,W*73
$GPRMC,161203.572,A,5545.067,N,03745.692,E,001.9,146.4,310522,000.0,W*7D
$GPRMC,161204.572,A,5545.067,N,03745.692,E,001.9,146.4,310522,000.0,W*7A
$GPRMC,161205.572,A,5545.066,N,03745.693,E,001.9,146.4,310522,000.0,W*7B
$GPRMC,161206.572,A,5545.066,N,03745.693,E,001.9,146.4,310522,000.0,W*78
$GPRMC,161207.572,A,5545.065,N,03745.693,E,001.9,146.4,310522,000.0,W*7A
$GPRMC,161208.572,A,5545.065,N,03745.694,E,001.9,146.4,310522,000.0,W*72
$GPRMC,161209.572,A,5545.064,N,03745.694,E,001.9,146.4,310522,000.0,W*72
$GPRMC,161210.572,A,5545.064,N,03745.695,E,001.9,146.4,310522,000.0,W*7B
$GPRMC,161211.572,A,5545.063,N,03745.695,E,001.9,146.4,310522,000.0,W*7D
$GPRMC,161212.572,A,5545.063,N,03745.695,E,001.9,146.4,310522,000.0,W*7E
$GPRMC,161213.572,A,5545.062,N,03745.696,E,001.9,146.4,310522,000.0,W*7D
$GPRMC,161214.572,A,5545.062,N,03745.696,E,001.9,146.4,310522,000.0,W*7A
$GPRMC,161215.572,A,5545.061,N,03745.696,E,001.9,146.4,310522,000.0,W*78
$GPRMC,161216.572,A,5545.061,N,03745.697,E,001.9,146.4,310522,000.0,W*7A
$GPRMC,161217.572,A,5545.060,N,03745.697,E,001.9,146.4,310522,000.0,W*7A
$GPRMC,161218.572,A,5545.060,N,03745.697,E,001.9,146.4,310522,000.0,W*75
$GPRMC,161219.572,A,5545.059,N,03745.698,E,001.9,146.4,310522,000.0,W*71
$GPRMC,161220.572,A,5545.059,N,03745.698,E,001.9,146.4,310522,000.0,W*7B
$GPRMC,161221.572,A,5545.058,N,03745.698,E,001.9,146.4,310522,000.0,W*7B
$GPRMC,161222.572,A,5545.058,N,03745.699,E,001.9,146.4,310522,000.0,W*79
$GPRMC,161223.572,A,5545.057,N,03745.699,E,001.9,146.4,310522,000.0,W*77
$GPRMC,161224.572,A,5545.057,N,03745.699,E,001.9,146.4,310522,000.0,W*70
$GPRMC,161225.572,A,5545.056,N,03745.700,E,001.9,146.4,310522,000.0,W*71
$GPRMC,161226.572,A,5545.056,N,03745.700,E,001.9,146.4,310522,000.0,W*72
$GPRMC,161227.572,A,5545.055,N,03745.700,E,001.9,146.4,310522,000.0,W*70
$GPRMC,161228.572,A,5545.055,N,03745.701,E,001.9,146.4,310522,000.0,W*7E
$GPRMC,161229.572,A,5545.054,N,03745.701,E,001.9,146.4,310522,000.0,W*7E
$GPRMC,161230.572,A,5545.053,N,03745.701,E,001.9,146.4,310522,000.0,W*71
$GPRMC,161231.572,A,5545.053,N,03745.702,E,001.9,146.4,310522,000.0,W*73
$GPRMC,161232.572,A,5545.052,N,03745.702,E,001.9,146.4,310522,000.0,W*71
$GPRMC,161233.572,A,5545.052,N,03745.702,E,001.9,146.4,310522,000.0,W*70
$GPRMC,161234.572,A,5545.051,N,03745.703,E,001.9,146.4,310522,000.0,W*75
$GPRMC,161235.572,A,5545.051,N,03745.703,E,001.9,146.4,310522,000.0,W*74
$GPRMC,161236.572,A,5545.050,N,03745.703,E,001.9,146.4,310522,000.0,W*76
$GPRMC,161237.572,A,5545.050,N,03745.704,E,001.9,146.4,310522,000.0,W*70
$GPRMC,161238.572,A,5545.049,N,03745.704,E,001.9,146.4,310522,000.0,W*77
$GPRMC,161239.572,A,5545.049,N,03745.704,E,001.9,146.4,310522,000.0,W*76
$GPRMC,161240.572,A,5545.048,N,03745.705,E,001.9,146.4,310522,000.0,W*78
$GPRMC,161241.572,A,5545.048,N,03745.705,E,001.9,146.4,310522,000.0,W*79
$GPRMC,161242.572,A,5545.047,N,03745.705,E,001.9,146.4,310522,000.0,W*75
$GPRMC,161243.572,A,5545.047,N,03745.706,E,001.9,146.4,310522,000.0,W*77
$GPRMC,161244.572,A,5545.046,N,03745.706,E,001.9,146.4,310522,000.0,W*71
$GPRMC,161245.572,A,5545.046,N,03745.706,E,001.9,146.4,310522,000.0,W*70
$GPRMC,161246.572,A,5545.045,N,03745.707,E,001.9,146.4,310522,000.0,W*71
$GPRMC,161247.572,A,5545.045,N,03745.707,E,001.9,146.4,310522,000.0,W*70
$GPRMC,161248.572,A,5545.044,N,03745.707,E,001.9,146.4,310522,000.0,W*7E
$GPRMC,161249.572,A,5545.044,N,03745.708,E,001.9,146.4,310522,000.0,W*70
$GPRMC,161250.572,A,5545.043,N,03745.708,E,001.9,146.4,310522,000.0,W*7F
$GPRMC,161251.572,A,5545.043,N,03745.708,E,001.9,146.4,310522,000.0,W*7E
$GPRMC,161252.572,A,5545.042,N,03745.709,E,001.9,146.4,310522,000.0,W*7D
$GPRMC,161253.572,A,5545.042,N,03745.709,E,001.9,146.4,310522,000.0,W*7C
$GPRMC,161254.572,A,5545.041,N,03745.709,E,001.9,146.4,310522,000.0,W*78
$GPRMC,161255.572,A,5545.041,N,03745.710,E,001.9,146.4,310522,000.0,W*71
$GPRMC,161256.572,A,5545.040,N,03745.710,E,001.9,146.4,310522,000.0,W*73
$GPRMC,161257.572,A,5545.040,N,03745.710,E,001.9,146.4,310522,000.0,W*72
$GPRMC,161258.572,A,5545.039,N,03745.711,E,001.9,146.4,310522,000.0,W*72
$GPRMC,161259.572,A,5545.039,N,03745.711,E,001.9,146.4,310522,000.0,W*73
$GPRMC,161300.572,A,5545.038,N,03745.711,E,001.9,146.4,310522,000.0,W*7F
$GPRMC,161301.572,A,5545.038,N,03745.712,E,001.9,146.4,310522,000.0,W*7D
$GPRMC,161302.572,A,5545.037,N,03745.712,E,001.9,146.4,310522,000.0,W*71
$GPRMC,161303.572,A,5545.037,N,03745.712,E,001.9,146.4,310522,000.0,W*70
$GPRMC,161304.572,A,5545.036,N,03745.713,E,001.9,146.4,310522,000.0,W*77
$GPRMC,161305.572,A,5545.036,N,03745.713,E,001.9,146.4,310522,000.0,W*76
$GPRMC,161306.572,A,5545.035,N,03745.713,E,001.9,146.4,310522,000.0,W*76
$GPRMC,161307.572,A,5545.035,N,03745.714,E,001.9,146.4,310522,000.0,W*70
$GPRMC,161308.572,A,5545.034,N,03745.714,E,001.9,146.4,310522,000.0,W*7E
$GPRMC,161309.572,A,5545.034,N,03745.714,E,001.9,146.4,310522,000.0,W*7F
$GPRMC,161310.572,A,5545.033,N,03745.715,E,001.9,146.4,310522,000.0,W*71
$GPRMC,161311.572,A,5545.033,N,03745.715,E,001.9,146.4,310522,000.0,W*70
$GPRMC,161312.572,A,5545.032,N,03745.715,E,001.9,146.4,310522,000.0,W*72
$GPRMC,161313.572,A,5545.032,N,03745.716,E,001.9,146.4,310522,000.0,W*70
$GPRMC,161314.572,A,5545.031,N,03745.716,E,001.9,146.4,310522,000.0,W*74
$GPRMC,161315.572,A,5545.031,N,03745.716,E,001.9,146.4,310522,000.0,W*75
$GPRMC,161316.572,A,5545.030,N,03745.717,E,001.9,146.4,310522,000.0,W*76
$GPRMC,161317.572,A,5545.030,N,03745.717,E,001.9,146.4,310522,000.0,W*77
$GPRMC,161318.572,A,5545.029,N,03745.717,E,001.9,146.4,310522,000.0,W*70
$GPRMC,161319.572,A,5545.029,N,03745.718,E,001.9,146.4,310522,000.0,W*7E
$GPRMC,161320.572,A,5545.028,N,03745.718,E,001.9,146.4,310522,000.0,W*75
$GPRMC,161321.572,A,5545.028,N,03745.718,E,001.9,146.4,310522,000.0,W*74
$GPRMC,161322.572,A,5545.027,N,03745.719,E,001.9,146.4,310522,000.0,W*79
$GPRMC,161323.572,A,5545.027,N,03745.719,E,001.9,146.4,310522,000.0,W*78
$GPRMC,161324.572,A,5545.026,N,03745.719,E,001.9,146.4,310522,000.0,W*7E
$GPRMC,161325.572,A,5545.026,N,03745.720,E,001.9,146.4,310522,000.0,W*75
$GPRMC,161326.572,A,5545.025,N,03745.720,E,001.9,146.4,310522,000.0,W*75
$GPRMC,161327.572,A,5545.025,N,03745.720,E,001.9,146.4,310522,000.0,W*74
$GPRMC,161328.572,A,5545.024,N,03745.721,E,001.9,146.4,310522,000.0,W*7B
$GPRMC,161329.572,A,5545.024,N,03745.721,E,001.9,146.4,310522,000.0,W*7A
$GPRMC,161330.572,A,5545.023,N,03745.721,E,001.9,146.4,310522,000.0,W*75
$GPRMC,161331.572,A,5545.023,N,03745.722,E,001.9,146.4,310522,000.0,W*77
$GPRMC,161332.572,A,5545.022,N,03745.722,E,001.9,146.4,310522,000.0,W*75
$GPRMC,161333.572,A,5545.022,N,03745.722,E,001.9,146.4,310522,000.0,W*74
$GPRMC,161334.572,A,5545.021,N,03745.723,E,001.9,146.4,310522,000.0,W*71
$GPRMC,161335.572,A,5545.021,N,03745.723,E,001.9,146.4,310522,000.0,W*70
$GPRMC,161336.572,A,5545.020,N,03745.723,E,001.9,146.4,310522,000.0,W*72
$GPRMC,161337.572,A,5545.020,N,03745.724,E,001.9,146.4,310522,000.0,W*74
$GPRMC,161338.572,A,5545.019,N,03745.724,E,001.9,146.4,310522,000.0,W*71
$GPRMC,161339.572,A,5545.019,N,03745.725,E,001.9,146.4,310522,000.0,W*71
$GPRMC,161340.572,A,5545.018,N,03745.725,E,001.9,146.4,310522,000.0,W*7E
$GPRMC,161341.572,A,5545.018,N,03745.725,E,001.9,146.4,310522,000.0,W*7F
$GPRMC,161342.572,A,5545.017,N,03745.726,E,001.9,146.4,310522,000.0,W*70
$GPRMC,161343.572,A,5545.017,N,03745.726,E,001.9,146.4,310522,000.0,W*71
$GPRMC,161344.572,A,5545.016,N,03745.726,E,001.9,146.4,310522,000.0,W*77
$GPRMC,161345.572,A,5545.016,N,03745.727,E,001.9,146.4,310522,000.0,W*77
$GPRMC,161346.572,A,5545.015,N,03745.727,E,001.9,146.4,310522,000.0,W*77
$GPRMC,161347.572,A,5545.015,N,03745.727,E,001.9,146.4,310522,000.0,W*76
$GPRMC,161348.572,A,5545.014,N,03745.728,E,001.9,146.4,310522,000.0,W*77
$GPRMC,161349.572,A,5545.014,N,03745.728,E,001.9,146.4,310522,000.0,W*76
$GPRMC,161350.572,A,5545.013,N,03745.728,E,001.9,146.4,310522,000.0,W*79
$GPRMC,161351.572,A,5545.013,N,03745.729,E,001.9,146.4,310522,000.0,W*79
$GPRMC,161352.572,A,5545.012,N,03745.729,E,001.9,146.4,310522,000.0,W*7B
$GPRMC,161353.572,A,5545.012,N,03745.729,E,001.9,146.4,310522,000.0,W*7A
$GPRMC,161354.572,A,5545.011,N,03745.730,E,001.9,146.4,310522,000.0,W*76
$GPRMC,161355.572,A,5545.011,N,03745.730,E,001.9,146.4,310522,000.0,W*77
$GPRMC,161356.572,A,5545.010,N,03745.730,E,001.9,146.4,310522,000.0,W*75
$GPRMC,161357.572,A,5545.010,N,03745.731,E,001.9,146.4,310522,000.0,W*75
$GPRMC,161358.572,A,5545.009,N,03745.731,E,001.9,146.4,310522,000.0,W*72
$GPRMC,161359.572,A,5545.009,N,03745.731,E,001.9,146.4,310522,000.0,W*73
$GPRMC,161400.572,A,5545.008,N,03745.732,E,001.9,146.4,310522,000.0,W*7A
$GPRMC,161401.572,A,5545.008,N,03745.732,E,001.9,146.4,310522,000.0,W*7B
$GPRMC,161402.572,A,5545.007,N,03745.732,E,001.9,146.4,310522,000.0,W*77
$GPRMC,161403.572,A,5545.007,N,03745.733,E,001.9,146.4,310522,000.0,W*77
$GPRMC,161404.572,A,5545.006,N,03745.733,E,001.9,146.4,310522,000.0,W*71
$GPRMC,161405.572,A,5545.006,N,03745.733,E,001.9,146.4,310522,000.0,W*70
$GPRMC,161406.572,A,5545.005,N,03745.734,E,001.9,146.4,310522,000.0,W*77
$GPRMC,161407.572,A,5545.004,N,03745.734,E,001.9,146.4,310522,000.0,W*77
$GPRMC,161408.572,A,5545.004,N,03745.734,E,001.9,146.4,310522,000.0,W*78
$GPRMC,161409.572,A,5545.003,N,03745.735,E,001.9,146.4,310522,000.0,W*7F
$GPRMC,161410.572,A,5545.003,N,03745.735,E,001.9,146.4,310522,000.0,W*77
$GPRMC,161411.572,A,5545.002,N,03745.735,E,001.9,146.4,310522,000.0,W*77
$GPRMC,161412.572,A,5545.002,N,03745.736,E,001.9,146.4,310522,000.0,W*77
$GPRMC,161413.572,A,5545.001,N,03745.736,E,001.9,146.4,310522,000.0,W*75
$GPRMC,161414.572,A,5545.001,N,03745.736,E,001.9,146.4,310522,000.0,W*72
$GPRMC,161415.572,A,5545.000,N,03745.737,E,001.9,146.4,310522,000.0,W*73
$GPRMC,161416.572,A,5545.000,N,03745.737,E,001.9,146.4,310522,000.0,W*70
$GPRMC,161417.572,A,5544.999,N,03745.737,E,001.9,146.4,310522,000.0,W*79
$GPRMC,161418.572,A,5544.999,N,03745.738,E,001.9,146.4,310522,000.0,W*79
$GPRMC,161419.572,A,5544.998,N,03745.738,E,001.9,146.4,310522,000.0,W*79
$GPRMC,161420.572,A,5544.998,N,03745.738,E,001.9,146.4,310522,000.0,W*73
$GPRMC,161421.572,A,5544.997,N,03745.739,E,001.9,146.4,310522,000.0,W*7C
$GPRMC,161422.572,A,5544.997,N,03745.739,E,001.9,146.4,310522,000.0,W*7F
$GPRMC,161423.572,A,5544.996,N,03745.739,E,001.9,146.4,310522,000.0,W*7F
$GPRMC,161424.572,A,5544.996,N,03745.740,E,001.9,146.4,310522,000.0,W*76
$GPRMC,161425.572,A,5544.995,N,03745.740,E,001.9,146.4,310522,000.0,W*74
$GPRMC,161426.572,A,5544.995,N,03745.740,E,001.9,146.4,310522,000.0,W*77
$GPRMC,161427.572,A,5544.994,N,03745.741,E,001.9,146.4,310522,000.0,W*76
$GPRMC,161428.572,A,5544.994,N,03745.741,E,001.9,146.4,310522,000.0,W*79
$GPRMC,161429.572,A,5544.993,N,03745.741,E,001.9,146.4,310522,000.0,W*7F
$GPRMC,161430.572,A,5544.993,N,03745.742,E,001.9,146.4,310522,000.0,W*74
$GPRMC,161431.572,A,5544.992,N,03745.742,E,001.9,146.4,310522,000.0,W*74
$GPRMC,161432.572,A,5544.992,N,03745.742,E,001.9,146.4,310522,000.0,W*77
$GPRMC,161433.572,A,5544.991,N,03745.743,E,001.9,146.4,310522,000.0,W*74
$GPRMC,161434.572,A,5544.991,N,03745.743,E,001.9,146.4,310522,000.0,W*73
$GPRMC,161435.572,A,5544.990,N,03745.743,E,001.9,146.4,310522,000.0,W*73
$GPRMC,161436.572,A,5544.990,N,03745.744,E,001.9,146.4,310522,000.0,W*77
$GPRMC,161437.572,A,5544.989,N,03745.744,E,001.9,146.4,310522,000.0,W*7E
$GPRMC,161438.572,A,5544.989,N,03745.744,E,001.9,146.4,310522,000.0,W*71
$GPRMC,161439.572,A,5544.988,N,03745.745,E,001.9,146.4,310522,000.0,W*70
$GPRMC,161440.572,A,5544.988,N,03745.745,E,001.9,146.4,310522,000.0,W*7E
$GPRMC,161441.572,A,5544.987,N,03745.745,E,001.9,146.4,310522,000.0,W*70
$GPRMC,161442.572,A,5544.987,N,03745.746,E,001.9,146.4,310522,000.0,W*70
$GPRMC,161443.572,A,5544.986,N,03745.746,E,001.9,146.4,310522,000.0,W*70
$GPRMC,161444.572,A,5544.986,N,03745.746,E,001.9,146.4,310522,000.0,W*77
$GPRMC,161445.572,A,5544.985,N,03745.747,E,001.9,146.4,310522,000.0,W*74
$GPRMC,161446.572,A,5544.985,N,03745.747,E,001.9,146.4,310522,000.0,W*77
$GPRMC,161447.572,A,5544.984,N,03745.747,E,001.9,146.4,310522,000.0,W*77
$GPRMC,161448.572,A,5544.984,N,03745.748,E,001.9,146.4,310522,000.0,W*77
$GPRMC,161449.572,A,5544.983,N,03745.748,E,001.9,146.4,310522,000.0,W*71
$GPRMC,161450.572,A,5544.983,N,03745.748,E,001.9,146.4,310522,000.0,W*79
$GPRMC,161451.572,A,5544.982,N,03745.749,E,001.9,146.4,310522,000.0,W*78
$GPRMC,161452.572,A,5544.982,N,03745.749,E,001.9,146.4,310522,000.0,W*7B
$GPRMC,161453.572,A,5544.981,N,03745.749,E,001.9,146.4,310522,000.0,W*79
$GPRMC,161454.572,A,5544.981,N,03745.750,E,001.9,146.4,310522,000.0,W*76
$GPRMC,161455.572,A,5544.980,N,03745.750,E,001.9,146.4,310522,000.0,W*76
$GPRMC,161456.572,A,5544.980,N,03745.750,E,001.9,146.4,310522,000.0,W*75
$GPRMC,161457.572,A,5544.979,N,03745.751,E,001.9,146.4,310522,000.0,W*73
$GPRMC,161458.572,A,5544.979,N,03745.751,E,001.9,146.4,310522,000.0,W*7C
$GPRMC,161459.572,A,5544.978,N,03745.751,E,001.9,146.4,310522,000.0,W*7C
$GPRMC,161500.572,A,5544.978,N,03745.752,E,001.9,146.4,310522,000.0,W*72
$GPRMC,161501.572,A,5544.977,N,03745.752,E,001.9,146.4,310522,000.0,W*7C
$GPRMC,161502.572,A,5544.977,N,03745.752,E,001.9,146.4,310522,000.0,W*7F
$GPRMC,161503.572,A,5544.976,N,03745.753,E,001.9,146.4,310522,000.0,W*7E
$GPRMC,161504.572,A,5544.976,N,03745.753,E,001.9,146.4,310522,000.0,W*79
$GPRMC,161505.572,A,5544.975,N,03745.753,E,001.9,146.4,310522,000.0,W*7B
$GPRMC,161506.572,A,5544.975,N,03745.754,E,001.9,146.4,310522,000.0,W*7F
$GPRMC,161507.572,A,5544.974,N,03745.754,E,001.9,146.4,310522,000.0,W*7F
$GPRMC,161508.572,A,5544.974,N,03745.755,E,001.9,146.4,310522,000.0,W*71
$GPRMC,161509.572,A,5544.973,N,03745.755,E,001.9,146.4,310522,000.0,W*77
$GPRMC,161510.572,A,5544.973,N,03745.755,E,001.9,146.4,310522,000.0,W*7F
$GPRMC,161511.572,A,5544.972,N,03745.756,E,001.9,146.4,310522,000.0,W*7C
$GPRMC,161512.572,A,5544.972,N,03745.756,E,001.9,146.4,310522,000.0,W*7F
$GPRMC,161513.572,A,5544.971,N,03745.756,E,001.9,146.4,310522,000.0,W*7D
$GPRMC,161514.572,A,5544.971,N,03745.757,E,001.9,146.4,310522,000.0,W*7B
$GPRMC,161515.572,A,5544.970,N,03745.757,E,001.9,146.4,310522,000.0,W*7B
$GPRMC,161516.572,A,5544.970,N,03745.757,E,001.9,146.4,310522,000.0,W*78
$GPRMC,161517.572,A,5544.969,N,03745.758,E,001.9,146.4,310522,000.0,W*7E
$GPRMC,161518.572,A,5544.969,N,03745.758,E,001.9,146.4,310522,000.0,W*71
$GPRMC,161519.572,A,5544.968,N,03745.758,E,001.9,146.4,310522,000.0,W*71
$GPRMC,161520.572,A,5544.968,N,03745.759,E,001.9,146.4,310522,000.0,W*7A
$GPRMC,161521.572,A,5544.967,N,03745.759,E,001.9,146.4,310522,000.0,W*74
$GPRMC,161522.572,A,5544.967,N,03745.759,E,001.9,146.4,310522,000.0,W*77
$GPRMC,161523.572,A,5544.966,N,03745.760,E,001.9,146.4,310522,000.0,W*7D
$GPRMC,161524.572,A,5544.966,N,03745.760,E,001.9,146.4,310522,000.0,W*7A
$GPRMC,161525.572,A,5544.965,N,03745.760,E,001.9,146.4,310522,000.0,W*78
$GPRMC,161526.572,A,5544.965,N,03745.761,E,001.9,146.4,310522,000.0,W*7A
$GPRMC,161527.572,A,5544.964,N,03745.761,E,001.9,146.4,310522,000.0,W*7A
$GPRMC,161528.572,A,5544.964,N,03745.761,E,001.9,146.4,310522,000.0,W*75
$GPRMC,161529.572,A,5544.963,N,03745.762,E,001.9,146.4,310522,000.0,W*70
$GPRMC,161530.572,A,5544.963,N,03745.762,E,001.9,146.4,310522,000.0,W*78
$GPRMC,161531.572,A,5544.962,N,03745.762,E,001.9,146.4,310522,000.0,W*78
$GPRMC,161532.572,A,5544.962,N,03745.763,E,001.9,146.4,310522,000.0,W*7A
$GPRMC,161533.572,A,5544.961,N,03745.763,E,001.9,146.4,310522,000.0,W*78
$GPRMC,161534.572,A,5544.961,N,03745.763,E,001.9,146.4,310522,000.0,W*7F
$GPRMC,161535.572,A,5544.960,N,03745.764,E,001.9,146.4,310522,000.0,W*78
$GPRMC,161536.572,A,5544.960,N,03745.764,E,001.9,146.4,310522,000.0,W*7B
$GPRMC,161537.572,A,5544.959,N,03745.764,E,001.9,146.4,310522,000.0,W*70
$GPRMC,161538.572,A,5544.959,N,03745.765,E,001.9,146.4,310522,000.0,W*7E
$GPRMC,161539.572,A,5544.958,N,03745.765,E,001.9,146.4,310522,000.0,W*7E
$GPRMC,161540.572,A,5544.958,N,03745.765,E,001.9,146.4,310522,000.0,W*70
$GPRMC,161541.572,A,5544.957,N,03745.766,E,001.9,146.4,310522,000.0,W*7D
$GPRMC,161542.572,A,5544.957,N,03745.766,E,001.9,146.4,310522,000.0,W*7E
$GPRMC,161543.572,A,5544.956,N,03745.766,E,001.9,146.4,310522,000.0,W*7E
$GPRMC,161544.572,A,5544.955,N,03745.767,E,001.9,146.4,310522,000.0,W*7B
$GPRMC,161545.572,A,5544.955,N,03745.767,E,001.9,146.4,310522,000.0,W*7A
$GPRMC,161546.572,A,5544.954,N,03745.767,E,001.9,146.4,310522,000.0,W*78
$GPRMC,161547.572,A,5544.954,N,03745.768,E,001.9,146.4,310522,000.0,W*76
$GPRMC,161548.572,A,5544.953,N,03745.768,E,001.9,146.4,310522,000.0,W*7E
$GPRMC,161549.572,A,5544.953,N,03745.768,E,001.9,146.4,310522,000.0,W*7F
$GPRMC,161550.572,A,5544.952,N,03745.769,E,001.9,146.4,310522,000.0,W*77
$GPRMC,161551.572,A,5544.952,N,03745.769,E,001.9,146.4,310522,000.0,W*76
$GPRMC,161552.572,A,5544.951,N,03745.769,E,001.9,146.4,310522,000.0,W*76
$GPRMC,161553.572,A,5544.951,N,03745.770,E,001.9,146.4,310522,000.0,W*7F
$GPRMC,161554.572,A,5544.950,N,03745.770,E,001.9,146.4,310522,000.0,W*79
$GPRMC,161555.572,A,5544.950,N,03745.770,E,001.9,146.4,310522,000.0,W*78
$GPRMC,161556.572,A,5544.949,N,03745.771,E,001.9,146.4,310522,000.0,W*72
$GPRMC,161557.572,A,5544.949,N,03745.771,E,001.9,146.4,310522,000.0,W*73
$GPRMC,161558.572,A,5544.948,N,03745.771,E,001.9,146.4,310522,000.0,W*7D
$GPRMC,161559.572,A,5544.948,N,03745.772,E,001.9,146.4,310522,000.0,W*7F
$GPRMC,161600.572,A,5544.947,N,03745.772,E,001.9,146.4,310522,000.0,W*7F
$GPRMC,161601.572,A,5544.947,N,03745.772,E,001.9,146.4,310522,000.0,W*7E
$GPRMC,161602.572,A,5544.946,N,03745.773,E,001.9,146.4,310522,000.0,W*7D
$GPRMC,161603.572,A,5544.946,N,03745.773,E,001.9,146.4,310522,000.0,W*7C
$GPRMC,161604.572,A,5544.945,N,03745.773,E,001.9,146.4,310522,000.0,W*78
$GPRMC,161605.572,A,5544.945,N,03745.774,E,001.9,146.4,310522,000.0,W*7E
$GPRMC,161606.572,A,5544.944,N,03745.774,E,001.9,146.4,310522,000.0,W*7C
$GPRMC,161607.572,A,5544.944,N,03745.774,E,001.9,146.4,310522,000.0,W*7D
$GPRMC,161608.572,A,5544.943,N,03745.775,E,001.9,146.4,310522,000.0,W*74
$GPRMC,161609.572,A,5544.943,N,03745.775,E,001.9,146.4,310522,000.0,W*75
$GPRMC,161610.572,A,5544.942,N,03745.775,E,001.9,146.4,310522,000.0,W*7C
$GPRMC,161611.572,A,5544.942,N,03745.776,E,001.9,146.4,310522,000.0,W*7E
$GPRMC,161612.572,A,5544.941,N,03745.776,E,001.9,146.4,310522,000.0,W*7E
$GPRMC,161613.572,A,5544.941,N,03745.776,E,001.9,146.4,310522,000.0,W*7F
$GPRMC,161614.572,A,5544.940,N,03745.777,E,001.9,146.4,310522,000.0,W*78
$GPRMC,161615.572,A,5544.940,N,03745.777,E,001.9,146.4,310522,000.0,W*79
$GPRMC,161616.572,A,5544.939,N,03745.777,E,001.9,146.4,310522,000.0,W*74
$GPRMC,161617.572,A,5544.939,N,03745.778,E,001.9,146.4,310522,000.0,W*7A
$GPRMC,161618.572,A,5544.938,N,03745.778,E,001.9,146.4,310522,000.0,W*74
$GPRMC,161619.572,A,5544.938,N,03745.778,E,001.9,146.4,310522,000.0,W*75
$GPRMC,161620.572,A,5544.937,N,03745.779,E,001.9,146.4,310522,000.0,W*71
$GPRMC,161621.572,A,5544.937,N,03745.779,E,001.9,146.4,310522,000.0,W*70
$GPRMC,161622.572,A,5544.936,N,03745.779,E,001.9,146.4,310522,000.0,W*72
$GPRMC,161623.572,A,5544.936,N,03745.780,E,001.9,146.4,310522,000.0,W*75
$GPRMC,161624.572,A,5544.935,N,03745.780,E,001.9,146.4,310522,000.0,W*71
$GPRMC,161625.572,A,5544.935,N,03745.780,E,001.9,146.4,310522,000.0,W*70
$GPRMC,161626.572,A,5544.934,N,03745.781,E,001.9,146.4,310522,000.0,W*73
$GPRMC,161627.572,A,5544.934,N,03745.781,E,001.9,146.4,310522,000.0,W*72
$GPRMC,161628.572,A,5544.933,N,03745.781,E,001.9,146.4,310522,000.0,W*7A
$GPRMC,161629.572,A,5544.933,N,03745.782,E,001.9,146.4,310522,000.0,W*78
$GPRMC,161630.572,A,5544.932,N,03745.782,E,001.9,146.4,310522,000.0,W*71
$GPRMC,161631.572,A,5544.932,N,03745.782,E,001.9,146.4,310522,000.0,W*70
$GPRMC,161632.572,A,5544.931,N,03745.783,E,001.9,146.4,310522,000.0,W*71
$GPRMC,161633.572,A,5544.931,N,03745.783,E,001.9,146.4,310522,000.0,W*70
$GPRMC,161634.572,A,5544.930,N,03745.783,E,001.9,146.4,310522,000.0,W*76
$GPRMC,161635.572,A,5544.930,N,03745.784,E,001.9,146.4,310522,000.0,W*70
$GPRMC,161636.572,A,5544.929,N,03745.784,E,001.9,146.4,310522,000.0,W*7B
$GPRMC,161637.572,A,5544.929,N,03745.785,E,001.9,146.4,310522,000.0,W*7B
$GPRMC,161638.572,A,5544.928,N,03745.785,E,001.9,146.4,310522,000.0,W*75
$GPRMC,161639.572,A,5544.928,N,03745.785,E,001.9,146.4,310522,000.0,W*74
$GPRMC,161640.572,A,5544.927,N,03745.786,E,001.9,146.4,310522,000.0,W*76
$GPRMC,161641.572,A,5544.927,N,03745.786,E,001.9,146.4,310522,000.0,W*77
$GPRMC,161642.572,A,5544.926,N,03745.786,E,001.9,146.4,310522,000.0,W*75
$GPRMC,161643.572,A,5544.926,N,03745.787,E,001.9,146.4,310522,000.0,W*75
$GPRMC,161644.572,A,5544.925,N,03745.787,E,001.9,146.4,310522,000.0,W*71
$GPRMC,161645.572,A,5544.925,N,03745.787,E,001.9,146.4,310522,000.0,W*70
$GPRMC,161646.572,A,5544.924,N,03745.788,E,001.9,146.4,310522,000.0,W*7D
$GPRMC,161647.572,A,5544.924,N,03745.788,E,001.9,146.4,310522,000.0,W*7C
$GPRMC,161648.572,A,5544.923,N,03745.788,E,001.9,146.4,310522,000.0,W*74
$GPRMC,161649.572,A,5544.923,N,03745.789,E,001.9,146.4,310522,000.0,W*74
$GPRMC,161650.572,A,5544.922,N,03745.789,E,001.9,146.4,310522,000.0,W*7D
$GPRMC,161651.572,A,5544.922,N,03745.789,E,001.9,146.4,310522,000.0,W*7C
$GPRMC,161652.572,A,5544.921,N,03745.790,E,001.9,146.4,310522,000.0,W*74
$GPRMC,161653.572,A,5544.921,N,03745.790,E,001.9,146.4,310522,000.0,W*75
$GPRMC,161654.572,A,5544.920,N,03745.790,E,001.9,146.4,310522,000.0,W*73
$GPRMC,161655.572,A,5544.920,N,03745.791,E,001.9,146.4,310522,000.0,W*73
$GPRMC,161656.572,A,5544.919,N,03745.791,E,001.9,146.4,310522,000.0,W*7A
$GPRMC,161657.572,A,5544.919,N,03745.791,E,001.9,146.4,310522,000.0,W*7B
$GPRMC,161658.572,A,5544.918,N,03745.792,E,001.9,146.4,310522,000.0,W*76
$GPRMC,161659.572,A,5544.918,N,03745.792,E,001.9,146.4,310522,000.0,W*77
$GPRMC,161700.572,A,5544.917,N,03745.792,E,001.9,146.4,310522,000.0,W*75
$GPRMC,161701.572,A,5544.917,N,03745.793,E,001.9,146.4,310522,000.0,W*75
$GPRMC,161702.572,A,5544.916,N,03745.793,E,001.9,146.4,310522,000.0,W*77
$GPRMC,161703.572,A,5544.916,N,03745.793,E,001.9,146.4,310522,000.0,W*76
$GPRMC,161704.572,A,5544.915,N,03745.794,E,001.9,146.4,310522,000.0,W*75
$GPRMC,161705.572,A,5544.915,N,03745.794,E,001.9,146.4,310522,000.0,W*74
$GPRMC,161706.572,A,5544.914,N,03745.794,E,001.9,146.4,310522,000.0,W*76
$GPRMC,161707.572,A,5544.914,N,03745.795,E,001.9,146.4,310522,000.0,W*76
$GPRMC,161708.572,A,5544.913,N,03745.795,E,001.9,146.4,310522,000.0,W*7E
$GPRMC,161709.572,A,5544.913,N,03745.795,E,001.9,146.4,310522,000.0,W*7F
$GPRMC,161710.572,A,5544.912,N,03745.796,E,001.9,146.4,310522,000.0,W*75
$GPRMC,161711.572,A,5544.912,N,03745.796,E,001.9,146.4,310522,000.0,W*74
$GPRMC,161712.572,A,5544.911,N,03745.796,E,001.9,146.4,310522,000.0,W*74
$GPRMC,161713.572,A,5544.911,N,03745.797,E,001.9,146.4,310522,000.0,W*74
$GPRMC,161714.572,A,5544.910,N,03745.797,E,001.9,146.4,310522,000.0,W*72
$GPRMC,161715.572,A,5544.910,N,03745.797,E,001.9,146.4,310522,000.0,W*73
$GPRMC,161716.572,A,5544.909,N,03745.798,E,001.9,146.4,310522,000.0,W*77
$GPRMC,161717.572,A,5544.909,N,03745.798,E,001.9,146.4,310522,000.0,W*76
$GPRMC,161718.572,A,5544.908,N,03745.798,E,001.9,146.4,310522,000.0,W*78
$GPRMC,161719.572,A,5544.908,N,03745.799,E,001.9,146.4,310522,000.0,W*78
$GPRMC,161720.572,A,5544.907,N,03745.799,E,001.9,146.4,310522,000.0,W*7D
$GPRMC,161721.572,A,5544.906,N,03745.799,E,001.9,146.4,310522,000.0,W*7D
$GPRMC,161722.572,A,5544.906,N,03745.800,E,001.9,146.4,310522,000.0,W*71
$GPRMC,161723.572,A,5544.905,N,03745.800,E,001.9,146.4,310522,000.0,W*73
$GPRMC,161724.572,A,5544.905,N,03745.800,E,001.9,146.4,310522,000.0,W*74
$GPRMC,161725.572,A,5544.904,N,03745.801,E,001.9,146.4,310522,000.0,W*75
$GPRMC,161726.572,A,5544.904,N,03745.801,E,001.9,146.4,310522,000.0,W*76
$GPRMC,161727.572,A,5544.903,N,03745.801,E,001.9,146.4,310522,000.0,W*70
$GPRMC,161728.572,A,5544.903,N,03745.802,E,001.9,146.4,310522,000.0,W*7C
$GPRMC,161729.572,A,5544.902,N,03745.802,E,001.9,146.4,310522,000.0,W*7C
$GPRMC,161730.572,A,5544.902,N,03745.802,E,001.9,146.4,310522,000.0,W*74
$GPRMC,161731.572,A,5544.901,N,03745.803,E,001.9,146.4,310522,000.0,W*77
$GPRMC,161732.572,A,5544.901,N,03745.803,E,001.9,146.4,310522,000.0,W*74
$GPRMC,161733.572,A,5544.900,N,03745.803,E,001.9,146.4,310522,000.0,W*74
$GPRMC,161734.572,A,5544.900,N,03745.804,E,001.9,146.4,310522,000.0,W*74
$GPRMC,161735.572,A,5544.899,N,03745.804,E,001.9,146.4,310522,000.0,W*74
$GPRMC,161736.572,A,5544.899,N,03745.804,E,001.9,146.4,310522,000.0,W*77
$GPRMC,161737.572,A,5544.898,N,03745.805,E,001.9,146.4,310522,000.0,W*76
$GPRMC,161738.572,A,5544.898,N,03745.805,E,001.9,146.4,310522,000.0,W*79
$GPRMC,161739.572,A,5544.897,N,03745.805,E,001.9,146.4,310522,000.0,W*77
$GPRMC,161740.572,A,5544.897,N,03745.806,E,001.9,146.4,310522,000.0,W*7A
$GPRMC,161741.572,A,5544.896,N,03745.806,E,001.9,146.4,310522,000.0,W*7A
$GPRMC,161742.572,A,5544.896,N,03745.806,E,001.9,146.4,310522,000.0,W*79
$GPRMC,161743.572,A,5544.895,N,03745.807,E,001.9,146.4,310522,000.0,W*7A
$GPRMC,161744.572,A,5544.895,N,03745.807,E,001.9,146.4,310522,000.0,W*7D
$GPRMC,161745.572,A,5544.894,N,03745.807,E,001.9,146.4,310522,000.0,W*7D
$GPRMC,161746.572,A,5544.894,N,03745.808,E,001.9,146.4,310522,000.0,W*71
$GPRMC,161747.572,A,5544.893,N,03745.808,E,001.9,146.4,310522,000.0,W*77
$GPRMC,161748.572,A,5544.893,N,03745.808,E,001.9,146.4,310522,000.0,W*78
$GPRMC,161749.572,A,5544.892,N,03745.809,E,001.9,146.4,310522,000.0,W*79
$GPRMC,161750.572,A,5544.892,N,03745.809,E,001.9,146.4,310522,000.0,W*71
$GPRMC,161751.572,A,5544.891,N,03745.809,E,001.9,146.4,310522,000.0,W*73
$GPRMC,161752.572,A,5544.891,N,03745.810,E,001.9,146.4,310522,000.0,W*78
$GPRMC,161753.572,A,5544.890,N,03745.810,E,001.9,146.4,310522,000.0,W*78
$GPRMC,161754.572,A,5544.890,N,03745.810,E,001.9,146.4,310522,000.0,W*7F
$GPRMC,161755.572,A,5544.889,N,03745.811,E,001.9,146.4,310522,000.0,W*77
$GPRMC,161756.572,A,5544.889,N,03745.811,E,001.9,146.4,310522,000.0,W*74
$GPRMC,161757.572,A,5544.888,N,03745.811,E,001.9,146.4,310522,000.0,W*74
$GPRMC,161758.572,A,5544.888,N,03745.812,E,001.9,146.4,310522,000.0,W*78
$GPRMC,161759.572,A,5544.887,N,03745.812,E,001.9,146.4,310522,000.0,W*76
$GPRMC,161800.572,A,5544.887,N,03745.812,E,001.9,146.4,310522,000.0,W*75
$GPRMC,161801.572,A,5544.886,N,03745.813,E,001.9,146.4,310522,000.0,W*74
$GPRMC,161802.572,A,5544.886,N,03745.813,E,001.9,146.4,310522,000.0,W*77
$GPRMC,161803.572,A,5544.885,N,03745.813,E,001.9,146.4,310522,000.0,W*75
$GPRMC,161804.572,A,5544.885,N,03745.814,E,001.9,146.4,310522,000.0,W*75
$GPRMC,161805.572,A,5544.884,N,03745.814,E,001.9,146.4,310522,000.0,W*75
$GPRMC,161806.572,A,5544.884,N,03745.815,E,001.9,146.4,310522,000.0,W*77
$GPRMC,161807.572,A,5544.883,N,03745.815,E,001.9,146.4,310522,000.0,W*71
$GPRMC,161808.572,A,5544.883,N,03745.815,E,001.9,146.4,310522,000.0,W*7E
$GPRMC,161809.572,A,5544.882,N,03745.816,E,001.9,146.4,310522,000.0,W*7D
$GPRMC,161810.572,A,5544.882,N,03745.816,E,001.9,146.4,310522,000.0,W*75
$GPRMC,161811.572,A,5544.881,N,03745.816,E,001.9,146.4,310522,000.0,W*77
$GPRMC,161812.572,A,5544.881,N,03745.817,E,001.9,146.4,310522,000.0,W*75
$GPRMC,161813.572,A,5544.880,N,03745.817,E,001.9,146.4,310522,000.0,W*75
$GPRMC,161814.572,A,5544.880,N,03745.817,E,001.9,146.4,310522,000.0,W*72
$GPRMC,161815.572,A,5544.879,N,03745.818,E,001.9,146.4,310522,000.0,W*7A
$GPRMC,161816.572,A,5544.879,N,03745.818,E,001.9,146.4,310522,000.0,W*79
$GPRMC,161817.572,A,5544.878,N,03745.818,E,001.9,146.4,310522,000.0,W*79
$GPRMC,161818.572,A,5544.878,N,03745.819,E,001.9,146.4,310522,000.0,W*77
$GPRMC,161819.572,A,5544.877,N,03745.819,E,001.9,146.4,310522,000.0,W*79
$GPRMC,161820.572,A,5544.877,N,03745.819,E,001.9,146.4,310522,000.0,W*73
$GPRMC,161821.572,A,5544.876,N,03745.820,E,001.9,146.4,310522,000.0,W*79
$GPRMC,161822.572,A,5544.876,N,03745.820,E,001.9,146.4,310522,000.0,W*7A
$GPRMC,161823.572,A,5544.875,N,03745.820,E,001.9,146.4,310522,000.0,W*78
$GPRMC,161824.572,A,5544.875,N,03745.821,E,001.9,146.4,310522,000.0,W*7E
$GPRMC,161825.572,A,5544.874,N,03745.821,E,001.9,146.4,310522,000.0,W*7E
$GPRMC,161826.572,A,5544.874,N,03745.821,E,001.9,146.4,310522,000.0,W*7D
$GPRMC,161827.572,A,5544.873,N,03745.822,E,001.9,146.4,310522,000.0,W*78
$GPRMC,161828.572,A,5544.873,N,03745.822,E,001.9,146.4,310522,000.0,W*77
$GPRMC,161829.572,A,5544.872,N,03745.822,E,001.9,146.4,310522,000.0,W*77
$GPRMC,161830.572,A,5544.872,N,03745.823,E,001.9,146.4,310522,000.0,W*7E
$GPRMC,161831.572,A,5544.871,N,03745.823,E,001.9,146.4,310522,000.0,W*7C
$GPRMC,161832.572,A,5544.871,N,03745.823,E,001.9,146.4,310522,000.0,W*7F
$GPRMC,161833.572,A,5544.870,N,03745.824,E,001.9,146.4,310522,000.0,W*78
$GPRMC,161834.572,A,5544.870,N,03745.824,E,001.9,146.4,310522,000.0,W*7F
$GPRMC,161835.572,A,5544.869,N,03745.824,E,001.9,146.4,310522,000.0,W*76
$GPRMC,161836.572,A,5544.869,N,03745.825,E,001.9,146.4,310522,000.0,W*74
$GPRMC,161837.572,A,5544.868,N,03745.825,E,001.9,146.4,310522,000.0,W*74
$GPRMC,161838.572,A,5544.868,N,03745.825,E,001.9,146.4,310522,000.0,W*7B
$GPRMC,161839.572,A,5544.867,N,03745.826,E,001.9,146.4,310522,000.0,W*76
$GPRMC,161840.572,A,5544.867,N,03745.826,E,001.9,146.4,310522,000.0,W*78
$GPRMC,161841.572,A,5544.866,N,03745.826,E,001.9,146.4,310522,000.0,W*78
$GPRMC,161842.572,A,5544.866,N,03745.827,E,001.9,146.4,310522,000.0,W*7A
$GPRMC,161843.572,A,5544.865,N,03745.827,E,001.9,146.4,310522,000.0,W*78
$GPRMC,161844.572,A,5544.865,N,03745.827,E,001.9,146.4,310522,000.0,W*7F
$GPRMC,161845.572,A,5544.864,N,03745.828,E,001.9,146.4,310522,000.0,W*70
$GPRMC,161846.572,A,5544.864,N,03745.828,E,001.9,146.4,310522,000.0,W*73
$GPRMC,161847.572,A,5544.863,N,03745.828,E,001.9,146.4,310522,000.0,W*75
$GPRMC,161848.572,A,5544.863,N,03745.829,E,001.9,146.4,310522,000.0,W*7B
$GPRMC,161849.572,A,5544.862,N,03745.829,E,001.9,146.4,310522,000.0,W*7B
$GPRMC,161850.572,A,5544.862,N,03745.829,E,001.9,146.4,310522,000.0,W*73
$GPRMC,161851.572,A,5544.861,N,03745.830,E,001.9,146.4,310522,000.0,W*79
$GPRMC,161852.572,A,5544.861,N,03745.830,E,001.9,146.4,310522,000.0,W*7A
$GPRMC,161853.572,A,5544.860,N,03745.830,E,001.9,146.4,310522,000.0,W*7A
$GPRMC,161854.572,A,5544.860,N,03745.831,E,001.9,146.4,310522,000.0,W*7C
$GPRMC,161855.572,A,5544.859,N,03745.831,E,001.9,146.4,310522,000.0,W*77
$GPRMC,161856.572,A,5544.859,N,03745.831,E,001.9,146.4,310522,000.0,W*74
$GPRMC,161857.572,A,5544.858,N,03745.832,E,001.9,146.4,310522,000.0,W*77
$GPRMC,161858.572,A,5544.858,N,03745.832,E,001.9,146.4,310522,000.0,W*78
$GPRMC,161859.572,A,5544.857,N,03745.832,E,001.9,146.4,310522,000.0,W*76
$GPRMC,161900.572,A,5544.856,N,03745.833,E,001.9,146.4,310522,000.0,W*7B
$GPRMC,161901.572,A,5544.856,N,03745.833,E,001.9,146.4,310522,000.0,W*7A
$GPRMC,161902.572,A,5544.855,N,03745.833,E,001.9,146.4,310522,000.0,W*7A
$GPRMC,161903.572,A,5544.855,N,03745.834,E,001.9,146.4,310522,000.0,W*7C
$GPRMC,161904.572,A,5544.854,N,03745.834,E,001.9,146.4,310522,000.0,W*7A
$GPRMC,161905.572,A,5544.854,N,03745.834,E,001.9,146.4,310522,000.0,W*7B
$GPRMC,161906.572,A,5544.853,N,03745.835,E,001.9,146.4,310522,000.0,W*7E
$GPRMC,161907.572,A,5544.853,N,03745.835,E,001.9,146.4,310522,000.0,W*7F
$GPRMC,161908.572,A,5544.852,N,03745.835,E,001.9,146.4,310522,000.0,W*71
$GPRMC,161909.572,A,5544.852,N,03745.836,E,001.9,146.4,310522,000.0,W*73
$GPRMC,161910.572,A,5544.851,N,03745.836,E,001.9,146.4,310522,000.0,W*78
$GPRMC,161911.572,A,5544.851,N,03745.836,E,001.9,146.4,310522,000.0,W*79
$GPRMC,161912.572,A,5544.850,N,03745.837,E,001.9,146.4,310522,000.0,W*7A
$GPRMC,161913.572,A,5544.850,N,03745.837,E,001.9,146.4,310522,000.0,W*7B
$GPRMC,161914.572,A,5544.849,N,03745.837,E,001.9,146.4,310522,000.0,W*74
$GPRMC,161915.572,A,5544.849,N,03745.838,E,001.9,146.4,310522,000.0,W*7A
$GPRMC,161916.572,A,5544.848,N,03745.838,E,001.9,146.4,310522,000.0,W*78
$GPRMC,161917.572,A,5544.848,N,03745.838,E,001.9,146.4,310522,000.0,W*79
$GPRMC,161918.572,A,5544.847,N,03745.839,E,001.9,146.4,310522,000.0,W*78
$GPRMC,161919.572,A,5544.847,N,03745.839,E,001.9,146.4,310522,000.0,W*79
$GPRMC,161920.572,A,5544.846,N,03745.839,E,001.9,146.4,310522,000.0,W*72
$GPRMC,161921.572,A,5544.846,N,03745.840,E,001.9,146.4,310522,000.0,W*7D
$GPRMC,161922.572,A,5544.845,N,03745.840,E,001.9,146.4,310522,000.0,W*7D
$GPRMC,161923.572,A,5544.845,N,03745.840,E,001.9,146.4,310522,000.0,W*7C
$GPRMC,161924.572,A,5544.844,N,03745.841,E,001.9,146.4,310522,000.0,W*7B
$GPRMC,161925.572,A,5544.844,N,03745.841,E,001.9,146.4,310522,000.0,W*7A
$GPRMC,161926.572,A,5544.843,N,03745.841,E,001.9,146.4,310522,000.0,W*7E
$GPRMC,161927.572,A,5544.843,N,03745.842,E,001.9,146.4,310522,000.0,W*7C
$GPRMC,161928.572,A,5544.842,N,03745.842,E,001.9,146.4,310522,000.0,W*72
$GPRMC,161929.572,A,5544.842,N,03745.842,E,001.9,146.4,310522,000.0,W*73
$GPRMC,161930.572,A,5544.841,N,03745.843,E,001.9,146.4,310522,000.0,W*79
$GPRMC,161931.572,A,5544.841,N,03745.843,E,001.9,146.4,310522,000.0,W*78
$GPRMC,161932.572,A,5544.840,N,03745.843,E,001.9,146.4,310522,000.0,W*7A
$GPRMC,161933.572,A,5544.840,N,03745.844,E,001.9,146.4,310522,000.0,W*7C
$GPRMC,161934.572,A,5544.839,N,03745.844,E,001.9,146.4,310522,000.0,W*75
$GPRMC,161935.572,A,5544.839,N,03745.845,E,001.9,146.4,310522,000.0,W*75
$GPRMC,161936.572,A,5544.838,N,03745.845,E,001.9,146.4,310522,000.0,W*77
$GPRMC,161937.572,A,5544.838,N,03745.845,E,001.9,146.4,310522,000.0,W*76
$GPRMC,161938.572,A,5544.837,N,03745.846,E,001.9,146.4,310522,000.0,W*75
$GPRMC,161939.572,A,5544.837,N,03745.846,E,001.9,146.4,310522,000.0,W*74
$GPRMC,161940.572,A,5544.836,N,03745.846,E,001.9,146.4,310522,000.0,W*7B
$GPRMC,161941.572,A,5544.836,N,03745.847,E,001.9,146.4,310522,000.0,W*7B
$GPRMC,161942.572,A,5544.835,N,03745.847,E,001.9,146.4,310522,000.0,W*7B
$GPRMC,161943.572,A,5544.835,N,03745.847,E,001.9,146.4,310522,000.0,W*7A
$GPRMC,161944.572,A,5544.834,N,03745.848,E,001.9,146.4,310522,000.0,W*73
$GPRMC,161945.572,A,5544.834,N,03745.848,E,001.9,146.4,310522,000.0,W*72
$GPRMC,161946.572,A,5544.833,N,03745.848,E,001.9,146.4,310522,000.0,W*76
$GPRMC,161947.572,A,5544.833,N,03745.849,E,001.9,146.4,310522,000.0,W*76
$GPRMC,161948.572,A,5544.832,N,03745.849,E,001.9,146.4,310522,000.0,W*78
$GPRMC,161949.572,A,5544.832,N,03745.849,E,001.9,146.4,310522,000.0,W*79
$GPRMC,161950.572,A,5544.831,N,03745.850,E,001.9,146.4,310522,000.0,W*7A
$GPRMC,161951.572,A,5544.831,N,03745.850,E,001.9,146.4,310522,000.0,W*7B
$GPRMC,161952.572,A,5544.830,N,03745.850,E,001.9,146.4,310522,000.0,W*79
$GPRMC,161953.572,A,5544.830,N,03745.851,E,001.9,146.4,310522,000.0,W*79
$GPRMC,161954.572,A,5544.829,N,03745.851,E,001.9,146.4,310522,000.0,W*76
$GPRMC,161955.572,A,5544.829,N,03745.851,E,001.9,146.4,310522,000.0,W*77
$GPRMC,161956.572,A,5544.828,N,03745.852,E,001.9,146.4,310522,000.0,W*76
$GPRMC,161957.572,A,5544.828,N,03745.852,E,001.9,146.4,310522,000.0,W*77
$GPRMC,161958.572,A,5544.827,N,03745.852,E,001.9,146.4,310522,000.0,W*77
$GPRMC,161959.572,A,5544.827,N,03745.853,E,001.9,273.3,310522,000.0,W*75
$GPRMC,162000.572,A,5544.827,N,03745.852,E,001.9,273.3,310522,000.0,W*72
$GPRMC,162001.572,A,5544.827,N,03745.851,E,001.9,273.3,310522,000.0,W*70
$GPRMC,162002.572,A,5544.827,N,03745.850,E,001.9,273.3,310522,000.0,W*72
$GPRMC,162003.572,A,5544.827,N,03745.849,E,001.9,273.3,310522,000.0,W*7B
$GPRMC,162004.572,A,5544.827,N,03745.848,E,001.9,273.3,310522,000.0,W*7D
$GPRMC,162005.572,A,5544.827,N,03745.847,E,001.9,273.3,310522,000.0,W*73
$GPRMC,162006.572,A,5544.827,N,03745.846,E,001.9,273.3,310522,000.0,W*71
$GPRMC,162007.572,A,5544.827,N,03745.845,E,001.9,273.3,310522,000.0,W*73
$GPRMC,162008.572,A,5544.827,N,03745.844,E,001.9,273.3,310522,000.0,W*7D
$GPRMC,162009.572,A,5544.827,N,03745.843,E,001.9,273.3,310522,000.0,W*7B
$GPRMC,162010.572,A,5544.827,N,03745.842,E,001.9,273.3,310522,000.0,W*72
$GPRMC,162011.572,A,5544.827,N,03745.841,E,001.9,273.3,310522,000.0,W*70
$GPRMC,162012.572,A,5544.827,N,03745.840,E,001.9,273.3,310522,000.0,W*72
$GPRMC,162013.572,A,5544.827,N,03745.839,E,001.9,273.3,310522,000.0,W*7D
$GPRMC,162014.572,A,5544.827,N,03745.838,E,001.9,273.3,310522,000.0,W*7B
$GPRMC,162015.572,A,5544.828,N,03745.837,E,001.9,273.3,310522,000.0,W*7A
$GPRMC,162016.572,A,5544.828,N,03745.836,E,001.9,273.3,310522,000.0,W*78
$GPRMC,162017.572,A,5544.828,N,03745.835,E,001.9,273.3,310522,000.0,W*7A
$GPRMC,162018.572,A,5544.828,N,03745.834,E,001.9,273.3,310522,000.0,W*74
$GPRMC,162019.572,A,5544.828,N,03745.834,E,001.9,273.3,310522,000.0,W*75
$GPRMC,162020.572,A,5544.828,N,03745.833,E,001.9,273.3,310522,000.0,W*78
$GPRMC,162021.572,A,5544.828,N,03745.832,E,001.9,273.3,310522,000.0,W*78
$GPRMC,162022.572,A,5544.828,N,03745.831,E,001.9,273.3,310522,000.0,W*78
$GPRMC,162023.572,A,5544.828,N,03745.830,E,001.9,273.3,310522,000.0,W*78
$GPRMC,162024.572,A,5544.828,N,03745.829,E,001.9,273.3,310522,000.0,W*77
$GPRMC,162025.572,A,5544.828,N,03745.828,E,001.9,273.3,310522,000.0,W*77
$GPRMC,162026.572,A,5544.828,N,03745.827,E,001.9,273.3,310522,000.0,W*7B
$GPRMC,162027.572,A,5544.828,N,03745.826,E,001.9,273.3,310522,000.0,W*7B
$GPRMC,162028.572,A,5544.828,N,03745.825,E,001.9,273.3,310522,000.0,W*77
$GPRMC,162029.572,A,5544.828,N,03745.824,E,001.9,273.3,310522,000.0,W*77
$GPRMC,162030.572,A,5544.828,N,03745.823,E,001.9,273.3,310522,000.0,W*78
$GPRMC,162031.572,A,5544.828,N,03745.822,E,001.9,273.3,310522,000.0,W*78
$GPRMC,162032.572,A,5544.828,N,03745.821,E,001.9,273.3,310522,000.0,W*78
$GPRMC,162033.572,A,5544.829,N,03745.820,E,001.9,273.3,310522,000.0,W*79
$GPRMC,162034.572,A,5544.829,N,03745.819,E,001.9,273.3,310522,000.0,W*74
$GPRMC,162035.572,A,5544.829,N,03745.818,E,001.9,273.3,310522,000.0,W*74
$GPRMC,162036.572,A,5544.829,N,03745.817,E,001.9,273.3,310522,000.0,W*78
$GPRMC,162037.572,A,5544.829,N,03745.816,E,001.9,273.3,310522,000.0,W*78
$GPRMC,162038.572,A,5544.829,N,03745.815,E,001.9,273.3,310522,000.0,W*74
$GPRMC,162039.572,A,5544.829,N,03745.814,E,001.9,273.3,310522,000.0,W*74
$GPRMC,162040.572,A,5544.829,N,03745.813,E,001.9,273.3,310522,000.0,W*7D
$GPRMC,162041.572,A,5544.829,N,03745.813,E,001.9,273.3,310522,000.0,W*7C
$GPRMC,162042.572,A,5544.829,N,03745.812,E,001.9,273.3,310522,000.0,W*7E
$GPRMC,162043.572,A,5544.829,N,03745.811,E,001.9,273.3,310522,000.0,W*7C
$GPRMC,162044.572,A,5544.829,N,03745.810,E,001.9,273.3,310522,000.0,W*7A
$GPRMC,162045.572,A,5544.829,N,03745.809,E,001.9,273.3,310522,000.0,W*73
$GPRMC,162046.572,A,5544.829,N,03745.808,E,001.9,273.3,310522,000.0,W*71
$GPRMC,162047.572,A,5544.829,N,03745.807,E,001.9,273.3,310522,000.0,W*7F
$GPRMC,162048.572,A,5544.829,N,03745.806,E,001.9,273.3,310522,000.0,W*71
$GPRMC,162049.572,A,5544.829,N,03745.805,E,001.9,273.3,310522,000.0,W*73
$GPRMC,162050.572,A,5544.829,N,03745.804,E,001.9,273.3,310522,000.0,W*7A
$GPRMC,162051.572,A,5544.829,N,03745.803,E,001.9,273.3,310522,000.0,W*7C
$GPRMC,162052.572,A,5544.830,N,03745.802,E,001.9,273.3,310522,000.0,W*76
$GPRMC,162053.572,A,5544.830,N,03745.801,E,001.9,273.3,310522,000.0,W*74
$GPRMC,162054.572,A,5544.830,N,03745.800,E,001.9,273.3,310522,000.0,W*72
$GPRMC,162055.572,A,5544.830,N,03745.799,E,001.9,273.3,310522,000.0,W*7C
$GPRMC,162056.572,A,5544.830,N,03745.798,E,001.9,273.3,310522,000.0,W*7E
$GPRMC,162057.572,A,5544.830,N,03745.797,E,001.9,273.3,310522,000.0,W*70
$GPRMC,162058.572,A,5544.830,N,03745.796,E,001.9,273.3,310522,000.0,W*7E
