$GPRMC,113837.474,A,5545.133,N,03745.531,E,019.4,078.6,080622,000.0,W*7B
$GPRMC,113838.474,A,5545.135,N,03745.540,E,019.4,078.6,080622,000.0,W*74
$GPRMC,113839.474,A,5545.137,N,03745.549,E,019.4,078.6,080622,000.0,W*7E
$GPRMC,113840.474,A,5545.138,N,03745.558,E,019.4,078.6,080622,000.0,W*7F
$GPRMC,113841.474,A,5545.140,N,03745.567,E,019.4,078.6,080622,000.0,W*7D
$GPRMC,113842.474,A,5545.142,N,03745.576,E,019.4,078.6,080622,000.0,W*7C
$GPRMC,113843.474,A,5545.144,N,03745.585,E,019.4,078.6,080622,000.0,W*77
$GPRMC,113844.474,A,5545.146,N,03745.594,E,019.4,078.6,080622,000.0,W*72
$GPRMC,113845.474,A,5545.148,N,03745.603,E,019.4,078.6,080622,000.0,W*70
$GPRMC,113846.474,A,5545.149,N,03745.612,E,019.4,078.6,080622,000.0,W*72
$GPRMC,113847.474,A,5545.151,N,03745.621,E,019.4,078.6,080622,000.0,W*7A
$GPRMC,113848.474,A,5545.153,N,03745.630,E,019.4,146.2,080622,000.0,W*7F
$GPRMC,113849.474,A,5545.148,N,03745.634,E,019.4,146.2,080622,000.0,W*70
$GPRMC,113850.474,A,5545.143,N,03745.637,E,019.4,146.2,080622,000.0,W*70
$GPRMC,113851.474,A,5545.138,N,03745.640,E,019.4,146.2,080622,000.0,W*7D
$GPRMC,113852.474,A,5545.133,N,03745.644,E,019.4,146.2,080622,000.0,W*71
$GPRMC,113853.474,A,5545.128,N,03745.647,E,019.4,146.2,080622,000.0,W*79
$GPRMC,113854.474,A,5545.123,N,03745.651,E,019.4,146.2,080622,000.0,W*72
$GPRMC,113855.474,A,5545.118,N,03745.654,E,019.4,146.2,080622,000.0,W*7E
$GPRMC,113856.474,A,5545.113,N,03745.657,E,019.4,146.2,080622,000.0,W*75
$GPRMC,113857.474,A,5545.108,N,03745.661,E,019.4,146.2,080622,000.0,W*7B
$GPRMC,113858.474,A,5545.102,N,03745.664,E,019.4,146.2,080622,000.0,W*7B
$GPRMC,113859.474,A,5545.097,N,03745.668,E,019.4,146.2,080622,000.0,W*7B
$GPRMC,113900.474,A,5545.092,N,03745.671,E,019.4,146.2,080622,000.0,W*7B
$GPRMC,113901.474,A,5545.087,N,03745.674,E,019.4,146.2,080622,000.0,W*7B
$GPRMC,113902.474,A,5545.082,N,03745.678,E,019.4,146.2,080622,000.0,W*71
$GPRMC,113903.474,A,5545.077,N,03745.681,E,019.4,146.2,080622,000.0,W*7C
$GPRMC,113904.474,A,5545.072,N,03745.685,E,019.4,146.2,080622,000.0,W*7A
$GPRMC,113905.474,A,5545.067,N,03745.688,E,019.4,146.2,080622,000.0,W*72
$GPRMC,113906.474,A,5545.062,N,03745.691,E,019.4,146.2,080622,000.0,W*7C
$GPRMC,113907.474,A,5545.057,N,03745.695,E,019.4,146.2,080622,000.0,W*7F
$GPRMC,113908.474,A,5545.052,N,03745.698,E,019.4,146.2,080622,000.0,W*78
$GPRMC,113909.474,A,5545.047,N,03745.702,E,019.4,146.2,080622,000.0,W*7F
$GPRMC,113910.474,A,5545.042,N,03745.705,E,019.4,146.2,080622,000.0,W*75
$GPRMC,113911.474,A,5545.037,N,03745.708,E,019.4,146.2,080622,000.0,W*7B
$GPRMC,113912.474,A,5545.032,N,03745.712,E,019.4,146.2,080622,000.0,W*76
$GPRMC,113913.474,A,5545.027,N,03745.715,E,019.4,146.2,080622,000.0,W*74
$GPRMC,113914.474,A,5545.022,N,03745.719,E,019.4,146.2,080622,000.0,W*7A
$GPRMC,113915.474,A,5545.017,N,03745.722,E,019.4,146.2,080622,000.0,W*75
$GPRMC,113916.474,A,5545.012,N,03745.725,E,019.4,146.2,080622,000.0,W*74
$GPRMC,113917.474,A,5545.007,N,03745.729,E,019.4,146.2,080622,000.0,W*7D
$GPRMC,113918.474,A,5545.002,N,03745.732,E,019.4,146.2,080622,000.0,W*7D
$GPRMC,113919.474,A,5544.997,N,03745.736,E,019.4,146.2,080622,000.0,W*7C
$GPRMC,113920.474,A,5544.991,N,03745.739,E,019.4,146.2,080622,000.0,W*7F
$GPRMC,113921.474,A,5544.986,N,03745.742,E,019.4,146.2,080622,000.0,W*74
$GPRMC,113922.474,A,5544.981,N,03745.746,E,019.4,146.2,080622,000.0,W*74
$GPRMC,113923.474,A,5544.976,N,03745.749,E,019.4,146.2,080622,000.0,W*72
$GPRMC,113924.474,A,5544.971,N,03745.753,E,019.4,146.2,080622,000.0,W*79
$GPRMC,113925.474,A,5544.966,N,03745.756,E,019.4,146.2,080622,000.0,W*7B
$GPRMC,113926.474,A,5544.961,N,03745.759,E,019.4,146.2,080622,000.0,W*70
$GPRMC,113927.474,A,5544.956,N,03745.763,E,019.4,146.2,080622,000.0,W*7C
$GPRMC,113928.474,A,5544.951,N,03745.766,E,019.4,146.2,080622,000.0,W*71
$GPRMC,113929.474,A,5544.946,N,03745.770,E,019.4,146.2,080622,000.0,W*71
$GPRMC,113930.474,A,5544.941,N,03745.773,E,019.4,146.2,080622,000.0,W*7D
$GPRMC,113931.474,A,5544.936,N,03745.776,E,019.4,146.2,080622,000.0,W*79
$GPRMC,113932.474,A,5544.931,N,03745.780,E,019.4,146.2,080622,000.0,W*74
$GPRMC,113933.474,A,5544.926,N,03745.783,E,019.4,146.2,080622,000.0,W*70
$GPRMC,113934.474,A,5544.921,N,03745.787,E,019.4,146.2,080622,000.0,W*74
$GPRMC,113935.474,A,5544.916,N,03745.790,E,019.4,146.2,080622,000.0,W*77
$GPRMC,113936.474,A,5544.911,N,03745.793,E,019.4,146.2,080622,000.0,W*70
$GPRMC,113937.474,A,5544.906,N,03745.797,E,019.4,146.2,080622,000.0,W*73
$GPRMC,113938.474,A,5544.901,N,03745.800,E,019.4,146.2,080622,000.0,W*7A
$GPRMC,113939.474,A,5544.896,N,03745.804,E,019.4,146.2,080622,000.0,W*70
$GPRMC,113940.474,A,5544.891,N,03745.807,E,019.4,146.2,080622,000.0,W*7A
$GPRMC,113941.474,A,5544.886,N,03745.810,E,019.4,146.2,080622,000.0,W*7B
$GPRMC,113942.474,A,5544.881,N,03745.814,E,019.4,146.2,080622,000.0,W*7B
$GPRMC,113943.474,A,5544.875,N,03745.817,E,019.4,146.2,080622,000.0,W*72
$GPRMC,113944.474,A,5544.870,N,03745.821,E,019.4,146.2,080622,000.0,W*75
$GPRMC,113945.474,A,5544.865,N,03745.824,E,019.4,146.2,080622,000.0,W*75
$GPRMC,113946.474,A,5544.860,N,03745.827,E,019.4,146.2,080622,000.0,W*70
$GPRMC,113947.474,A,5544.855,N,03745.831,E,019.4,146.2,080622,000.0,W*70
$GPRMC,113948.474,A,5544.850,N,03745.834,E,019.4,146.2,080622,000.0,W*7F
$GPRMC,113949.474,A,5544.845,N,03745.838,E,019.4,146.2,080622,000.0,W*76
$GPRMC,113950.474,A,5544.840,N,03745.841,E,019.4,146.2,080622,000.0,W*75
$GPRMC,113951.474,A,5544.835,N,03745.844,E,019.4,146.2,080622,000.0,W*73
$GPRMC,113952.474,A,5544.830,N,03745.848,E,019.4,146.2,080622,000.0,W*79
$GPRMC,113953.474,A,5544.825,N,03745.851,E,019.4,273.1,080622,000.0,W*72
$GPRMC,113954.474,A,5544.826,N,03745.842,E,019.4,273.1,080622,000.0,W*74
$GPRMC,113955.474,A,5544.826,N,03745.832,E,019.4,273.1,080622,000.0,W*72
$GPRMC,113956.474,A,5544.827,N,03745.822,E,019.4,273.1,080622,000.0,W*71
$GPRMC,113957.474,A,5544.827,N,03745.813,E,019.4,273.1,080622,000.0,W*72
$GPRMC,113958.474,A,5544.828,N,03745.803,E,019.4,273.1,080622,000.0,W*73
$GPRMC,113959.474,A,5544.828,N,03745.794,E,019.4,273.1,080622,000.0,W*73
$GPRMC,114000.474,A,5544.829,N,03745.784,E,019.4,273.1,080622,000.0,W*71
$GPRMC,114001.474,A,5544.829,N,03745.775,E,019.4,273.1,080622,000.0,W*7E
$GPRMC,114002.474,A,5544.830,N,03745.765,E,019.4,273.1,080622,000.0,W*74
$GPRMC,114003.474,A,5544.830,N,03745.756,E,019.4,273.1,080622,000.0,W*75
$GPRMC,114004.474,A,5544.831,N,03745.746,E,019.4,273.1,080622,000.0,W*72
$GPRMC,114005.474,A,5544.831,N,03745.737,E,019.4,273.1,080622,000.0,W*75
$GPRMC,114006.474,A,5544.832,N,03745.727,E,019.4,273.1,080622,000.0,W*74
$GPRMC,114007.474,A,5544.832,N,03745.718,E,019.4,273.1,080622,000.0,W*79
$GPRMC,114008.474,A,5544.833,N,03745.708,E,019.4,273.1,080622,000.0,W*76
$GPRMC,114009.474,A,5544.833,N,03745.698,E,019.4,273.1,080622,000.0,W*7F
$GPRMC,114010.474,A,5544.834,N,03745.689,E,019.4,273.1,080622,000.0,W*70
$GPRMC,114011.474,A,5544.834,N,03745.679,E,019.4,273.1,080622,000.0,W*7E
$GPRMC,114012.474,A,5544.835,N,03745.670,E,019.4,273.1,080622,000.0,W*75
$GPRMC,114013.474,A,5544.835,N,03745.660,E,019.4,273.1,080622,000.0,W*75
$GPRMC,114014.474,A,5544.836,N,03745.651,E,019.4,273.1,080622,000.0,W*73
$GPRMC,114015.474,A,5544.836,N,03745.641,E,019.4,273.1,080622,000.0,W*73
$GPRMC,114016.474,A,5544.837,N,03745.632,E,019.4,273.1,080622,000.0,W*75
$GPRMC,114017.474,A,5544.838,N,03745.622,E,019.4,273.1,080622,000.0,W*7A
$GPRMC,114018.474,A,5544.838,N,03745.613,E,019.4,273.1,080622,000.0,W*77
$GPRMC,114019.474,A,5544.839,N,03745.603,E,019.4,273.1,080622,000.0,W*76
$GPRMC,114020.474,A,5544.839,N,03745.593,E,019.4,273.1,080622,000.0,W*76
$GPRMC,114021.474,A,5544.840,N,03745.584,E,019.4,273.1,080622,000.0,W*7F
$GPRMC,114022.474,A,5544.840,N,03745.574,E,019.4,273.1,080622,000.0,W*73
$GPRMC,114023.474,A,5544.841,N,03745.565,E,019.4,273.1,080622,000.0,W*73
$GPRMC,114024.474,A,5544.841,N,03745.555,E,019.4,273.1,080622,000.0,W*77
$GPRMC,114025.474,A,5544.842,N,03745.546,E,019.4,273.1,080622,000.0,W*77
$GPRMC,114026.474,A,5544.842,N,03745.536,E,019.4,273.1,080622,000.0,W*73
$GPRMC,114027.474,A,5544.843,N,03745.527,E,019.4,273.1,080622,000.0,W*73
$GPRMC,114028.474,A,5544.843,N,03745.517,E,019.4,273.1,080622,000.0,W*7F
$GPRMC,114029.474,A,5544.844,N,03745.508,E,019.4,273.1,080622,000.0,W*77
$GPRMC,114030.474,A,5544.844,N,03745.498,E,019.4,273.1,080622,000.0,W*77
$GPRMC,114031.474,A,5544.845,N,03745.489,E,019.4,273.1,080622,000.0,W*77
$GPRMC,114032.474,A,5544.845,N,03745.479,E,019.4,273.1,080622,000.0,W*7B
$GPRMC,114033.474,A,5544.846,N,03745.469,E,019.4,273.1,080622,000.0,W*78
$GPRMC,114034.474,A,5544.846,N,03745.460,E,019.4,273.1,080622,000.0,W*76
$GPRMC,114035.474,A,5544.847,N,03745.450,E,019.4,273.1,080622,000.0,W*75
$GPRMC,114036.474,A,5544.847,N,03745.441,E,019.4,327.8,080622,000.0,W*7F
$GPRMC,114037.474,A,5544.853,N,03745.438,E,019.4,327.8,080622,000.0,W*75
$GPRMC,114038.474,A,5544.858,N,03745.434,E,019.4,327.8,080622,000.0,W*7D
$GPRMC,114039.474,A,5544.863,N,03745.431,E,019.4,327.8,080622,000.0,W*71
$GPRMC,114040.474,A,5544.868,N,03745.428,E,019.4,327.8,080622,000.0,W*7C
$GPRMC,114041.474,A,5544.873,N,03745.425,E,019.4,327.8,080622,000.0,W*7A
$GPRMC,114042.474,A,5544.878,N,03745.422,E,019.4,327.8,080622,000.0,W*75
$GPRMC,114043.474,A,5544.883,N,03745.418,E,019.4,327.8,080622,000.0,W*79
$GPRMC,114044.474,A,5544.888,N,03745.415,E,019.4,327.8,080622,000.0,W*78
$GPRMC,114045.474,A,5544.893,N,03745.412,E,019.4,327.8,080622,000.0,W*74
$GPRMC,114046.474,A,5544.898,N,03745.409,E,019.4,327.8,080622,000.0,W*76
$GPRMC,114047.474,A,5544.903,N,03745.405,E,019.4,327.8,080622,000.0,W*78
$GPRMC,114048.474,A,5544.908,N,03745.402,E,019.4,327.8,080622,000.0,W*7B
$GPRMC,114049.474,A,5544.914,N,03745.399,E,019.4,327.8,080622,000.0,W*72
$GPRMC,114050.474,A,5544.919,N,03745.396,E,019.4,327.8,080622,000.0,W*78
$GPRMC,114051.474,A,5544.924,N,03745.393,E,019.4,327.8,080622,000.0,W*72
$GPRMC,114052.474,A,5544.929,N,03745.389,E,019.4,327.8,080622,000.0,W*77
$GPRMC,114053.474,A,5544.934,N,03745.386,E,019.4,327.8,080622,000.0,W*75
$GPRMC,114054.474,A,5544.939,N,03745.383,E,019.4,327.8,080622,000.0,W*7A
$GPRMC,114055.474,A,5544.944,N,03745.380,E,019.4,327.8,080622,000.0,W*72
$GPRMC,114056.474,A,5544.949,N,03745.377,E,019.4,327.9,080622,000.0,W*75
$GPRMC,114057.474,A,5544.954,N,03745.373,E,019.4,327.9,080622,000.0,W*7C
$GPRMC,114058.474,A,5544.959,N,03745.370,E,019.4,327.9,080622,000.0,W*7D
$GPRMC,114059.474,A,5544.964,N,03745.367,E,019.4,327.9,080622,000.0,W*74
$GPRMC,114100.474,A,5544.969,N,03745.364,E,019.4,327.9,080622,000.0,W*77
$GPRMC,114101.474,A,5544.975,N,03745.361,E,019.4,327.9,080622,000.0,W*7E
$GPRMC,114102.474,A,5544.980,N,03745.357,E,019.4,327.9,080622,000.0,W*72
$GPRMC,114103.474,A,5544.985,N,03745.354,E,019.4,327.9,080622,000.0,W*75
$GPRMC,114104.474,A,5544.990,N,03745.351,E,019.4,327.9,080622,000.0,W*73
$GPRMC,114105.474,A,5544.995,N,03745.348,E,019.4,327.9,080622,000.0,W*7F
$GPRMC,114106.474,A,5545.000,N,03745.344,E,019.4,327.9,080622,000.0,W*74
$GPRMC,114107.474,A,5545.005,N,03745.341,E,019.4,327.9,080622,000.0,W*75
$GPRMC,114108.474,A,5545.010,N,03745.338,E,019.4,327.9,080622,000.0,W*70
$GPRMC,114109.474,A,5545.015,N,03745.335,E,019.4,327.9,080622,000.0,W*79
$GPRMC,114110.474,A,5545.020,N,03745.332,E,019.4,327.9,080622,000.0,W*70
$GPRMC,114111.474,A,5545.025,N,03745.328,E,019.4,327.9,080622,000.0,W*7F
$GPRMC,114112.474,A,5545.030,N,03745.325,E,019.4,327.9,080622,000.0,W*75
$GPRMC,114113.474,A,5545.036,N,03745.322,E,019.4,327.9,080622,000.0,W*75
$GPRMC,114114.474,A,5545.041,N,03745.319,E,019.4,327.9,080622,000.0,W*7A
$GPRMC,114115.474,A,5545.046,N,03745.316,E,019.4,327.9,080622,000.0,W*73
$GPRMC,114116.474,A,5545.051,N,03745.312,E,019.4,327.9,080622,000.0,W*72
$GPRMC,114117.474,A,5545.056,N,03745.309,E,019.4,327.9,080622,000.0,W*7E
$GPRMC,114118.474,A,5545.061,N,03745.306,E,019.4,327.9,080622,000.0,W*7A
$GPRMC,114119.474,A,5545.066,N,03745.303,E,019.4,327.9,080622,000.0,W*79
$GPRMC,114120.474,A,5545.071,N,03745.300,E,019.4,327.9,080622,000.0,W*76
$GPRMC,114121.474,A,5545.076,N,03745.296,E,019.4,327.9,080622,000.0,W*7E
$GPRMC,114122.474,A,5545.081,N,03745.293,E,019.4,327.9,080622,000.0,W*70
$GPRMC,114123.474,A,5545.086,N,03745.290,E,019.4,327.9,080622,000.0,W*75
$GPRMC,114124.474,A,5545.091,N,03745.287,E,019.4,327.9,080622,000.0,W*72
$GPRMC,114125.474,A,5545.097,N,03745.283,E,019.4,327.9,080622,000.0,W*71
$GPRMC,114126.474,A,5545.102,N,03745.280,E,019.4,327.9,080622,000.0,W*7C
$GPRMC,114127.474,A,5545.107,N,03745.277,E,019.4,327.9,080622,000.0,W*70
$GPRMC,114128.474,A,5545.112,N,03745.274,E,019.4,327.9,080622,000.0,W*78
$GPRMC,114129.474,A,5545.117,N,03745.271,E,019.4,327.9,080622,000.0,W*79
$GPRMC,114130.474,A,5545.122,N,03745.267,E,019.4,327.9,080622,000.0,W*70
$GPRMC,114131.474,A,5545.127,N,03745.264,E,019.4,327.9,080622,000.0,W*77
$GPRMC,114132.474,A,5545.132,N,03745.261,E,019.4,327.9,080622,000.0,W*75
$GPRMC,114133.474,A,5545.137,N,03745.258,E,019.4,327.9,080622,000.0,W*7B
$GPRMC,114134.474,A,5545.142,N,03745.255,E,019.4,327.9,080622,000.0,W*73
$GPRMC,114135.474,A,5545.147,N,03745.251,E,019.4,327.9,080622,000.0,W*73
$GPRMC,114136.474,A,5545.152,N,03745.248,E,019.4,327.9,080622,000.0,W*7C
$GPRMC,114137.474,A,5545.158,N,03745.245,E,019.4,327.9,080622,000.0,W*7A
$GPRMC,114138.474,A,5545.163,N,03745.242,E,019.4,327.9,080622,000.0,W*7A
$GPRMC,114139.474,A,5545.168,N,03745.239,E,019.4,327.9,080622,000.0,W*7C
$GPRMC,114140.474,A,5545.173,N,03745.235,E,019.4,327.9,080622,000.0,W*74
$GPRMC,114141.474,A,5545.178,N,03745.232,E,019.4,327.9,080622,000.0,W*79
$GPRMC,114142.474,A,5545.183,N,03745.229,E,019.4,327.9,080622,000.0,W*74
$GPRMC,114143.474,A,5545.188,N,03745.226,E,019.4,327.9,080622,000.0,W*71
$GPRMC,114144.474,A,5545.193,N,03745.222,E,019.4,327.9,080622,000.0,W*78
$GPRMC,114145.474,A,5545.198,N,03745.219,E,019.4,327.9,080622,000.0,W*7A
$GPRMC,114146.474,A,5545.203,N,03745.216,E,019.4,327.9,080622,000.0,W*77
$GPRMC,114147.474,A,5545.208,N,03745.213,E,019.4,323.7,080622,000.0,W*72
$GPRMC,114148.474,A,5545.213,N,03745.209,E,019.4,078.5,080622,000.0,W*73
$GPRMC,114149.474,A,5545.215,N,03745.218,E,019.4,078.5,080622,000.0,W*74
$GPRMC,114150.474,A,5545.217,N,03745.227,E,019.4,078.5,080622,000.0,W*72
$GPRMC,114151.474,A,5545.219,N,03745.236,E,019.4,078.5,080622,000.0,W*7D
$GPRMC,114152.474,A,5545.221,N,03745.245,E,019.4,078.5,080622,000.0,W*71
$GPRMC,114153.474,A,5545.223,N,03745.254,E,019.4,078.5,080622,000.0,W*72
$GPRMC,114154.474,A,5545.224,N,03745.263,E,019.4,078.5,080622,000.0,W*76
$GPRMC,114155.474,A,5545.226,N,03745.272,E,019.4,078.5,080622,000.0,W*75
$GPRMC,114156.474,A,5545.228,N,03745.281,E,019.4,078.5,080622,000.0,W*74
$GPRMC,114157.474,A,5545.230,N,03745.290,E,019.4,078.5,080622,000.0,W*7C
$GPRMC,114158.474,A,5545.232,N,03745.299,E,019.4,078.5,080622,000.0,W*78
$GPRMC,114159.474,A,5545.233,N,03745.308,E,019.4,078.5,080622,000.0,W*71
$GPRMC,114200.474,A,5545.235,N,03745.317,E,019.4,078.5,080622,000.0,W*76
$GPRMC,114201.474,A,5545.237,N,03745.326,E,019.4,078.5,080622,000.0,W*77
$GPRMC,114202.474,A,5545.239,N,03745.335,E,019.4,078.5,080622,000.0,W*78
$GPRMC,114203.474,A,5545.241,N,03745.345,E,019.4,078.5,080622,000.0,W*71
$GPRMC,114204.474,A,5545.243,N,03745.354,E,019.4,078.5,080622,000.0,W*74
$GPRMC,114205.474,A,5545.244,N,03745.363,E,019.4,078.5,080622,000.0,W*76
$GPRMC,114206.474,A,5545.246,N,03745.372,E,019.4,078.5,080622,000.0,W*77
$GPRMC,114207.474,A,5545.248,N,03745.381,E,019.4,078.5,080622,000.0,W*74
$GPRMC,114208.474,A,5545.250,N,03745.390,E,019.4,078.5,080622,000.0,W*72
$GPRMC,114209.474,A,5545.252,N,03745.399,E,019.4,078.5,080622,000.0,W*78
$GPRMC,114210.474,A,5545.254,N,03745.408,E,019.4,078.5,080622,000.0,W*79
$GPRMC,114211.474,A,5545.255,N,03745.417,E,019.4,078.5,080622,000.0,W*77
$GPRMC,114212.474,A,5545.257,N,03745.426,E,019.4,078.5,080622,000.0,W*74
$GPRMC,114213.474,A,5545.259,N,03745.435,E,019.4,078.5,080622,000.0,W*79
$GPRMC,114214.474,A,5545.261,N,03745.444,E,019.4,078.5,080622,000.0,W*73
$GPRMC,114215.474,A,5545.263,N,03745.453,E,019.4,078.5,080622,000.0,W*76
$GPRMC,114216.474,A,5545.264,N,03745.462,E,019.4,078.5,080622,000.0,W*70
$GPRMC,114217.474,A,5545.266,N,03745.471,E,019.4,078.5,080622,000.0,W*71
$GPRMC,114218.474,A,5545.268,N,03745.480,E,019.4,078.5,080622,000.0,W*7E
$GPRMC,114219.474,A,5545.270,N,03745.489,E,019.4,078.5,080622,000.0,W*7F
$GPRMC,114220.474,A,5545.272,N,03745.498,E,019.4,078.5,080622,000.0,W*77
$GPRMC,114221.474,A,5545.274,N,03745.507,E,019.4,078.5,080622,000.0,W*77
$GPRMC,114222.474,A,5545.275,N,03745.516,E,019.4,078.5,080622,000.0,W*75
$GPRMC,114223.474,A,5545.277,N,03745.525,E,019.4,078.5,080622,000.0,W*76
$GPRMC,114224.474,A,5545.279,N,03745.534,E,019.4,078.5,080622,000.0,W*7F
$GPRMC,114225.474,A,5545.281,N,03745.543,E,019.4,078.5,080622,000.0,W*79
$GPRMC,114226.474,A,5545.283,N,03745.552,E,019.4,149.2,080622,000.0,W*7C
$GPRMC,114227.474,A,5545.278,N,03745.555,E,019.4,149.2,080622,000.0,W*7E
$GPRMC,114228.474,A,5545.273,N,03745.558,E,019.4,149.2,080622,000.0,W*77
$GPRMC,114229.474,A,5545.267,N,03745.561,E,019.4,149.2,080622,000.0,W*79
$GPRMC,114230.474,A,5545.262,N,03745.564,E,019.4,149.2,080622,000.0,W*71
$GPRMC,114231.474,A,5545.257,N,03745.567,E,019.4,149.2,080622,000.0,W*75
$GPRMC,114232.474,A,5545.252,N,03745.570,E,019.4,149.2,080622,000.0,W*75
$GPRMC,114233.474,A,5545.247,N,03745.574,E,019.4,149.2,080622,000.0,W*74
$GPRMC,114234.474,A,5545.242,N,03745.577,E,019.4,149.2,080622,000.0,W*75
$GPRMC,114235.474,A,5545.237,N,03745.580,E,019.4,149.2,080622,000.0,W*7E
$GPRMC,114236.474,A,5545.232,N,03745.583,E,019.4,149.2,080622,000.0,W*7B
$GPRMC,114237.474,A,5545.226,N,03745.586,E,019.4,149.2,080622,000.0,W*7A
$GPRMC,114238.474,A,5545.221,N,03745.589,E,019.4,149.2,080622,000.0,W*7D
$GPRMC,114239.474,A,5545.216,N,03745.592,E,019.4,149.2,080622,000.0,W*72
$GPRMC,114240.474,A,5545.211,N,03745.595,E,019.4,149.2,080622,000.0,W*7C
$GPRMC,114241.474,A,5545.206,N,03745.598,E,019.4,149.2,080622,000.0,W*76
$GPRMC,114242.474,A,5545.201,N,03745.601,E,019.4,149.2,080622,000.0,W*71
$GPRMC,114243.474,A,5545.196,N,03745.604,E,019.4,149.2,080622,000.0,W*78
$GPRMC,114244.474,A,5545.191,N,03745.607,E,019.4,149.2,080622,000.0,W*7B
$GPRMC,114245.474,A,5545.186,N,03745.610,E,019.4,149.2,080622,000.0,W*7A
$GPRMC,114246.474,A,5545.180,N,03745.613,E,019.4,149.2,080622,000.0,W*7C
$GPRMC,114247.474,A,5545.175,N,03745.616,E,019.4,149.2,080622,000.0,W*72
$GPRMC,114248.474,A,5545.170,N,03745.620,E,019.4,149.2,080622,000.0,W*7D
$GPRMC,114249.474,A,5545.165,N,03745.623,E,019.4,149.2,080622,000.0,W*7B
$GPRMC,114250.474,A,5545.160,N,03745.626,E,019.4,257.5,080622,000.0,W*78
$GPRMC,114251.474,A,5545.158,N,03745.617,E,019.4,257.5,080622,000.0,W*70
$GPRMC,114252.474,A,5545.156,N,03745.608,E,019.4,257.5,080622,000.0,W*73
$GPRMC,114253.474,A,5545.154,N,03745.599,E,019.4,257.5,080622,000.0,W*7B
$GPRMC,114254.474,A,5545.152,N,03745.590,E,019.4,257.5,080622,000.0,W*73
$GPRMC,114255.474,A,5545.150,N,03745.581,E,019.4,257.5,080622,000.0,W*70
$GPRMC,114256.474,A,5545.148,N,03745.572,E,019.4,257.5,080622,000.0,W*76
$GPRMC,114257.474,A,5545.146,N,03745.563,E,019.4,257.5,080622,000.0,W*79
$GPRMC,114258.474,A,5545.144,N,03745.554,E,019.4,257.5,080622,000.0,W*70
$GPRMC,114259.474,A,5545.142,N,03745.545,E,019.4,257.5,080622,000.0,W*77
$GPRMC,114300.474,A,5545.140,N,03745.536,E,019.4,257.5,080622,000.0,W*7C
$GPRMC,114301.474,A,5545.138,N,03745.528,E,019.4,257.5,080622,000.0,W*7D
$GPRMC,114302.474,A,5545.136,N,03745.519,E,019.4,257.5,080622,000.0,W*72
$GPRMC,114303.474,A,5545.134,N,03745.510,E,019.4,257.5,080622,000.0,W*78
$GPRMC,114304.474,A,5545.132,N,03745.501,E,019.4,257.5,080622,000.0,W*79
$GPRMC,114305.474,A,5545.130,N,03745.492,E,019.4,257.5,080622,000.0,W*71
