$GPGGA,160718.572,5545.130,N,03745.534,E,1,12,1.0,0.0,M,0.0,M,,*63
$GPGSA,A,3,01,02,03,04,05,06,07,08,09,10,11,12,1.0,1.0,1.0*30
$GPRMC,160718.572,A,5545.130,N,03745.534,E,001.9,076.7,310522,000.0,W*7E
$GPGGA,160719.572,5545.130,N,03745.535,E,1,12,1.0,0.0,M,0.0,M,,*63
$GPGSA,A,3,01,02,03,04,05,06,07,08,09,10,11,12,1.0,1.0,1.0*30
$GPRMC,160719.572,A,5545.130,N,03745.535,E,001.9,076.7,310522,000.0,W*7E
$GPGGA,160720.572,5545.130,N,03745.535,E,1,12,1.0,0.0,M,0.0,M,,*69
$GPGSA,A,3,01,02,03,04,05,06,07,08,09,10,11,12,1.0,1.0,1.0*30
$GPRMC,160720.572,A,5545.130,N,03745.535,E,001.9,076.7,310522,000.0,W*74
$GPGGA,160721.572,5545.130,N,03745.536,E,1,12,1.0,0.0,M,0.0,M,,*6B
$GPGSA,A,3,01,02,03,04,05,06,07,08,09,10,11,12,1.0,1.0,1.0*30
$GPRMC,160721.572,A,5545.130,N,03745.536,E,001.9,076.7,310522,000.0,W*76
$GPGGA,160722.572,5545.131,N,03745.537,E,1,12,1.0,0.0,M,0.0,M,,*68
$GPGSA,A,3,01,02,03,04,05,06,07,08,09,10,11,12,1.0,1.0,1.0*30
$GPRMC,160722.572,A,5545.131,N,03745.537,E,001.9,076.7,310522,000.0,W*75
$GPGGA,160723.572,5545.131,N,03745.538,E,1,12,1.0,0.0,M,0.0,M,,*66
$GPGSA,A,3,01,02,03,04,05,06,07,08,09,10,11,12,1.0,1.0,1.0*30
$GPRMC,160723.572,A,5545.131,N,03745.538,E,001.9,076.7,310522,000.0,W*7B
$GPGGA,160724.572,5545.131,N,03745.539,E,1,12,1.0,0.0,M,0.0,M,,*60
$GPGSA,A,3,01,02,03,04,05,06,07,08,09,10,11,12,1.0,1.0,1.0*30
$GPRMC,160724.572,A,5545.131,N,03745.539,E,001.9,076.7,310522,000.0,W*7D
$GPGGA,160725.572,5545.131,N,03745.540,E,1,12,1.0,0.0,M,0.0,M,,*6F
$GPGSA,A,3,01,02,03,04,05,06,07,08,09,10,11,12,1.0,1.0,1.0*30
$GPRMC,160725.572,A,5545.131,N,03745.540,E,001.9,076.7,310522,000.0,W*72
$GPGGA,160726.572,5545.131,N,03745.541,E,1,12,1.0,0.0,M,0.0,M,,*6D
$GPGSA,A,3,01,02,03,04,05,06,07,08,09,10,11,12,1.0,1.0,1.0*30
$GPRMC,160726.572,A,5545.131,N,03745.541,E,001.9,076.7,310522,000.0,W*70
$GPGGA,160727.572,5545.132,N,03745.542,E,1,12,1.0,0.0,M,0.0,M,,*6C
$GPGSA,A,3,01,02,03,04,05,06,07,08,09,10,11,12,1.0,1.0,1.0*30
$GPRMC,160727.572,A,5545.132,N,03745.542,E,001.9,076.7,310522,000.0,W*71
$GPGGA,160728.572,5545.132,N,03745.542,E,1,12,1.0,0.0,M,0.0,M,,*63
$GPGSA,A,3,01,02,03,04,05,06,07,08,09,10,11,12,1.0,1.0,1.0*30
$GPRMC,160728.572,A,5545.132,N,03745.542,E,001.9,076.7,310522,000.0,W*7E
$GPGGA,160729.572,5545.132,N,03745.543,E,1,12,1.0,0.0,M,0.0,M,,*63
$GPGSA,A,3,01,02,03,04,05,06,07,08,09,10,11,12,1.0,1.0,1.0*30
$GPRMC,160729.572,A,5545.132,N,03745.543,E,001.9,076.7,310522,000.0,W*7E
$GPGGA,160730.572,5545.132,N,03745.544,E,1,12,1.0,0.0,M,0.0,M,,*6C
$GPGSA,A,3,01,02,03,04,05,06,07,08,09,10,11,12,1.0,1.0,1.0*30
$GPRMC,160730.572,A,5545.132,N,03745.544,E,001.9,076.7,310522,000.0,W*71
$GPGGA,160731.572,5545.133,N,03745.545,E,1,12,1.0,0.0,M,0.0,M,,*6D
$GPGSA,A,3,01,02,03,04,05,06,07,08,09,10,11,12,1.0,1.0,1.0*30
$GPRMC,160731.572,A,5545.133,N,03745.545,E,001.9,076.7,310522,000.0,W*70
$GPGGA,160732.572,5545.133,N,03745.546,E,1,12,1.0,0.0,M,0.0,M,,*6D
$GPGSA,A,3,01,02,03,04,05,06,07,08,09,10,11,12,1.0,1.0,1.0*30
$GPRMC,160732.572,A,5545.133,N,03745.546,E,001.9,076.7,310522,000.0,W*70
$GPGGA,160733.572,5545.133,N,03745.547,E,1,12,1.0,0.0,M,0.0,M,,*6D
$GPGSA,A,3,01,02,03,04,05,06,07,08,09,10,11,12,1.0,1.0,1.0*30
$GPRMC,160733.572,A,5545.133,N,03745.547,E,001.9,076.7,310522,000.0,W*70
$GPGGA,160734.572,5545.133,N,03745.548,E,1,12,1.0,0.0,M,0.0,M,,*65
$GPGSA,A,3,01,02,03,04,05,06,07,08,09,10,11,12,1.0,1.0,1.0*30
$GPRMC,160734.572,A,5545.133,N,03745.548,E,001.9,076.7,310522,000.0,W*78
$GPGGA,160735.572,5545.133,N,03745.549,E,1,12,1.0,0.0,M,0.0,M,,*65
$GPGSA,A,3,01,02,03,04,05,06,07,08,09,10,11,12,1.0,1.0,1.0*30
$GPRMC,160735.572,A,5545.133,N,03745.549,E,001.9,076.7,310522,000.0,W*78
$GPGGA,160736.572,5545.134,N,03745.550,E,1,12,1.0,0.0,M,0.0,M,,*69
$GPGSA,A,3,01,02,03,04,05,06,07,08,09,10,11,12,1.0,1.0,1.0*30
$GPRMC,160736.572,A,5545.134,N,03745.550,E,001.9,076.7,310522,000.0,W*74
$GPGGA,160737.572,5545.134,N,03745.550,E,1,12,1.0,0.0,M,0.0,M,,*68
$GPGSA,A,3,01,02,03,04,05,06,07,08,09,10,11,12,1.0,1.0,1.0*30
$GPRMC,160737.572,A,5545.134,N,03745.550,E,001.9,076.7,310522,000.0,W*75
$GPGGA,160738.572,5545.134,N,03745.551,E,1,12,1.0,0.0,M,0.0,M,,*66
$GPGSA,A,3,01,02,03,04,05,06,07,08,09,10,11,12,1.0,1.0,1.0*30
$GPRMC,160738.572,A,5545.134,N,03745.551,E,001.9,076.7,310522,000.0,W*7B
$GPGGA,160739.572,5545.134,N,03745.552,E,1,12,1.0,0.0,M,0.0,M,,*64
$GPGSA,A,3,01,02,03,04,05,06,07,08,09,10,11,12,1.0,1.0,1.0*30
$GPRMC,160739.572,A,5545.134,N,03745.552,E,001.9,076.7,310522,000.0,W*79
$GPGGA,160740.572,5545.134,N,03745.553,E,1,12,1.0,0.0,M,0.0,M,,*6B
$GPGSA,A,3,01,02,03,04,05,06,07,08,09,10,11,12,1.0,1.0,1.0*30
$GPRMC,160740.572,A,5545.134,N,03745.553,E,001.9,076.7,310522,000.0,W*76
$GPGGA,160741.572,5545.135,N,03745.554,E,1,12,1.0,0.0,M,0.0,M,,*6C
$GPGSA,A,3,01,02,03,04,05,06,07,08,09,10,11,12,1.0,1.0,1.0*30
$GPRMC,160741.572,A,5545.135,N,03745.554,E,001.9,076.7,310522,000.0,W*71
$GPGGA,160742.572,5545.135,N,03745.555,E,1,12,1.0,0.0,M,0.0,M,,*6E
$GPGSA,A,3,01,02,03,04,05,06,07,08,09,10,11,12,1.0,1.0,1.0*30
$GPRMC,160742.572,A,5545.135,N,03745.555,E,001.9,076.7,310522,000.0,W*73
$GPGGA,160743.572,5545.135,N,03745.556,E,1,12,1.0,0.0,M,0.0,M,,*6C
$GPGSA,A,3,01,02,03,04,05,06,07,08,09,10,11,12,1.0,1.0,1.0*30
$GPRMC,160743.572,A,5545.135,N,03745.556,E,001.9,076.7,310522,000.0,W*71
$GPGGA,160744.572,5545.135,N,03745.557,E,1,12,1.0,0.0,M,0.0,M,,*6A
$GPGSA,A,3,01,02,03,04,05,06,07,08,09,10,11,12,1.0,1.0,1.0*30
$GPRMC,160744.572,A,5545.135,N,03745.557,E,001.9,076.7,310522,000.0,W*77
$GPGGA,160745.572,5545.135,N,03745.558,E,1,12,1.0,0.0,M,0.0,M,,*64
$GPGSA,A,3,01,02,03,04,05,06,07,08,09,10,11,12,1.0,1.0,1.0*30
$GPRMC,160745.572,A,5545.135,N,03745.558,E,001.9,076.7,310522,000.0,W*79
$GPGGA,160746.572,5545.136,N,03745.558,E,1,12,1.0,0.0,M,0.0,M,,*64
$GPGSA,A,3,01,02,03,04,05,06,07,08,09,10,11,12,1.0,1.0,1.0*30
$GPRMC,160746.572,A,5545.136,N,03745.558,E,001.9,076.7,310522,000.0,W*79
$GPGGA,160747.572,5545.136,N,03745.559,E,1,12,1.0,0.0,M,0.0,M,,*64
$GPGSA,A,3,01,02,03,04,05,06,07,08,09,10,11,12,1.0,1.0,1.0*30
$GPRMC,160747.572,A,5545.136,N,03745.559,E,001.9,076.7,310522,000.0,W*79
$GPGGA,160748.572,5545.136,N,03745.560,E,1,12,1.0,0.0,M,0.0,M,,*61
$GPGSA,A,3,01,02,03,04,05,06,07,08,09,10,11,12,1.0,1.0,1.0*30
$GPRMC,160748.572,A,5545.136,N,03745.560,E,001.9,076.7,310522,000.0,W*7C
$GPGGA,160749.572,5545.136,N,03745.561,E,1,12,1.0,0.0,M,0.0,M,,*61
$GPGSA,A,3,01,02,03,04,05,06,07,08,09,10,11,12,1.0,1.0,1.0*30
$GPRMC,160749.572,A,5545.136,N,03745.561,E,001.9,076.7,310522,000.0,W*7C
$GPGGA,160750.572,5545.136,N,03745.562,E,1,12,1.0,0.0,M,0.0,M,,*6A
$GPGSA,A,3,01,02,03,04,05,06,07,08,09,10,11,12,1.0,1.0,1.0*30
$GPRMC,160750.572,A,5545.136,N,03745.562,E,001.9,076.7,310522,000.0,W*77
$GPGGA,160751.572,5545.137,N,03745.563,E,1,12,1.0,0.0,M,0.0,M,,*6B
$GPGSA,A,3,01,02,03,04,05,06,07,08,09,10,11,12,1.0,1.0,1.0*30
$GPRMC,160751.572,A,5545.137,N,03745.563,E,001.9,076.7,310522,000.0,W*76
$GPGGA,160752.572,5545.137,N,03745.564,E,1,12,1.0,0.0,M,0.0,M,,*6F
$GPGSA,A,3,01,02,03,04,05,06,07,08,09,10,11,12,1.0,1.0,1.0*30
$GPRMC,160752.572,A,5545.137,N,03745.564,E,001.9,076.7,310522,000.0,W*72
$GPGGA,160753.572,5545.137,N,03745.565,E,1,12,1.0,0.0,M,0.0,M,,*6F
$GPGSA,A,3,01,02,03,04,05,06,07,08,09,10,11,12,1.0,1.0,1.0*30
$GPRMC,160753.572,A,5545.137,N,03745.565,E,001.9,076.7,310522,000.0,W*72
$GPGGA,160754.572,5545.137,N,03745.565,E,1,12,1.0,0.0,M,0.0,M,,*68
$GPGSA,A,3,01,02,03,04,05,06,07,08,09,10,11,12,1.0,1.0,1.0*30
$GPRMC,160754.572,A,5545.137,N,03745.565,E,001.9,076.7,310522,000.0,W*75
$GPGGA,160755.572,5545.137,N,03745.566,E,1,12,1.0,0.0,M,0.0,M,,*6A
$GPGSA,A,3,01,02,03,04,05,06,07,08,09,10,11,12,1.0,1.0,1.0*30
$GPRMC,160755.572,A,5545.137,N,03745.566,E,001.9,076.7,310522,000.0,W*77
$GPGGA,160756.572,5545.138,N,03745.567,E,1,12,1.0,0.0,M,0.0,M,,*67
$GPGSA,A,3,01,02,03,04,05,06,07,08,09,10,11,12,1.0,1.0,1.0*30
$GPRMC,160756.572,A,5545.138,N,03745.567,E,001.9,076.7,310522,000.0,W*7A
$GPGGA,160757.572,5545.138,N,03745.568,E,1,12,1.0,0.0,M,0.0,M,,*69
$GPGSA,A,3,01,02,03,04,05,06,07,08,09,10,11,12,1.0,1.0,1.0*30
$GPRMC,160757.572,A,5545.138,N,03745.568,E,001.9,076.7,310522,000.0,W*74
$GPGGA,160758.572,5545.138,N,03745.569,E,1,12,1.0,0.0,M,0.0,M,,*67
$GPGSA,A,3,01,02,03,04,05,06,07,08,09,10,11,12,1.0,1.0,1.0*30
$GPRMC,160758.572,A,5545.138,N,03745.569,E,001.9,076.7,310522,000.0,W*7A
$GPGGA,160759.572,5545.138,N,03745.570,E,1,12,1.0,0.0,M,0.0,M,,*6E
$GPGSA,A,3,01,02,03,04,05,06,07,08,09,10,11,12,1.0,1.0,1.0*30
$GPRMC,160759.572,A,5545.138,N,03745.570,E,001.9,076.7,310522,000.0,W*73
$GPGGA,160800.572,5545.139,N,03745.571,E,1,12,1.0,0.0,M,0.0,M,,*6D
$GPGSA,A,3,01,02,03,04,05,06,07,08,09,10,11,12,1.0,1.0,1.0*30
$GPRMC,160800.572,A,5545.139,N,03745.571,E,001.9,076.7,310522,000.0,W*70
$GPGGA,160801.572,5545.139,N,03745.572,E,1,12,1.0,0.0,M,0.0,M,,*6F
$GPGSA,A,3,01,02,03,04,05,06,07,08,09,10,11,12,1.0,1.0,1.0*30
$GPRMC,160801.572,A,5545.139,N,03745.572,E,001.9,076.7,310522,000.0,W*72
$GPGGA,160802.572,5545.139,N,03745.573,E,1,12,1.0,0.0,M,0.0,M,,*6D
$GPGSA,A,3,01,02,03,04,05,06,07,08,09,10,11,12,1.0,1.0,1.0*30
$GPRMC,160802.572,A,5545.139,N,03745.573,E,001.9,076.7,310522,000.0,W*70
$GPGGA,160803.572,5545.139,N,03745.573,E,1,12,1.0,0.0,M,0.0,M,,*6C
$GPGSA,A,3,01,02,03,04,05,06,07,08,09,10,11,12,1.0,1.0,1.0*30
$GPRMC,160803.572,A,5545.139,N,03745.573,E,001.9,076.7,310522,000.0,W*71
$GPGGA,160804.572,5545.139,N,03745.574,E,1,12,1.0,0.0,M,0.0,M,,*6C
$GPGSA,A,3,01,02,03,04,05,06,07,08,09,10,11,12,1.0,1.0,1.0*30
$GPRMC,160804.572,A,5545.139,N,03745.574,E,001.9,076.7,310522,000.0,W*71
$GPGGA,160805.572,5545.140,N,03745.575,E,1,12,1.0,0.0,M,0.0,M,,*62
$GPGSA,A,3,01,02,03,04,05,06,07,08,09,10,11,12,1.0,1.0,1.0*30
$GPRMC,160805.572,A,5545.140,N,03745.575,E,001.9,076.7,310522,000.0,W*7F
$GPGGA,160806.572,5545.140,N,03745.576,E,1,12,1.0,0.0,M,0.0,M,,*62
$GPGSA,A,3,01,02,03,04,05,06,07,08,09,10,11,12,1.0,1.0,1.0*30
$GPRMC,160806.572,A,5545.140,N,03745.576,E,001.9,076.7,310522,000.0,W*7F
$GPGGA,160807.572,5545.140,N,03745.577,E,1,12,1.0,0.0,M,0.0,M,,*62
$GPGSA,A,3,01,02,03,04,05,06,07,08,09,10,11,12,1.0,1.0,1.0*30
$GPRMC,160807.572,A,5545.140,N,03745.577,E,001.9,076.7,310522,000.0,W*7F
$GPGGA,160808.572,5545.140,N,03745.578,E,1,12,1.0,0.0,M,0.0,M,,*62
$GPGSA,A,3,01,02,03,04,05,06,07,08,09,10,11,12,1.0,1.0,1.0*30
$GPRMC,160808.572,A,5545.140,N,03745.578,E,001.9,076.7,310522,000.0,W*7F
$GPGGA,160809.572,5545.140,N,03745.579,E,1,12,1.0,0.0,M,0.0,M,,*62
$GPGSA,A,3,01,02,03,04,05,06,07,08,09,10,11,12,1.0,1.0,1.0*30
$GPRMC,160809.572,A,5545.140,N,03745.579,E,001.9,076.7,310522,000.0,W*7F
$GPGGA,160810.572,5545.141,N,03745.580,E,1,12,1.0,0.0,M,0.0,M,,*6D
$GPGSA,A,3,01,02,03,04,05,06,07,08,09,10,11,12,1.0,1.0,1.0*30
$GPRMC,160810.572,A,5545.141,N,03745.580,E,001.9,076.7,310522,000.0,W*70
$GPGGA,160811.572,5545.141,N,03745.581,E,1,12,1.0,0.0,M,0.0,M,,*6D
$GPGSA,A,3,01,02,03,04,05,06,07,08,09,10,11,12,1.0,1.0,1.0*30
$GPRMC,160811.572,A,5545.141,N,03745.581,E,001.9,076.7,310522,000.0,W*70
$GPGGA,160812.572,5545.141,N,03745.581,E,1,12,1.0,0.0,M,0.0,M,,*6E
$GPGSA,A,3,01,02,03,04,05,06,07,08,09,10,11,12,1.0,1.0,1.0*30
$GPRMC,160812.572,A,5545.141,N,03745.581,E,001.9,076.7,310522,000.0,W*73
$GPGGA,160813.572,5545.141,N,03745.582,E,1,12,1.0,0.0,M,0.0,M,,*6C
$GPGSA,A,3,01,02,03,04,05,06,07,08,09,10,11,12,1.0,1.0,1.0*30
$GPRMC,160813.572,A,5545.141,N,03745.582,E,001.9,076.7,310522,000.0,W*71
$GPGGA,160814.572,5545.141,N,03745.583,E,1,12,1.0,0.0,M,0.0,M,,*6A
$GPGSA,A,3,01,02,03,04,05,06,07,08,09,10,11,12,1.0,1.0,1.0*30
$GPRMC,160814.572,A,5545.141,N,03745.583,E,001.9,076.7,310522,000.0,W*77
$GPGGA,160815.572,5545.142,N,03745.584,E,1,12,1.0,0.0,M,0.0,M,,*6F
$GPGSA,A,3,01,02,03,04,05,06,07,08,09,10,11,12,1.0,1.0,1.0*30
$GPRMC,160815.572,A,5545.142,N,03745.584,E,001.9,076.7,310522,000.0,W*72
$GPGGA,160816.572,5545.142,N,03745.585,E,1,12,1.0,0.0,M,0.0,M,,*6D
$GPGSA,A,3,01,02,03,04,05,06,07,08,09,10,11,12,1.0,1.0,1.0*30
$GPRMC,160816.572,A,5545.142,N,03745.585,E,001.9,076.7,310522,000.0,W*70
$GPGGA,160817.572,5545.142,N,03745.586,E,1,12,1.0,0.0,M,0.0,M,,*6F
$GPGSA,A,3,01,02,03,04,05,06,07,08,09,10,11,12,1.0,1.0,1.0*30
$GPRMC,160817.572,A,5545.142,N,03745.586,E,001.9,076.7,310522,000.0,W*72
$GPGGA,160818.572,5545.142,N,03745.587,E,1,12,1.0,0.0,M,0.0,M,,*61
$GPGSA,A,3,01,02,03,04,05,06,07,08,09,10,11,12,1.0,1.0,1.0*30
$GPRMC,160818.572,A,5545.142,N,03745.587,E,001.9,076.7,310522,000.0,W*7C
$GPGGA,160819.572,5545.142,N,03745.588,E,1,12,1.0,0.0,M,0.0,M,,*6F
$GPGSA,A,3,01,02,03,04,05,06,07,08,09,10,11,12,1.0,1.0,1.0*30
$GPRMC,160819.572,A,5545.142,N,03745.588,E,001.9,076.7,310522,000.0,W*72
$GPGGA,160820.572,5545.143,N,03745.588,E,1,12,1.0,0.0,M,0.0,M,,*64
$GPGSA,A,3,01,02,03,04,05,06,07,08,09,10,11,12,1.0,1.0,1.0*30
$GPRMC,160820.572,A,5545.143,N,03745.588,E,001.9,076.7,310522,000.0,W*79
$GPGGA,160821.572,5545.143,N,03745.589,E,1,12,1.0,0.0,M,0.0,M,,*64
$GPGSA,A,3,01,02,03,04,05,06,07,08,09,10,11,12,1.0,1.0,1.0*30
$GPRMC,160821.572,A,5545.143,N,03745.589,E,001.9,076.7,310522,000.0,W*79
$GPGGA,160822.572,5545.143,N,03745.590,E,1,12,1.0,0.0,M,0.0,M,,*6F
$GPGSA,A,3,01,02,03,04,05,06,07,08,09,10,11,12,1.0,1.0,1.0*30
$GPRMC,160822.572,A,5545.143,N,03745.590,E,001.9,076.7,310522,000.0,W*72
$GPGGA,160823.572,5545.143,N,03745.591,E,1,12,1.0,0.0,M,0.0,M,,*6F
$GPGSA,A,3,01,02,03,04,05,06,07,08,09,10,11,12,1.0,1.0,1.0*30
$GPRMC,160823.572,A,5545.143,N,03745.591,E,001.9,076.7,310522,000.0,W*72
$GPGGA,160824.572,5545.144,N,03745.592,E,1,12,1.0,0.0,M,0.0,M,,*6C
$GPGSA,A,3,01,02,03,04,05,06,07,08,09,10,11,12,1.0,1.0,1.0*30
$GPRMC,160824.572,A,5545.144,N,03745.592,E,001.9,076.7,310522,000.0,W*71
$GPGGA,160825.572,5545.144,N,03745.593,E,1,12,1.0,0.0,M,0.0,M,,*6C
$GPGSA,A,3,01,02,03,04,05,06,07,08,09,10,11,12,1.0,1.0,1.0*30
$GPRMC,160825.572,A,5545.144,N,03745.593,E,001.9,076.7,310522,000.0,W*71
$GPGGA,160826.572,5545.144,N,03745.594,E,1,12,1.0,0.0,M,0.0,M,,*68
$GPGSA,A,3,01,02,03,04,05,06,07,08,09,10,11,12,1.0,1.0,1.0*30
$GPRMC,160826.572,A,5545.144,N,03745.594,E,001.9,076.7,310522,000.0,W*75
$GPGGA,160827.572,5545.144,N,03745.595,E,1,12,1.0,0.0,M,0.0,M,,*68
$GPGSA,A,3,01,02,03,04,05,06,07,08,09,10,11,12,1.0,1.0,1.0*30
$GPRMC,160827.572,A,5545.144,N,03745.595,E,001.9,076.7,310522,000.0,W*75
$GPGGA,160828.572,5545.144,N,03745.596,E,1,12,1.0,0.0,M,0.0,M,,*64
$GPGSA,A,3,01,02,03,04,05,06,07,08,09,10,11,12,1.0,1.0,1.0*30
$GPRMC,160828.572,A,5545.144,N,03745.596,E,001.9,076.7,310522,000.0,W*79
$GPGGA,160829.572,5545.145,N,03745.596,E,1,12,1.0,0.0,M,0.0,M,,*64
$GPGSA,A,3,01,02,03,04,05,06,07,08,09,10,11,12,1.0,1.0,1.0*30
$GPRMC,160829.572,A,5545.145,N,03745.596,E,001.9,076.7,310522,000.0,W*79
$GPGGA,160830.572,5545.145,N,03745.597,E,1,12,1.0,0.0,M,0.0,M,,*6D
$GPGSA,A,3,01,02,03,04,05,06,07,08,09,10,11,12,1.0,1.0,1.0*30
$GPRMC,160830.572,A,5545.145,N,03745.597,E,001.9,076.7,310522,000.0,W*70
$GPGGA,160831.572,5545.145,N,03745.598,E,1,12,1.0,0.0,M,0.0,M,,*63
$GPGSA,A,3,01,02,03,04,05,06,07,08,09,10,11,12,1.0,1.0,1.0*30
$GPRMC,160831.572,A,5545.145,N,03745.598,E,001.9,076.7,310522,000.0,W*7E
$GPGGA,160832.572,5545.145,N,03745.599,E,1,12,1.0,0.0,M,0.0,M,,*61
$GPGSA,A,3,01,02,03,04,05,06,07,08,09,10,11,12,1.0,1.0,1.0*30
$GPRMC,160832.572,A,5545.145,N,03745.599,E,001.9,076.7,310522,000.0,W*7C
$GPGGA,160833.572,5545.145,N,03745.600,E,1,12,1.0,0.0,M,0.0,M,,*63
$GPGSA,A,3,01,02,03,04,05,06,07,08,09,10,11,12,1.0,1.0,1.0*30
$GPRMC,160833.572,A,5545.145,N,03745.600,E,001.9,076.7,310522,000.0,W*7E
$GPGGA,160834.572,5545.146,N,03745.601,E,1,12,1.0,0.0,M,0.0,M,,*66
$GPGSA,A,3,01,02,03,04,05,06,07,08,09,10,11,12,1.0,1.0,1.0*30
$GPRMC,160834.572,A,5545.146,N,03745.601,E,001.9,076.7,310522,000.0,W*7B
$GPGGA,160835.572,5545.146,N,03745.602,E,1,12,1.0,0.0,M,0.0,M,,*64
$GPGSA,A,3,01,02,03,04,05,06,07,08,09,10,11,12,1.0,1.0,1.0*30
$GPRMC,160835.572,A,5545.146,N,03745.602,E,001.9,076.7,310522,000.0,W*79
$GPGGA,160836.572,5545.146,N,03745.603,E,1,12,1.0,0.0,M,0.0,M,,*66
$GPGSA,A,3,01,02,03,04,05,06,07,08,09,10,11,12,1.0,1.0,1.0*30
$GPRMC,160836.572,A,5545.146,N,03745.603,E,001.9,076.7,310522,000.0,W*7B
$GPGGA,160837.572,5545.146,N,03745.604,E,1,12,1.0,0.0,M,0.0,M,,*60
$GPGSA,A,3,01,02,03,04,05,06,07,08,09,10,11,12,1.0,1.0,1.0*30
$GPRMC,160837.572,A,5545.146,N,03745.604,E,001.9,076.7,310522,000.0,W*7D
$GPGGA,160838.572,5545.146,N,03745.604,E,1,12,1.0,0.0,M,0.0,M,,*6F
$GPGSA,A,3,01,02,03,04,05,06,07,08,09,10,11,12,1.0,1.0,1.0*30
$GPRMC,160838.572,A,5545.146,N,03745.604,E,001.9,076.7,310522,000.0,W*72
$GPGGA,160839.572,5545.147,N,03745.605,E,1,12,1.0,0.0,M,0.0,M,,*6E
$GPGSA,A,3,01,02,03,04,05,06,07,08,09,10,11,12,1.0,1.0,1.0*30
$GPRMC,160839.572,A,5545.147,N,03745.605,E,001.9,076.7,310522,000.0,W*73
$GPGGA,160840.572,5545.147,N,03745.606,E,1,12,1.0,0.0,M,0.0,M,,*63
$GPGSA,A,3,01,02,03,04,05,06,07,08,09,10,11,12,1.0,1.0,1.0*30
$GPRMC,160840.572,A,5545.147,N,03745.606,E,001.9,076.7,310522,000.0,W*7E
$GPGGA,160841.572,5545.147,N,03745.607,E,1,12,1.0,0.0,M,0.0,M,,*63
$GPGSA,A,3,01,02,03,04,05,06,07,08,09,10,11,12,1.0,1.0,1.0*30
$GPRMC,160841.572,A,5545.147,N,03745.607,E,001.9,076.7,310522,000.0,W*7E
$GPGGA,160842.572,5545.147,N,03745.608,E,1,12,1.0,0.0,M,0.0,M,,*6F
$GPGSA,A,3,01,02,03,04,05,06,07,08,09,10,11,12,1.0,1.0,1.0*30
$GPRMC,160842.572,A,5545.147,N,03745.608,E,001.9,076.7,310522,000.0,W*72
$GPGGA,160843.572,5545.147,N,03745.609,E,1,12,1.0,0.0,M,0.0,M,,*6F
$GPGSA,A,3,01,02,03,04,05,06,07,08,09,10,11,12,1.0,1.0,1.0*30
$GPRMC,160843.572,A,5545.147,N,03745.609,E,001.9,076.7,310522,000.0,W*72
$GPGGA,160844.572,5545.148,N,03745.610,E,1,12,1.0,0.0,M,0.0,M,,*6F
$GPGSA,A,3,01,02,03,04,05,06,07,08,09,10,11,12,1.0,1.0,1.0*30
$GPRMC,160844.572,A,5545.148,N,03745.610,E,001.9,076.7,310522,000.0,W*72
$GPGGA,160845.572,5545.148,N,03745.611,E,1,12,1.0,0.0,M,0.0,M,,*6F
$GPGSA,A,3,01,02,03,04,05,06,07,08,09,10,11,12,1.0,1.0,1.0*30
$GPRMC,160845.572,A,5545.148,N,03745.611,E,001.9,076.7,310522,000.0,W*72
$GPGGA,160846.572,5545.148,N,03745.611,E,1,12,1.0,0.0,M,0.0,M,,*6C
$GPGSA,A,3,01,02,03,04,05,06,07,08,09,10,11,12,1.0,1.0,1.0*30
$GPRMC,160846.572,A,5545.148,N,03745.611,E,001.9,076.7,310522,000.0,W*71
$GPGGA,160847.572,5545.148,N,03745.612,E,1,12,1.0,0.0,M,0.0,M,,*6E
$GPGSA,A,3,01,02,03,04,05,06,07,08,09,10,11,12,1.0,1.0,1.0*30
$GPRMC,160847.572,A,5545.148,N,03745.612,E,001.9,076.7,310522,000.0,W*73
$GPGGA,160848.572,5545.149,N,03745.613,E,1,12,1.0,0.0,M,0.0,M,,*61
$GPGSA,A,3,01,02,03,04,05,06,07,08,09,10,11,12,1.0,1.0,1.0*30
$GPRMC,160848.572,A,5545.149,N,03745.613,E,001.9,076.7,310522,000.0,W*7C
$GPGGA,160849.572,5545.149,N,03745.614,E,1,12,1.0,0.0,M,0.0,M,,*67
$GPGSA,A,3,01,02,03,04,05,06,07,08,09,10,11,12,1.0,1.0,1.0*30
$GPRMC,160849.572,A,5545.149,N,03745.614,E,001.9,076.7,310522,000.0,W*7A
$GPGGA,160850.572,5545.149,N,03745.615,E,1,12,1.0,0.0,M,0.0,M,,*6E
$GPGSA,A,3,01,02,03,04,05,06,07,08,09,10,11,12,1.0,1.0,1.0*30
$GPRMC,160850.572,A,5545.149,N,03745.615,E,001.9,076.7,310522,000.0,W*73
$GPGGA,160851.572,5545.149,N,03745.616,E,1,12,1.0,0.0,M,0.0,M,,*6C
$GPGSA,A,3,01,02,03,04,05,06,07,08,09,10,11,12,1.0,1.0,1.0*30
$GPRMC,160851.572,A,5545.149,N,03745.616,E,001.9,076.7,310522,000.0,W*71
$GPGGA,160852.572,5545.149,N,03745.617,E,1,12,1.0,0.0,M,0.0,M,,*6E
$GPGSA,A,3,01,02,03,04,05,06,07,08,09,10,11,12,1.0,1.0,1.0*30
$GPRMC,160852.572,A,5545.149,N,03745.617,E,001.9,076.7,310522,000.0,W*73
$GPGGA,160853.572,5545.150,N,03745.618,E,1,12,1.0,0.0,M,0.0,M,,*68
$GPGSA,A,3,01,02,03,04,05,06,07,08,09,10,11,12,1.0,1.0,1.0*30
$GPRMC,160853.572,A,5545.150,N,03745.618,E,001.9,076.7,310522,000.0,W*75
$GPGGA,160854.572,5545.150,N,03745.619,E,1,12,1.0,0.0,M,0.0,M,,*6E
$GPGSA,A,3,01,02,03,04,05,06,07,08,09,10,11,12,1.0,1.0,1.0*30
$GPRMC,160854.572,A,5545.150,N,03745.619,E,001.9,076.7,310522,000.0,W*73
$GPGGA,160855.572,5545.150,N,03745.619,E,1,12,1.0,0.0,M,0.0,M,,*6F
$GPGSA,A,3,01,02,03,04,05,06,07,08,09,10,11,12,1.0,1.0,1.0*30
$GPRMC,160855.572,A,5545.150,N,03745.619,E,001.9,076.7,310522,000.0,W*72
$GPGGA,160856.572,5545.150,N,03745.620,E,1,12,1.0,0.0,M,0.0,M,,*66
$GPGSA,A,3,01,02,03,04,05,06,07,08,09,10,11,12,1.0,1.0,1.0*30
$GPRMC,160856.572,A,5545.150,N,03745.620,E,001.9,076.7,310522,000.0,W*7B
$GPGGA,160857.572,5545.150,N,03745.621,E,1,12,1.0,0.0,M,0.0,M,,*66
$GPGSA,A,3,01,02,03,04,05,06,07,08,09,10,11,12,1.0,1.0,1.0*30
$GPRMC,160857.572,A,5545.150,N,03745.621,E,001.9,076.7,310522,000.0,W*7B
$GPGGA,160858.572,5545.151,N,03745.622,E,1,12,1.0,0.0,M,0.0,M,,*6B
$GPGSA,A,3,01,02,03,04,05,06,07,08,09,10,11,12,1.0,1.0,1.0*30
$GPRMC,160858.572,A,5545.151,N,03745.622,E,001.9,076.7,310522,000.0,W*76
$GPGGA,160859.572,5545.151,N,03745.623,E,1,12,1.0,0.0,M,0.0,M,,*6B
$GPGSA,A,3,01,02,03,04,05,06,07,08,09,10,11,12,1.0,1.0,1.0*30
$GPRMC,160859.572,A,5545.151,N,03745.623,E,001.9,076.7,310522,000.0,W*76
$GPGGA,160900.572,5545.151,N,03745.624,E,1,12,1.0,0.0,M,0.0,M,,*61
$GPGSA,A,3,01,02,03,04,05,06,07,08,09,10,11,12,1.0,1.0,1.0*30
$GPRMC,160900.572,A,5545.151,N,03745.624,E,001.9,076.7,310522,000.0,W*7C
$GPGGA,160901.572,5545.151,N,03745.625,E,1,12,1.0,0.0,M,0.0,M,,*61
$GPGSA,A,3,01,02,03,04,05,06,07,08,09,10,11,12,1.0,1.0,1.0*30
$GPRMC,160901.572,A,5545.151,N,03745.625,E,001.9,076.7,310522,000.0,W*7C
$GPGGA,160902.572,5545.151,N,03745.626,E,1,12,1.0,0.0,M,0.0,M,,*61
$GPGSA,A,3,01,02,03,04,05,06,07,08,09,10,11,12,1.0,1.0,1.0*30
$GPRMC,160902.572,A,5545.151,N,03745.626,E,001.9,076.7,310522,000.0,W*7C
$GPGGA,160903.572,5545.152,N,03745.627,E,1,12,1.0,0.0,M,0.0,M,,*62
$GPGSA,A,3,01,02,03,04,05,06,07,08,09,10,11,12,1.0,1.0,1.0*30
$GPRMC,160903.572,A,5545.152,N,03745.627,E,001.9,076.7,310522,000.0,W*7F
$GPGGA,160904.572,5545.152,N,03745.627,E,1,12,1.0,0.0,M,0.0,M,,*65
$GPGSA,A,3,01,02,03,04,05,06,07,08,09,10,11,12,1.0,1.0,1.0*30
$GPRMC,160904.572,A,5545.152,N,03745.627,E,001.9,076.7,310522,000.0,W*78
$GPGGA,160905.572,5545.152,N,03745.628,E,1,12,1.0,0.0,M,0.0,M,,*6B
$GPGSA,A,3,01,02,03,04,05,06,07,08,09,10,11,12,1.0,1.0,1.0*30
$GPRMC,160905.572,A,5545.152,N,03745.628,E,001.9,076.7,310522,000.0,W*76
$GPGGA,160906.572,5545.152,N,03745.629,E,1,12,1.0,0.0,M,0.0,M,,*69
$GPGSA,A,3,01,02,03,04,05,06,07,08,09,10,11,12,1.0,1.0,1.0*30
$GPRMC,160906.572,A,5545.152,N,03745.629,E,001.9,076.7,310522,000.0,W*74
$GPGGA,160907.572,5545.152,N,03745.630,E,1,12,1.0,0.0,M,0.0,M,,*60
$GPGSA,A,3,01,02,03,04,05,06,07,08,09,10,11,12,1.0,1.0,1.0*30
$GPRMC,160907.572,A,5545.152,N,03745.630,E,001.9,076.7,310522,000.0,W*7D
$GPGGA,160908.572,5545.153,N,03745.631,E,1,12,1.0,0.0,M,0.0,M,,*6F
$GPGSA,A,3,01,02,03,04,05,06,07,08,09,10,11,12,1.0,1.0,1.0*30
$GPRMC,160908.572,A,5545.153,N,03745.631,E,001.9,076.7,310522,000.0,W*72
$GPGGA,160909.572,5545.153,N,03745.632,E,1,12,1.0,0.0,M,0.0,M,,*6D
$GPGSA,A,3,01,02,03,04,05,06,07,08,09,10,11,12,1.0,1.0,1.0*30
$GPRMC,160909.572,A,5545.153,N,03745.632,E,001.9,076.7,310522,000.0,W*70
$GPGGA,160910.572,5545.153,N,03745.633,E,1,12,1.0,0.0,M,0.0,M,,*64
$GPGSA,A,3,01,02,03,04,05,06,07,08,09,10,11,12,1.0,1.0,1.0*30
$GPRMC,160910.572,A,5545.153,N,03745.633,E,001.9,076.7,310522,000.0,W*79
$GPGGA,160911.572,5545.153,N,03745.634,E,1,12,1.0,0.0,M,0.0,M,,*62
$GPGSA,A,3,01,02,03,04,05,06,07,08,09,10,11,12,1.0,1.0,1.0*30
$GPRMC,160911.572,A,5545.153,N,03745.634,E,001.9,076.7,310522,000.0,W*7F
$GPGGA,160912.572,5545.154,N,03745.634,E,1,12,1.0,0.0,M,0.0,M,,*66
$GPGSA,A,3,01,02,03,04,05,06,07,08,09,10,11,12,1.0,1.0,1.0*30
$GPRMC,160912.572,A,5545.154,N,03745.634,E,001.9,146.4,310522,000.0,W*7A
$GPGGA,160913.572,5545.153,N,03745.635,E,1,12,1.0,0.0,M,0.0,M,,*61
$GPGSA,A,3,01,02,03,04,05,06,07,08,09,10,11,12,1.0,1.0,1.0*30
$GPRMC,160913.572,A,5545.153,N,03745.635,E,001.9,146.4,310522,000.0,W*7D
$GPGGA,160914.572,5545.153,N,03745.635,E,1,12,1.0,0.0,M,0.0,M,,*66
$GPGSA,A,3,01,02,03,04,05,06,07,08,09,10,11,12,1.0,1.0,1.0*30
$GPRMC,160914.572,A,5545.153,N,03745.635,E,001.9,146.4,310522,000.0,W*7A
$GPGGA,160915.572,5545.152,N,03745.636,E,1,12,1.0,0.0,M,0.0,M,,*65
$GPGSA,A,3,01,02,03,04,05,06,07,08,09,10,11,12,1.0,1.0,1.0*30
$GPRMC,160915.572,A,5545.152,N,03745.636,E,001.9,146.4,310522,000.0,W*79
$GPGGA,160916.572,5545.151,N,03745.636,E,1,12,1.0,0.0,M,0.0,M,,*65
$GPGSA,A,3,01,02,03,04,05,06,07,08,09,10,11,12,1.0,1.0,1.0*30
$GPRMC,160916.572,A,5545.151,N,03745.636,E,001.9,146.4,310522,000.0,W*79
$GPGGA,160917.572,5545.151,N,03745.636,E,1,12,1.0,0.0,M,0.0,M,,*64
$GPGSA,A,3,01,02,03,04,05,06,07,08,09,10,11,12,1.0,1.0,1.0*30
$GPRMC,160917.572,A,5545.151,N,03745.636,E,001.9,146.4,310522,000.0,W*78
$GPGGA,160918.572,5545.150,N,03745.637,E,1,12,1.0,0.0,M,0.0,M,,*6B
$GPGSA,A,3,01,02,03,04,05,06,07,08,09,10,11,12,1.0,1.0,1.0*30
$GPRMC,160918.572,A,5545.150,N,03745.637,E,001.9,146.4,310522,000.0,W*77
$GPGGA,160919.572,5545.150,N,03745.637,E,1,12,1.0,0.0,M,0.0,M,,*6A
$GPGSA,A,3,01,02,03,04,05,06,07,08,09,10,11,12,1.0,1.0,1.0*30
$GPRMC,160919.572,A,5545.150,N,03745.637,E,001.9,146.4,310522,000.0,W*76
$GPGGA,160920.572,5545.149,N,03745.637,E,1,12,1.0,0.0,M,0.0,M,,*68
$GPGSA,A,3,01,02,03,04,05,06,07,08,09,10,11,12,1.0,1.0,1.0*30
$GPRMC,160920.572,A,5545.149,N,03745.637,E,001.9,146.4,310522,000.0,W*74
$GPGGA,160921.572,5545.149,N,03745.638,E,1,12,1.0,0.0,M,0.0,M,,*66
$GPGSA,A,3,01,02,03,04,05,06,07,08,09,10,11,12,1.0,1.0,1.0*30
$GPRMC,160921.572,A,5545.149,N,03745.638,E,001.9,146.4,310522,000.0,W*7A
$GPGGA,160922.572,5545.148,N,03745.638,E,1,12,1.0,0.0,M,0.0,M,,*64
$GPGSA,A,3,01,02,03,04,05,06,07,08,09,10,11,12,1.0,1.0,1.0*30
$GPRMC,160922.572,A,5545.148,N,03745.638,E,001.9,146.4,310522,000.0,W*78
$GPGGA,160923.572,5545.148,N,03745.638,E,1,12,1.0,0.0,M,0.0,M,,*65
$GPGSA,A,3,01,02,03,04,05,06,07,08,09,10,11,12,1.0,1.0,1.0*30
$GPRMC,160923.572,A,5545.148,N,03745.638,E,001.9,146.4,310522,000.0,W*79
$GPGGA,160924.572,5545.147,N,03745.639,E,1,12,1.0,0.0,M,0.0,M,,*6C
$GPGSA,A,3,01,02,03,04,05,06,07,08,09,10,11,12,1.0,1.0,1.0*30
$GPRMC,160924.572,A,5545.147,N,03745.639,E,001.9,146.4,310522,000.0,W*70
$GPGGA,160925.572,5545.147,N,03745.639,E,1,12,1.0,0.0,M,0.0,M,,*6D
$GPGSA,A,3,01,02,03,04,05,06,07,08,09,10,11,12,1.0,1.0,1.0*30
$GPRMC,160925.572,A,5545.147,N,03745.639,E,001.9,146.4,310522,000.0,W*71
$GPGGA,160926.572,5545.146,N,03745.639,E,1,12,1.0,0.0,M,0.0,M,,*6F
$GPGSA,A,3,01,02,03,04,05,06,07,08,09,10,11,12,1.0,1.0,1.0*30
$GPRMC,160926.572,A,5545.146,N,03745.639,E,001.9,146.4,310522,000.0,W*73
$GPGGA,160927.572,5545.146,N,03745.640,E,1,12,1.0,0.0,M,0.0,M,,*60
$GPGSA,A,3,01,02,03,04,05,06,07,08,09,10,11,12,1.0,1.0,1.0*30
$GPRMC,160927.572,A,5545.146,N,03745.640,E,001.9,146.4,310522,000.0,W*7C
$GPGGA,160928.572,5545.145,N,03745.640,E,1,12,1.0,0.0,M,0.0,M,,*6C
$GPGSA,A,3,01,02,03,04,05,06,07,08,09,10,11,12,1.0,1.0,1.0*30
$GPRMC,160928.572,A,5545.145,N,03745.640,E,001.9,146.4,310522,000.0,W*70
$GPGGA,160929.572,5545.145,N,03745.640,E,1,12,1.0,0.0,M,0.0,M,,*6D
$GPGSA,A,3,01,02,03,04,05,06,07,08,09,10,11,12,1.0,1.0,1.0*30
$GPRMC,160929.572,A,5545.145,N,03745.640,E,001.9,146.4,310522,000.0,W*71
$GPGGA,160930.572,5545.144,N,03745.641,E,1,12,1.0,0.0,M,0.0,M,,*65
$GPGSA,A,3,01,02,03,04,05,06,07,08,09,10,11,12,1.0,1.0,1.0*30
$GPRMC,160930.572,A,5545.144,N,03745.641,E,001.9,146.4,310522,000.0,W*79
$GPGGA,160931.572,5545.144,N,03745.641,E,1,12,1.0,0.0,M,0.0,M,,*64
$GPGSA,A,3,01,02,03,04,05,06,07,08,09,10,11,12,1.0,1.0,1.0*30
$GPRMC,160931.572,A,5545.144,N,03745.641,E,001.9,146.4,310522,000.0,W*78
$GPGGA,160932.572,5545.143,N,03745.641,E,1,12,1.0,0.0,M,0.0,M,,*60
$GPGSA,A,3,01,02,03,04,05,06,07,08,09,10,11,12,1.0,1.0,1.0*30
$GPRMC,160932.572,A,5545.143,N,03745.641,E,001.9,146.4,310522,000.0,W*7C
$GPGGA,160933.572,5545.143,N,03745.642,E,1,12,1.0,0.0,M,0.0,M,,*62
$GPGSA,A,3,01,02,03,04,05,06,07,08,09,10,11,12,1.0,1.0,1.0*30
$GPRMC,160933.572,A,5545.143,N,03745.642,E,001.9,146.4,310522,000.0,W*7E
$GPGGA,160934.572,5545.142,N,03745.642,E,1,12,1.0,0.0,M,0.0,M,,*64
$GPGSA,A,3,01,02,03,04,05,06,07,08,09,10,11,12,1.0,1.0,1.0*30
$GPRMC,160934.572,A,5545.142,N,03745.642,E,001.9,146.4,310522,000.0,W*78
$GPGGA,160935.572,5545.142,N,03745.642,E,1,12,1.0,0.0,M,0.0,M,,*65
$GPGSA,A,3,01,02,03,04,05,06,07,08,09,10,11,12,1.0,1.0,1.0*30
$GPRMC,160935.572,A,5545.142,N,03745.642,E,001.9,146.4,310522,000.0,W*79
$GPGGA,160936.572,5545.141,N,03745.643,E,1,12,1.0,0.0,M,0.0,M,,*64
$GPGSA,A,3,01,02,03,04,05,06,07,08,09,10,11,12,1.0,1.0,1.0*30
$GPRMC,160936.572,A,5545.141,N,03745.643,E,001.9,146.4,310522,000.0,W*78
$GPGGA,160937.572,5545.141,N,03745.643,E,1,12,1.0,0.0,M,0.0,M,,*65
$GPGSA,A,3,01,02,03,04,05,06,07,08,09,10,11,12,1.0,1.0,1.0*30
$GPRMC,160937.572,A,5545.141,N,03745.643,E,001.9,146.4,310522,000.0,W*79
$GPGGA,160938.572,5545.140,N,03745.643,E,1,12,1.0,0.0,M,0.0,M,,*6B
$GPGSA,A,3,01,02,03,04,05,06,07,08,09,10,11,12,1.0,1.0,1.0*30
$GPRMC,160938.572,A,5545.140,N,03745.643,E,001.9,146.4,310522,000.0,W*77
$GPGGA,160939.572,5545.140,N,03745.644,E,1,12,1.0,0.0,M,0.0,M,,*6D
$GPGSA,A,3,01,02,03,04,05,06,07,08,09,10,11,12,1.0,1.0,1.0*30
$GPRMC,160939.572,A,5545.140,N,03745.644,E,001.9,146.4,310522,000.0,W*71
$GPGGA,160940.572,5545.139,N,03745.644,E,1,12,1.0,0.0,M,0.0,M,,*6D
$GPGSA,A,3,01,02,03,04,05,06,07,08,09,10,11,12,1.0,1.0,1.0*30
$GPRMC,160940.572,A,5545.139,N,03745.644,E,001.9,146.4,310522,000.0,W*71
$GPGGA,160941.572,5545.139,N,03745.644,E,1,12,1.0,0.0,M,0.0,M,,*6C
$GPGSA,A,3,01,02,03,04,05,06,07,08,09,10,11,12,1.0,1.0,1.0*30
$GPRMC,160941.572,A,5545.139,N,03745.644,E,001.9,146.4,310522,000.0,W*70
$GPGGA,160942.572,5545.138,N,03745.645,E,1,12,1.0,0.0,M,0.0,M,,*6F
$GPGSA,A,3,01,02,03,04,05,06,07,08,09,10,11,12,1.0,1.0,1.0*30
$GPRMC,160942.572,A,5545.138,N,03745.645,E,001.9,146.4,310522,000.0,W*73
$GPGGA,160943.572,5545.138,N,03745.645,E,1,12,1.0,0.0,M,0.0,M,,*6E
$GPGSA,A,3,01,02,03,04,05,06,07,08,09,10,11,12,1.0,1.0,1.0*30
$GPRMC,160943.572,A,5545.138,N,03745.645,E,001.9,146.4,310522,000.0,W*72
$GPGGA,160944.572,5545.137,N,03745.645,E,1,12,1.0,0.0,M,0.0,M,,*66
$GPGSA,A,3,01,02,03,04,05,06,07,08,09,10,11,12,1.0,1.0,1.0*30
$GPRMC,160944.572,A,5545.137,N,03745.645,E,001.9,146.4,310522,000.0,W*7A
$GPGGA,160945.572,5545.137,N,03745.646,E,1,12,1.0,0.0,M,0.0,M,,*64
$GPGSA,A,3,01,02,03,04,05,06,07,08,09,10,11,12,1.0,1.0,1.0*30
$GPRMC,160945.572,A,5545.137,N,03745.646,E,001.9,146.4,310522,000.0,W*78
$GPGGA,160946.572,5545.136,N,03745.646,E,1,12,1.0,0.0,M,0.0,M,,*66
$GPGSA,A,3,01,02,03,04,05,06,07,08,09,10,11,12,1.0,1.0,1.0*30
$GPRMC,160946.572,A,5545.136,N,03745.646,E,001.9,146.4,310522,000.0,W*7A
$GPGGA,160947.572,5545.136,N,03745.646,E,1,12,1.0,0.0,M,0.0,M,,*67
$GPGSA,A,3,01,02,03,04,05,06,07,08,09,10,11,12,1.0,1.0,1.0*30
$GPRMC,160947.572,A,5545.136,N,03745.646,E,001.9,146.4,310522,000.0,W*7B
$GPGGA,160948.572,5545.135,N,03745.647,E,1,12,1.0,0.0,M,0.0,M,,*6A
$GPGSA,A,3,01,02,03,04,05,06,07,08,09,10,11,12,1.0,1.0,1.0*30
$GPRMC,160948.572,A,5545.135,N,03745.647,E,001.9,146.4,310522,000.0,W*76
$GPGGA,160949.572,5545.135,N,03745.647,E,1,12,1.0,0.0,M,0.0,M,,*6B
$GPGSA,A,3,01,02,03,04,05,06,07,08,09,10,11,12,1.0,1.0,1.0*30
$GPRMC,160949.572,A,5545.135,N,03745.647,E,001.9,146.4,310522,000.0,W*77
$GPGGA,160950.572,5545.134,N,03745.647,E,1,12,1.0,0.0,M,0.0,M,,*62
$GPGSA,A,3,01,02,03,04,05,06,07,08,09,10,11,12,1.0,1.0,1.0*30
$GPRMC,160950.572,A,5545.134,N,03745.647,E,001.9,146.4,310522,000.0,W*7E
$GPGGA,160951.572,5545.134,N,03745.648,E,1,12,1.0,0.0,M,0.0,M,,*6C
$GPGSA,A,3,01,02,03,04,05,06,07,08,09,10,11,12,1.0,1.0,1.0*30
$GPRMC,160951.572,A,5545.134,N,03745.648,E,001.9,146.4,310522,000.0,W*70
$GPGGA,160952.572,5545.133,N,03745.648,E,1,12,1.0,0.0,M,0.0,M,,*68
$GPGSA,A,3,01,02,03,04,05,06,07,08,09,10,11,12,1.0,1.0,1.0*30
$GPRMC,160952.572,A,5545.133,N,03745.648,E,001.9,146.4,310522,000.0,W*74
$GPGGA,160953.572,5545.133,N,03745.648,E,1,12,1.0,0.0,M,0.0,M,,*69
$GPGSA,A,3,01,02,03,04,05,06,07,08,09,10,11,12,1.0,1.0,1.0*30
$GPRMC,160953.572,A,5545.133,N,03745.648,E,001.9,146.4,310522,000.0,W*75
$GPGGA,160954.572,5545.132,N,03745.649,E,1,12,1.0,0.0,M,0.0,M,,*6E
$GPGSA,A,3,01,02,03,04,05,06,07,08,09,10,11,12,1.0,1.0,1.0*30
$GPRMC,160954.572,A,5545.132,N,03745.649,E,001.9,146.4,310522,000.0,W*72
$GPGGA,160955.572,5545.132,N,03745.649,E,1,12,1.0,0.0,M,0.0,M,,*6F
$GPGSA,A,3,01,02,03,04,05,06,07,08,09,10,11,12,1.0,1.0,1.0*30
$GPRMC,160955.572,A,5545.132,N,03745.649,E,001.9,146.4,310522,000.0,W*73
$GPGGA,160956.572,5545.131,N,03745.649,E,1,12,1.0,0.0,M,0.0,M,,*6F
$GPGSA,A,3,01,02,03,04,05,06,07,08,09,10,11,12,1.0,1.0,1.0*30
$GPRMC,160956.572,A,5545.131,N,03745.649,E,001.9,146.4,310522,000.0,W*73
$GPGGA,160957.572,5545.131,N,03745.650,E,1,12,1.0,0.0,M,0.0,M,,*66
$GPGSA,A,3,01,02,03,04,05,06,07,08,09,10,11,12,1.0,1.0,1.0*30
$GPRMC,160957.572,A,5545.131,N,03745.650,E,001.9,146.4,310522,000.0,W*7A
$GPGGA,160958.572,5545.130,N,03745.650,E,1,12,1.0,0.0,M,0.0,M,,*68
$GPGSA,A,3,01,02,03,04,05,06,07,08,09,10,11,12,1.0,1.0,1.0*30
$GPRMC,160958.572,A,5545.130,N,03745.650,E,001.9,146.4,310522,000.0,W*74
$GPGGA,160959.572,5545.130,N,03745.650,E,1,12,1.0,0.0,M,0.0,M,,*69
$GPGSA,A,3,01,02,03,04,05,06,07,08,09,10,11,12,1.0,1.0,1.0*30
$GPRMC,160959.572,A,5545.130,N,03745.650,E,001.9,146.4,310522,000.0,W*75
$GPGGA,161000.572,5545.129,N,03745.651,E,1,12,1.0,0.0,M,0.0,M,,*64
$GPGSA,A,3,01,02,03,04,05,06,07,08,09,10,11,12,1.0,1.0,1.0*30
$GPRMC,161000.572,A,5545.129,N,03745.651,E,001.9,146.4,310522,000.0,W*78
$GPGGA,161001.572,5545.129,N,03745.651,E,1,12,1.0,0.0,M,0.0,M,,*65
$GPGSA,A,3,01,02,03,04,05,06,07,08,09,10,11,12,1.0,1.0,1.0*30
$GPRMC,161001.572,A,5545.129,N,03745.651,E,001.9,146.4,310522,000.0,W*79
$GPGGA,161002.572,5545.128,N,03745.651,E,1,12,1.0,0.0,M,0.0,M,,*67
$GPGSA,A,3,01,02,03,04,05,06,07,08,09,10,11,12,1.0,1.0,1.0*30
$GPRMC,161002.572,A,5545.128,N,03745.651,E,001.9,146.4,310522,000.0,W*7B
$GPGGA,161003.572,5545.128,N,03745.652,E,1,12,1.0,0.0,M,0.0,M,,*65
$GPGSA,A,3,01,02,03,04,05,06,07,08,09,10,11,12,1.0,1.0,1.0*30
$GPRMC,161003.572,A,5545.128,N,03745.652,E,001.9,146.4,310522,000.0,W*79
$GPGGA,161004.572,5545.127,N,03745.652,E,1,12,1.0,0.0,M,0.0,M,,*6D
$GPGSA,A,3,01,02,03,04,05,06,07,08,09,10,11,12,1.0,1.0,1.0*30
$GPRMC,161004.572,A,5545.127,N,03745.652,E,001.9,146.4,310522,000.0,W*71
$GPGGA,161005.572,5545.127,N,03745.652,E,1,12,1.0,0.0,M,0.0,M,,*6C
$GPGSA,A,3,01,02,03,04,05,06,07,08,09,10,11,12,1.0,1.0,1.0*30
$GPRMC,161005.572,A,5545.127,N,03745.652,E,001.9,146.4,310522,000.0,W*70
$GPGGA,161006.572,5545.126,N,03745.653,E,1,12,1.0,0.0,M,0.0,M,,*6F
$GPGSA,A,3,01,02,03,04,05,06,07,08,09,10,11,12,1.0,1.0,1.0*30
$GPRMC,161006.572,A,5545.126,N,03745.653,E,001.9,146.4,310522,000.0,W*73
$GPGGA,161007.572,5545.126,N,03745.653,E,1,12,1.0,0.0,M,0.0,M,,*6E
$GPGSA,A,3,01,02,03,04,05,06,07,08,09,10,11,12,1.0,1.0,1.0*30
$GPRMC,161007.572,A,5545.126,N,03745.653,E,001.9,146.4,310522,000.0,W*72
$GPGGA,161008.572,5545.125,N,03745.653,E,1,12,1.0,0.0,M,0.0,M,,*62
$GPGSA,A,3,01,02,03,04,05,06,07,08,09,10,11,12,1.0,1.0,1.0*30
$GPRMC,161008.572,A,5545.125,N,03745.653,E,001.9,146.4,310522,000.0,W*7E
$GPGGA,161009.572,5545.125,N,03745.654,E,1,12,1.0,0.0,M,0.0,M,,*64
$GPGSA,A,3,01,02,03,04,05,06,07,08,09,10,11,12,1.0,1.0,1.0*30
$GPRMC,161009.572,A,5545.125,N,03745.654,E,001.9,146.4,310522,000.0,W*78
$GPGGA,161010.572,5545.124,N,03745.654,E,1,12,1.0,0.0,M,0.0,M,,*6D
$GPGSA,A,3,01,02,03,04,05,06,07,08,09,10,11,12,1.0,1.0,1.0*30
$GPRMC,161010.572,A,5545.124,N,03745.654,E,001.9,146.4,310522,000.0,W*71
$GPGGA,161011.572,5545.124,N,03745.654,E,1,12,1.0,0.0,M,0.0,M,,*6C
$GPGSA,A,3,01,02,03,04,05,06,07,08,09,10,11,12,1.0,1.0,1.0*30
$GPRMC,161011.572,A,5545.124,N,03745.654,E,001.9,146.4,310522,000.0,W*70
$GPGGA,161012.572,5545.123,N,03745.655,E,1,12,1.0,0.0,M,0.0,M,,*69
$GPGSA,A,3,01,02,03,04,05,06,07,08,09,10,11,12,1.0,1.0,1.0*30
$GPRMC,161012.572,A,5545.123,N,03745.655,E,001.9,146.4,310522,000.0,W*75
$GPGGA,161013.572,5545.123,N,03745.655,E,1,12,1.0,0.0,M,0.0,M,,*68
$GPGSA,A,3,01,02,03,04,05,06,07,08,09,10,11,12,1.0,1.0,1.0*30
$GPRMC,161013.572,A,5545.123,N,03745.655,E,001.9,146.4,310522,000.0,W*74
$GPGGA,161014.572,5545.122,N,03745.655,E,1,12,1.0,0.0,M,0.0,M,,*6E
$GPGSA,A,3,01,02,03,04,05,06,07,08,09,10,11,12,1.0,1.0,1.0*30
$GPRMC,161014.572,A,5545.122,N,03745.655,E,001.9,146.4,310522,000.0,W*72
$GPGGA,161015.572,5545.122,N,03745.656,E,1,12,1.0,0.0,M,0.0,M,,*6C
$GPGSA,A,3,01,02,03,04,05,06,07,08,09,10,11,12,1.0,1.0,1.0*30
$GPRMC,161015.572,A,5545.122,N,03745.656,E,001.9,146.4,310522,000.0,W*70
$GPGGA,161016.572,5545.121,N,03745.656,E,1,12,1.0,0.0,M,0.0,M,,*6C
$GPGSA,A,3,01,02,03,04,05,06,07,08,09,10,11,12,1.0,1.0,1.0*30
$GPRMC,161016.572,A,5545.121,N,03745.656,E,001.9,146.4,310522,000.0,W*70
$GPGGA,161017.572,5545.121,N,03745.656,E,1,12,1.0,0.0,M,0.0,M,,*6D
$GPGSA,A,3,01,02,03,04,05,06,07,08,09,10,11,12,1.0,1.0,1.0*30
$GPRMC,161017.572,A,5545.121,N,03745.656,E,001.9,146.4,310522,000.0,W*71
$GPGGA,161018.572,5545.120,N,03745.657,E,1,12,1.0,0.0,M,0.0,M,,*62
$GPGSA,A,3,01,02,03,04,05,06,07,08,09,10,11,12,1.0,1.0,1.0*30
$GPRMC,161018.572,A,5545.120,N,03745.657,E,001.9,146.4,310522,000.0,W*7E
$GPGGA,161019.572,5545.120,N,03745.657,E,1,12,1.0,0.0,M,0.0,M,,*63
$GPGSA,A,3,01,02,03,04,05,06,07,08,09,10,11,12,1.0,1.0,1.0*30
$GPRMC,161019.572,A,5545.120,N,03745.657,E,001.9,146.4,310522,000.0,W*7F
$GPGGA,161020.572,5545.119,N,03745.657,E,1,12,1.0,0.0,M,0.0,M,,*63
$GPGSA,A,3,01,02,03,04,05,06,07,08,09,10,11,12,1.0,1.0,1.0*30
$GPRMC,161020.572,A,5545.119,N,03745.657,E,001.9,146.4,310522,000.0,W*7F
$GPGGA,161021.572,5545.119,N,03745.658,E,1,12,1.0,0.0,M,0.0,M,,*6D
$GPGSA,A,3,01,02,03,04,05,06,07,08,09,10,11,12,1.0,1.0,1.0*30
$GPRMC,161021.572,A,5545.119,N,03745.658,E,001.9,146.4,310522,000.0,W*71
$GPGGA,161022.572,5545.118,N,03745.658,E,1,12,1.0,0.0,M,0.0,M,,*6F
$GPGSA,A,3,01,02,03,04,05,06,07,08,09,10,11,12,1.0,1.0,1.0*30
$GPRMC,161022.572,A,5545.118,N,03745.658,E,001.9,146.4,310522,000.0,W*73
$GPGGA,161023.572,5545.118,N,03745.658,E,1,12,1.0,0.0,M,0.0,M,,*6E
$GPGSA,A,3,01,02,03,04,05,06,07,08,09,10,11,12,1.0,1.0,1.0*30
$GPRMC,161023.572,A,5545.118,N,03745.658,E,001.9,146.4,310522,000.0,W*72
$GPGGA,161024.572,5545.117,N,03745.659,E,1,12,1.0,0.0,M,0.0,M,,*67
$GPGSA,A,3,01,02,03,04,05,06,07,08,09,10,11,12,1.0,1.0,1.0*30
$GPRMC,161024.572,A,5545.117,N,03745.659,E,001.9,146.4,310522,000.0,W*7B
$GPGGA,161025.572,5545.117,N,03745.659,E,1,12,1.0,0.0,M,0.0,M,,*66
$GPGSA,A,3,01,02,03,04,05,06,07,08,09,10,11,12,1.0,1.0,1.0*30
$GPRMC,161025.572,A,5545.117,N,03745.659,E,001.9,146.4,310522,000.0,W*7A
$GPGGA,161026.572,5545.116,N,03745.659,E,1,12,1.0,0.0,M,0.0,M,,*64
$GPGSA,A,3,01,02,03,04,05,06,07,08,09,10,11,12,1.0,1.0,1.0*30
$GPRMC,161026.572,A,5545.116,N,03745.659,E,001.9,146.4,310522,000.0,W*78
$GPGGA,161027.572,5545.116,N,03745.660,E,1,12,1.0,0.0,M,0.0,M,,*6F
$GPGSA,A,3,01,02,03,04,05,06,07,08,09,10,11,12,1.0,1.0,1.0*30
$GPRMC,161027.572,A,5545.116,N,03745.660,E,001.9,146.4,310522,000.0,W*73
$GPGGA,161028.572,5545.115,N,03745.660,E,1,12,1.0,0.0,M,0.0,M,,*63
$GPGSA,A,3,01,02,03,04,05,06,07,08,09,10,11,12,1.0,1.0,1.0*30
$GPRMC,161028.572,A,5545.115,N,03745.660,E,001.9,146.4,310522,000.0,W*7F
$GPGGA,161029.572,5545.115,N,03745.660,E,1,12,1.0,0.0,M,0.0,M,,*62
$GPGSA,A,3,01,02,03,04,05,06,07,08,09,10,11,12,1.0,1.0,1.0*30
$GPRMC,161029.572,A,5545.115,N,03745.660,E,001.9,146.4,310522,000.0,W*7E
$GPGGA,161030.572,5545.114,N,03745.661,E,1,12,1.0,0.0,M,0.0,M,,*6A
$GPGSA,A,3,01,02,03,04,05,06,07,08,09,10,11,12,1.0,1.0,1.0*30
$GPRMC,161030.572,A,5545.114,N,03745.661,E,001.9,146.4,310522,000.0,W*76
$GPGGA,161031.572,5545.114,N,03745.661,E,1,12,1.0,0.0,M,0.0,M,,*6B
$GPGSA,A,3,01,02,03,04,05,06,07,08,09,10,11,12,1.0,1.0,1.0*30
$GPRMC,161031.572,A,5545.114,N,03745.661,E,001.9,146.4,310522,000.0,W*77
$GPGGA,161032.572,5545.113,N,03745.661,E,1,12,1.0,0.0,M,0.0,M,,*6F
$GPGSA,A,3,01,02,03,04,05,06,07,08,09,10,11,12,1.0,1.0,1.0*30
$GPRMC,161032.572,A,5545.113,N,03745.661,E,001.9,146.4,310522,000.0,W*73
$GPGGA,161033.572,5545.113,N,03745.662,E,1,12,1.0,0.0,M,0.0,M,,*6D
$GPGSA,A,3,01,02,03,04,05,06,07,08,09,10,11,12,1.0,1.0,1.0*30
$GPRMC,161033.572,A,5545.113,N,03745.662,E,001.9,146.4,310522,000.0,W*71
$GPGGA,161034.572,5545.112,N,03745.662,E,1,12,1.0,0.0,M,0.0,M,,*6B
$GPGSA,A,3,01,02,03,04,05,06,07,08,09,10,11,12,1.0,1.0,1.0*30
$GPRMC,161034.572,A,5545.112,N,03745.662,E,001.9,146.4,310522,000.0,W*77
$GPGGA,161035.572,5545.112,N,03745.662,E,1,12,1.0,0.0,M,0.0,M,,*6A
$GPGSA,A,3,01,02,03,04,05,06,07,08,09,10,11,12,1.0,1.0,1.0*30
$GPRMC,161035.572,A,5545.112,N,03745.662,E,001.9,146.4,310522,000.0,W*76
$GPGGA,161036.572,5545.111,N,03745.663,E,1,12,1.0,0.0,M,0.0,M,,*6B
$GPGSA,A,3,01,02,03,04,05,06,07,08,09,10,11,12,1.0,1.0,1.0*30
$GPRMC,161036.572,A,5545.111,N,03745.663,E,001.9,146.4,310522,000.0,W*77
$GPGGA,161037.572,5545.111,N,03745.663,E,1,12,1.0,0.0,M,0.0,M,,*6A
$GPGSA,A,3,01,02,03,04,05,06,07,08,09,10,11,12,1.0,1.0,1.0*30
$GPRMC,161037.572,A,5545.111,N,03745.663,E,001.9,146.4,310522,000.0,W*76
$GPGGA,161038.572,5545.110,N,03745.663,E,1,12,1.0,0.0,M,0.0,M,,*64
$GPGSA,A,3,01,02,03,04,05,06,07,08,09,10,11,12,1.0,1.0,1.0*30
$GPRMC,161038.572,A,5545.110,N,03745.663,E,001.9,146.4,310522,000.0,W*78
$GPGGA,161039.572,5545.110,N,03745.664,E,1,12,1.0,0.0,M,0.0,M,,*62
$GPGSA,A,3,01,02,03,04,05,06,07,08,09,10,11,12,1.0,1.0,1.0*30
$GPRMC,161039.572,A,5545.110,N,03745.664,E,001.9,146.4,310522,000.0,W*7E
$GPGGA,161040.572,5545.109,N,03745.664,E,1,12,1.0,0.0,M,0.0,M,,*64
$GPGSA,A,3,01,02,03,04,05,06,07,08,09,10,11,12,1.0,1.0,1.0*30
$GPRMC,161040.572,A,5545.109,N,03745.664,E,001.9,146.4,310522,000.0,W*78
$GPGGA,161041.572,5545.109,N,03745.664,E,1,12,1.0,0.0,M,0.0,M,,*65
$GPGSA,A,3,01,02,03,04,05,06,07,08,09,10,11,12,1.0,1.0,1.0*30
$GPRMC,161041.572,A,5545.109,N,03745.664,E,001.9,146.4,310522,000.0,W*79
$GPGGA,161042.572,5545.108,N,03745.665,E,1,12,1.0,0.0,M,0.0,M,,*66
$GPGSA,A,3,01,02,03,04,05,06,07,08,09,10,11,12,1.0,1.0,1.0*30
$GPRMC,161042.572,A,5545.108,N,03745.665,E,001.9,146.4,310522,000.0,W*7A
$GPGGA,161043.572,5545.108,N,03745.665,E,1,12,1.0,0.0,M,0.0,M,,*67
$GPGSA,A,3,01,02,03,04,05,06,07,08,09,10,11,12,1.0,1.0,1.0*30
$GPRMC,161043.572,A,5545.108,N,03745.665,E,001.9,146.4,310522,000.0,W*7B
$GPGGA,161044.572,5545.107,N,03745.666,E,1,12,1.0,0.0,M,0.0,M,,*6C
$GPGSA,A,3,01,02,03,04,05,06,07,08,09,10,11,12,1.0,1.0,1.0*30
$GPRMC,161044.572,A,5545.107,N,03745.666,E,001.9,146.4,310522,000.0,W*70
$GPGGA,161045.572,5545.107,N,03745.666,E,1,12,1.0,0.0,M,0.0,M,,*6D
$GPGSA,A,3,01,02,03,04,05,06,07,08,09,10,11,12,1.0,1.0,1.0*30
$GPRMC,161045.572,A,5545.107,N,03745.666,E,001.9,146.4,310522,000.0,W*71
$GPGGA,161046.572,5545.106,N,03745.666,E,1,12,1.0,0.0,M,0.0,M,,*6F
$GPGSA,A,3,01,02,03,04,05,06,07,08,09,10,11,12,1.0,1.0,1.0*30
$GPRMC,161046.572,A,5545.106,N,03745.666,E,001.9,146.4,310522,000.0,W*73
$GPGGA,161047.572,5545.106,N,03745.667,E,1,12,1.0,0.0,M,0.0,M,,*6F
$GPGSA,A,3,01,02,03,04,05,06,07,08,09,10,11,12,1.0,1.0,1.0*30
$GPRMC,161047.572,A,5545.106,N,03745.667,E,001.9,146.4,310522,000.0,W*73
$GPGGA,161048.572,5545.105,N,03745.667,E,1,12,1.0,0.0,M,0.0,M,,*63
$GPGSA,A,3,01,02,03,04,05,06,07,08,09,10,11,12,1.0,1.0,1.0*30
$GPRMC,161048.572,A,5545.105,N,03745.667,E,001.9,146.4,310522,000.0,W*7F
$GPGGA,161049.572,5545.105,N,03745.667,E,1,12,1.0,0.0,M,0.0,M,,*62
$GPGSA,A,3,01,02,03,04,05,06,07,08,09,10,11,12,1.0,1.0,1.0*30
$GPRMC,161049.572,A,5545.105,N,03745.667,E,001.9,146.4,310522,000.0,W*7E
$GPGGA,161050.572,5545.104,N,03745.668,E,1,12,1.0,0.0,M,0.0,M,,*64
$GPGSA,A,3,01,02,03,04,05,06,07,08,09,10,11,12,1.0,1.0,1.0*30
$GPRMC,161050.572,A,5545.104,N,03745.668,E,001.9,146.4,310522,000.0,W*78
$GPGGA,161051.572,5545.104,N,03745.668,E,1,12,1.0,0.0,M,0.0,M,,*65
$GPGSA,A,3,01,02,03,04,05,06,07,08,09,10,11,12,1.0,1.0,1.0*30
$GPRMC,161051.572,A,5545.104,N,03745.668,E,001.9,146.4,310522,000.0,W*79
$GPGGA,161052.572,5545.103,N,03745.668,E,1,12,1.0,0.0,M,0.0,M,,*61
$GPGSA,A,3,01,02,03,04,05,06,07,08,09,10,11,12,1.0,1.0,1.0*30
$GPRMC,161052.572,A,5545.103,N,03745.668,E,001.9,146.4,310522,000.0,W*7D
$GPGGA,161053.572,5545.102,N,03745.669,E,1,12,1.0,0.0,M,0.0,M,,*60
$GPGSA,A,3,01,02,03,04,05,06,07,08,09,10,11,12,1.0,1.0,1.0*30
$GPRMC,161053.572,A,5545.102,N,03745.669,E,001.9,146.4,310522,000.0,W*7C
$GPGGA,161054.572,5545.102,N,03745.669,E,1,12,1.0,0.0,M,0.0,M,,*67
$GPGSA,A,3,01,02,03,04,05,06,07,08,09,10,11,12,1.0,1.0,1.0*30
$GPRMC,161054.572,A,5545.102,N,03745.669,E,001.9,146.4,310522,000.0,W*7B
$GPGGA,161055.572,5545.101,N,03745.669,E,1,12,1.0,0.0,M,0.0,M,,*65
$GPGSA,A,3,01,02,03,04,05,06,07,08,09,10,11,12,1.0,1.0,1.0*30
$GPRMC,161055.572,A,5545.101,N,03745.669,E,001.9,146.4,310522,000.0,W*79
$GPGGA,161056.572,5545.101,N,03745.670,E,1,12,1.0,0.0,M,0.0,M,,*6E
$GPGSA,A,3,01,02,03,04,05,06,07,08,09,10,11,12,1.0,1.0,1.0*30
$GPRMC,161056.572,A,5545.101,N,03745.670,E,001.9,146.4,310522,000.0,W*72
$GPGGA,161057.572,5545.100,N,03745.670,E,1,12,1.0,0.0,M,0.0,M,,*6E
$GPGSA,A,3,01,02,03,04,05,06,07,08,09,10,11,12,1.0,1.0,1.0*30
$GPRMC,161057.572,A,5545.100,N,03745.670,E,001.9,146.4,310522,000.0,W*72
$GPGGA,161058.572,5545.100,N,03745.670,E,1,12,1.0,0.0,M,0.0,M,,*61
$GPGSA,A,3,01,02,03,04,05,06,07,08,09,10,11,12,1.0,1.0,1.0*30
$GPRMC,161058.572,A,5545.100,N,03745.670,E,001.9,146.4,310522,000.0,W*7D
$GPGGA,161059.572,5545.099,N,03745.671,E,1,12,1.0,0.0,M,0.0,M,,*60
$GPGSA,A,3,01,02,03,04,05,06,07,08,09,10,11,12,1.0,1.0,1.0*30
$GPRMC,161059.572,A,5545.099,N,03745.671,E,001.9,146.4,310522,000.0,W*7C
$GPGGA,161100.572,5545.099,N,03745.671,E,1,12,1.0,0.0,M,0.0,M,,*6D
$GPGSA,A,3,01,02,03,04,05,06,07,08,09,10,11,12,1.0,1.0,1.0*30
$GPRMC,161100.572,A,5545.099,N,03745.671,E,001.9,146.4,310522,000.0,W*71
$GPGGA,161101.572,5545.098,N,03745.671,E,1,12,1.0,0.0,M,0.0,M,,*6D
$GPGSA,A,3,01,02,03,04,05,06,07,08,09,10,11,12,1.0,1.0,1.0*30
$GPRMC,161101.572,A,5545.098,N,03745.671,E,001.9,146.4,310522,000.0,W*71
$GPGGA,161102.572,5545.098,N,03745.672,E,1,12,1.0,0.0,M,0.0,M,,*6D
$GPGSA,A,3,01,02,03,04,05,06,07,08,09,10,11,12,1.0,1.0,1.0*30
$GPRMC,161102.572,A,5545.098,N,03745.672,E,001.9,146.4,310522,000.0,W*71
$GPGGA,161103.572,5545.097,N,03745.672,E,1,12,1.0,0.0,M,0.0,M,,*63
$GPGSA,A,3,01,02,03,04,05,06,07,08,09,10,11,12,1.0,1.0,1.0*30
$GPRMC,161103.572,A,5545.097,N,03745.672,E,001.9,146.4,310522,000.0,W*7F
$GPGGA,161104.572,5545.097,N,03745.672,E,1,12,1.0,0.0,M,0.0,M,,*64
$GPGSA,A,3,01,02,03,04,05,06,07,08,09,10,11,12,1.0,1.0,1.0*30
$GPRMC,161104.572,A,5545.097,N,03745.672,E,001.9,146.4,310522,000.0,W*78
$GPGGA,161105.572,5545.096,N,03745.673,E,1,12,1.0,0.0,M,0.0,M,,*65
$GPGSA,A,3,01,02,03,04,05,06,07,08,09,10,11,12,1.0,1.0,1.0*30
$GPRMC,161105.572,A,5545.096,N,03745.673,E,001.9,146.4,310522,000.0,W*79
$GPGGA,161106.572,5545.096,N,03745.673,E,1,12,1.0,0.0,M,0.0,M,,*66
$GPGSA,A,3,01,02,03,04,05,06,07,08,09,10,11,12,1.0,1.0,1.0*30
$GPRMC,161106.572,A,5545.096,N,03745.673,E,001.9,146.4,310522,000.0,W*7A
$GPGGA,161107.572,5545.095,N,03745.673,E,1,12,1.0,0.0,M,0.0,M,,*64
$GPGSA,A,3,01,02,03,04,05,06,07,08,09,10,11,12,1.0,1.0,1.0*30
$GPRMC,161107.572,A,5545.095,N,03745.673,E,001.9,146.4,310522,000.0,W*78
$GPGGA,161108.572,5545.095,N,03745.674,E,1,12,1.0,0.0,M,0.0,M,,*6C
$GPGSA,A,3,01,02,03,04,05,06,07,08,09,10,11,12,1.0,1.0,1.0*30
$GPRMC,161108.572,A,5545.095,N,03745.674,E,001.9,146.4,310522,000.0,W*70
$GPGGA,161109.572,5545.094,N,03745.674,E,1,12,1.0,0.0,M,0.0,M,,*6C
$GPGSA,A,3,01,02,03,04,05,06,07,08,09,10,11,12,1.0,1.0,1.0*30
$GPRMC,161109.572,A,5545.094,N,03745.674,E,001.9,146.4,310522,000.0,W*70
$GPGGA,161110.572,5545.094,N,03745.674,E,1,12,1.0,0.0,M,0.0,M,,*64
$GPGSA,A,3,01,02,03,04,05,06,07,08,09,10,11,12,1.0,1.0,1.0*30
$GPRMC,161110.572,A,5545.094,N,03745.674,E,001.9,146.4,310522,000.0,W*78
$GPGGA,161111.572,5545.093,N,03745.675,E,1,12,1.0,0.0,M,0.0,M,,*63
$GPGSA,A,3,01,02,03,04,05,06,07,08,09,10,11,12,1.0,1.0,1.0*30
$GPRMC,161111.572,A,5545.093,N,03745.675,E,001.9,146.4,310522,000.0,W*7F
$GPGGA,161112.572,5545.093,N,03745.675,E,1,12,1.0,0.0,M,0.0,M,,*60
$GPGSA,A,3,01,02,03,04,05,06,07,08,09,10,11,12,1.0,1.0,1.0*30
$GPRMC,161112.572,A,5545.093,N,03745.675,E,001.9,146.4,310522,000.0,W*7C
$GPGGA,161113.572,5545.092,N,03745.675,E,1,12,1.0,0.0,M,0.0,M,,*60
$GPGSA,A,3,01,02,03,04,05,06,07,08,09,10,11,12,1.0,1.0,1.0*30
$GPRMC,161113.572,A,5545.092,N,03745.675,E,001.9,146.4,310522,000.0,W*7C
$GPGGA,161114.572,5545.092,N,03745.676,E,1,12,1.0,0.0,M,0.0,M,,*64
$GPGSA,A,3,01,02,03,04,05,06,07,08,09,10,11,12,1.0,1.0,1.0*30
$GPRMC,161114.572,A,5545.092,N,03745.676,E,001.9,146.4,310522,000.0,W*78
$GPGGA,161115.572,5545.091,N,03745.676,E,1,12,1.0,0.0,M,0.0,M,,*66
$GPGSA,A,3,01,02,03,04,05,06,07,08,09,10,11,12,1.0,1.0,1.0*30
$GPRMC,161115.572,A,5545.091,N,03745.676,E,001.9,146.4,310522,000.0,W*7A
$GPGGA,161116.572,5545.091,N,03745.676,E,1,12,1.0,0.0,M,0.0,M,,*65
$GPGSA,A,3,01,02,03,04,05,06,07,08,09,10,11,12,1.0,1.0,1.0*30
$GPRMC,161116.572,A,5545.091,N,03745.676,E,001.9,146.4,310522,000.0,W*79
$GPGGA,161117.572,5545.090,N,03745.677,E,1,12,1.0,0.0,M,0.0,M,,*64
$GPGSA,A,3,01,02,03,04,05,06,07,08,09,10,11,12,1.0,1.0,1.0*30
$GPRMC,161117.572,A,5545.090,N,03745.677,E,001.9,146.4,310522,000.0,W*78
$GPGGA,161118.572,5545.090,N,03745.677,E,1,12,1.0,0.0,M,0.0,M,,*6B
$GPGSA,A,3,01,02,03,04,05,06,07,08,09,10,11,12,1.0,1.0,1.0*30
$GPRMC,161118.572,A,5545.090,N,03745.677,E,001.9,146.4,310522,000.0,W*77
$GPGGA,161119.572,5545.089,N,03745.677,E,1,12,1.0,0.0,M,0.0,M,,*62
$GPGSA,A,3,01,02,03,04,05,06,07,08,09,10,11,12,1.0,1.0,1.0*30
$GPRMC,161119.572,A,5545.089,N,03745.677,E,001.9,146.4,310522,000.0,W*7E
$GPGGA,161120.572,5545.089,N,03745.678,E,1,12,1.0,0.0,M,0.0,M,,*67
$GPGSA,A,3,01,02,03,04,05,06,07,08,09,10,11,12,1.0,1.0,1.0*30
$GPRMC,161120.572,A,5545.089,N,03745.678,E,001.9,146.4,310522,000.0,W*7B
$GPGGA,161121.572,5545.088,N,03745.678,E,1,12,1.0,0.0,M,0.0,M,,*67
$GPGSA,A,3,01,02,03,04,05,06,07,08,09,10,11,12,1.0,1.0,1.0*30
$GPRMC,161121.572,A,5545.088,N,03745.678,E,001.9,146.4,310522,000.0,W*7B
$GPGGA,161122.572,5545.088,N,03745.678,E,1,12,1.0,0.0,M,0.0,M,,*64
$GPGSA,A,3,01,02,03,04,05,06,07,08,09,10,11,12,1.0,1.0,1.0*30
$GPRMC,161122.572,A,5545.088,N,03745.678,E,001.9,146.4,310522,000.0,W*78
$GPGGA,161123.572,5545.087,N,03745.679,E,1,12,1.0,0.0,M,0.0,M,,*6B
$GPGSA,A,3,01,02,03,04,05,06,07,08,09,10,11,12,1.0,1.0,1.0*30
$GPRMC,161123.572,A,5545.087,N,03745.679,E,001.9,146.4,310522,000.0,W*77
$GPGGA,161124.572,5545.087,N,03745.679,E,1,12,1.0,0.0,M,0.0,M,,*6C
$GPGSA,A,3,01,02,03,04,05,06,07,08,09,10,11,12,1.0,1.0,1.0*30
$GPRMC,161124.572,A,5545.087,N,03745.679,E,001.9,146.4,310522,000.0,W*70
$GPGGA,161125.572,5545.086,N,03745.679,E,1,12,1.0,0.0,M,0.0,M,,*6C
$GPGSA,A,3,01,02,03,04,05,06,07,08,09,10,11,12,1.0,1.0,1.0*30
$GPRMC,161125.572,A,5545.086,N,03745.679,E,001.9,146.4,310522,000.0,W*70
$GPGGA,161126.572,5545.086,N,03745.680,E,1,12,1.0,0.0,M,0.0,M,,*69
$GPGSA,A,3,01,02,03,04,05,06,07,08,09,10,11,12,1.0,1.0,1.0*30
$GPRMC,161126.572,A,5545.086,N,03745.680,E,001.9,146.4,310522,000.0,W*75
$GPGGA,161127.572,5545.085,N,03745.680,E,1,12,1.0,0.0,M,0.0,M,,*6B
$GPGSA,A,3,01,02,03,04,05,06,07,08,09,10,11,12,1.0,1.0,1.0*30
$GPRMC,161127.572,A,5545.085,N,03745.680,E,001.9,146.4,310522,000.0,W*77
$GPGGA,161128.572,5545.085,N,03745.680,E,1,12,1.0,0.0,M,0.0,M,,*64
$GPGSA,A,3,01,02,03,04,05,06,07,08,09,10,11,12,1.0,1.0,1.0*30
$GPRMC,161128.572,A,5545.085,N,03745.680,E,001.9,146.4,310522,000.0,W*78
$GPGGA,161129.572,5545.084,N,03745.681,E,1,12,1.0,0.0,M,0.0,M,,*65
$GPGSA,A,3,01,02,03,04,05,06,07,08,09,10,11,12,1.0,1.0,1.0*30
$GPRMC,161129.572,A,5545.084,N,03745.681,E,001.9,146.4,310522,000.0,W*79
$GPGGA,161130.572,5545.084,N,03745.681,E,1,12,1.0,0.0,M,0.0,M,,*6D
$GPGSA,A,3,01,02,03,04,05,06,07,08,09,10,11,12,1.0,1.0,1.0*30
$GPRMC,161130.572,A,5545.084,N,03745.681,E,001.9,146.4,310522,000.0,W*71
$GPGGA,161131.572,5545.083,N,03745.681,E,1,12,1.0,0.0,M,0.0,M,,*6B
$GPGSA,A,3,01,02,03,04,05,06,07,08,09,10,11,12,1.0,1.0,1.0*30
$GPRMC,161131.572,A,5545.083,N,03745.681,E,001.9,146.4,310522,000.0,W*77
$GPGGA,161132.572,5545.083,N,03745.682,E,1,12,1.0,0.0,M,0.0,M,,*6B
$GPGSA,A,3,01,02,03,04,05,06,07,08,09,10,11,12,1.0,1.0,1.0*30
$GPRMC,161132.572,A,5545.083,N,03745.682,E,001.9,146.4,310522,000.0,W*77
$GPGGA,161133.572,5545.082,N,03745.682,E,1,12,1.0,0.0,M,0.0,M,,*6B
$GPGSA,A,3,01,02,03,04,05,06,07,08,09,10,11,12,1.0,1.0,1.0*30
$GPRMC,161133.572,A,5545.082,N,03745.682,E,001.9,146.4,310522,000.0,W*77
$GPGGA,161134.572,5545.082,N,03745.682,E,1,12,1.0,0.0,M,0.0,M,,*6C
$GPGSA,A,3,01,02,03,04,05,06,07,08,09,10,11,12,1.0,1.0,1.0*30
$GPRMC,161134.572,A,5545.082,N,03745.682,E,001.9,146.4,310522,000.0,W*70
$GPGGA,161135.572,5545.081,N,03745.683,E,1,12,1.0,0.0,M,0.0,M,,*6F
$GPGSA,A,3,01,02,03,04,05,06,07,08,09,10,11,12,1.0,1.0,1.0*30
$GPRMC,161135.572,A,5545.081,N,03745.683,E,001.9,146.4,310522,000.0,W*73
$GPGGA,161136.572,5545.081,N,03745.683,E,1,12,1.0,0.0,M,0.0,M,,*6C
$GPGSA,A,3,01,02,03,04,05,06,07,08,09,10,11,12,1.0,1.0,1.0*30
$GPRMC,161136.572,A,5545.081,N,03745.683,E,001.9,146.4,310522,000.0,W*70
$GPGGA,161137.572,5545.080,N,03745.683,E,1,12,1.0,0.0,M,0.0,M,,*6C
$GPGSA,A,3,01,02,03,04,05,06,07,08,09,10,11,12,1.0,1.0,1.0*30
$GPRMC,161137.572,A,5545.080,N,03745.683,E,001.9,146.4,310522,000.0,W*70
$GPGGA,161138.572,5545.080,N,03745.684,E,1,12,1.0,0.0,M,0.0,M,,*64
$GPGSA,A,3,01,02,03,04,05,06,07,08,09,10,11,12,1.0,1.0,1.0*30
$GPRMC,161138.572,A,5545.080,N,03745.684,E,001.9,146.4,310522,000.0,W*78
$GPGGA,161139.572,5545.079,N,03745.684,E,1,12,1.0,0.0,M,0.0,M,,*63
$GPGSA,A,3,01,02,03,04,05,06,07,08,09,10,11,12,1.0,1.0,1.0*30
$GPRMC,161139.572,A,5545.079,N,03745.684,E,001.9,146.4,310522,000.0,W*7F
$GPGGA,161140.572,5545.079,N,03745.684,E,1,12,1.0,0.0,M,0.0,M,,*6D
$GPGSA,A,3,01,02,03,04,05,06,07,08,09,10,11,12,1.0,1.0,1.0*30
$GPRMC,161140.572,A,5545.079,N,03745.684,E,001.9,146.4,310522,000.0,W*71
$GPGGA,161141.572,5545.078,N,03745.685,E,1,12,1.0,0.0,M,0.0,M,,*6C
$GPGSA,A,3,01,02,03,04,05,06,07,08,09,10,11,12,1.0,1.0,1.0*30
$GPRMC,161141.572,A,5545.078,N,03745.685,E,001.9,146.4,310522,000.0,W*70
$GPGGA,161142.572,5545.078,N,03745.685,E,1,12,1.0,0.0,M,0.0,M,,*6F
$GPGSA,A,3,01,02,03,04,05,06,07,08,09,10,11,12,1.0,1.0,1.0*30
$GPRMC,161142.572,A,5545.078,N,03745.685,E,001.9,146.4,310522,000.0,W*73
$GPGGA,161143.572,5545.077,N,03745.685,E,1,12,1.0,0.0,M,0.0,M,,*61
$GPGSA,A,3,01,02,03,04,05,06,07,08,09,10,11,12,1.0,1.0,1.0*30
$GPRMC,161143.572,A,5545.077,N,03745.685,E,001.9,146.4,310522,000.0,W*7D
$GPGGA,161144.572,5545.077,N,03745.686,E,1,12,1.0,0.0,M,0.0,M,,*65
$GPGSA,A,3,01,02,03,04,05,06,07,08,09,10,11,12,1.0,1.0,1.0*30
$GPRMC,161144.572,A,5545.077,N,03745.686,E,001.9,146.4,310522,000.0,W*79
$GPGGA,161145.572,5545.076,N,03745.686,E,1,12,1.0,0.0,M,0.0,M,,*65
$GPGSA,A,3,01,02,03,04,05,06,07,08,09,10,11,12,1.0,1.0,1.0*30
$GPRMC,161145.572,A,5545.076,N,03745.686,E,001.9,146.4,310522,000.0,W*79
$GPGGA,161146.572,5545.076,N,03745.686,E,1,12,1.0,0.0,M,0.0,M,,*66
$GPGSA,A,3,01,02,03,04,05,06,07,08,09,10,11,12,1.0,1.0,1.0*30
$GPRMC,161146.572,A,5545.076,N,03745.686,E,001.9,146.4,310522,000.0,W*7A
$GPGGA,161147.572,5545.075,N,03745.687,E,1,12,1.0,0.0,M,0.0,M,,*65
$GPGSA,A,3,01,02,03,04,05,06,07,08,09,10,11,12,1.0,1.0,1.0*30
$GPRMC,161147.572,A,5545.075,N,03745.687,E,001.9,146.4,310522,000.0,W*79
$GPGGA,161148.572,5545.075,N,03745.687,E,1,12,1.0,0.0,M,0.0,M,,*6A
$GPGSA,A,3,01,02,03,04,05,06,07,08,09,10,11,12,1.0,1.0,1.0*30
$GPRMC,161148.572,A,5545.075,N,03745.687,E,001.9,146.4,310522,000.0,W*76
$GPGGA,161149.572,5545.074,N,03745.687,E,1,12,1.0,0.0,M,0.0,M,,*6A
$GPGSA,A,3,01,02,03,04,05,06,07,08,09,10,11,12,1.0,1.0,1.0*30
$GPRMC,161149.572,A,5545.074,N,03745.687,E,001.9,146.4,310522,000.0,W*76
$GPGGA,161150.572,5545.074,N,03745.688,E,1,12,1.0,0.0,M,0.0,M,,*6D
$GPGSA,A,3,01,02,03,04,05,06,07,08,09,10,11,12,1.0,1.0,1.0*30
$GPRMC,161150.572,A,5545.074,N,03745.688,E,001.9,146.4,310522,000.0,W*71
$GPGGA,161151.572,5545.073,N,03745.688,E,1,12,1.0,0.0,M,0.0,M,,*6B
$GPGSA,A,3,01,02,03,04,05,06,07,08,09,10,11,12,1.0,1.0,1.0*30
$GPRMC,161151.572,A,5545.073,N,03745.688,E,001.9,146.4,310522,000.0,W*77
$GPGGA,161152.572,5545.073,N,03745.688,E,1,12,1.0,0.0,M,0.0,M,,*68
$GPGSA,A,3,01,02,03,04,05,06,07,08,09,10,11,12,1.0,1.0,1.0*30
$GPRMC,161152.572,A,5545.073,N,03745.688,E,001.9,146.4,310522,000.0,W*74
$GPGGA,161153.572,5545.072,N,03745.689,E,1,12,1.0,0.0,M,0.0,M,,*69
$GPGSA,A,3,01,02,03,04,05,06,07,08,09,10,11,12,1.0,1.0,1.0*30
$GPRMC,161153.572,A,5545.072,N,03745.689,E,001.9,146.4,310522,000.0,W*75
$GPGGA,161154.572,5545.072,N,03745.689,E,1,12,1.0,0.0,M,0.0,M,,*6E
$GPGSA,A,3,01,02,03,04,05,06,07,08,09,10,11,12,1.0,1.0,1.0*30
$GPRMC,161154.572,A,5545.072,N,03745.689,E,001.9,146.4,310522,000.0,W*72
$GPGGA,161155.572,5545.071,N,03745.689,E,1,12,1.0,0.0,M,0.0,M,,*6C
$GPGSA,A,3,01,02,03,04,05,06,07,08,09,10,11,12,1.0,1.0,1.0*30
$GPRMC,161155.572,A,5545.071,N,03745.689,E,001.9,146.4,310522,000.0,W*70
$GPGGA,161156.572,5545.071,N,03745.690,E,1,12,1.0,0.0,M,0.0,M,,*67
$GPGSA,A,3,01,02,03,04,05,06,07,08,09,10,11,12,1.0,1.0,1.0*30
$GPRMC,161156.572,A,5545.071,N,03745.690,E,001.9,146.4,310522,000.0,W*7B
$GPGGA,161157.572,5545.070,N,03745.690,E,1,12,1.0,0.0,M,0.0,M,,*67
$GPGSA,A,3,01,02,03,04,05,06,07,08,09,10,11,12,1.0,1.0,1.0*30
$GPRMC,161157.572,A,5545.070,N,03745.690,E,001.9,146.4,310522,000.0,W*7B
$GPGGA,161158.572,5545.070,N,03745.690,E,1,12,1.0,0.0,M,0.0,M,,*68
$GPGSA,A,3,01,02,03,04,05,06,07,08,09,10,11,12,1.0,1.0,1.0*30
$GPRMC,161158.572,A,5545.070,N,03745.690,E,001.9,146.4,310522,000.0,W*74
$GPGGA,161159.572,5545.069,N,03745.691,E,1,12,1.0,0.0,M,0.0,M,,*60
$GPGSA,A,3,01,02,03,04,05,06,07,08,09,10,11,12,1.0,1.0,1.0*30
$GPRMC,161159.572,A,5545.069,N,03745.691,E,001.9,146.4,310522,000.0,W*7C
$GPGGA,161200.572,5545.069,N,03745.691,E,1,12,1.0,0.0,M,0.0,M,,*6F
$GPGSA,A,3,01,02,03,04,05,06,07,08,09,10,11,12,1.0,1.0,1.0*30
$GPRMC,161200.572,A,5545.069,N,03745.691,E,001.9,146.4,310522,000.0,W*73
$GPGGA,161201.572,5545.068,N,03745.691,E,1,12,1.0,0.0,M,0.0,M,,*6F
$GPGSA,A,3,01,02,03,04,05,06,07,08,09,10,11,12,1.0,1.0,1.0*30
$GPRMC,161201.572,A,5545.068,N,03745.691,E,001.9,146.4,310522,000.0,W*73
$GPGGA,161202.572,5545.068,N,03745.692,E,1,12,1.0,0.0,M,0.0,M,,*6F
$GPGSA,A,3,01,02,03,04,05,06,07,08,09,10,11,12,1.0,1.0,1.0*30
$GPRMC,161202.572,A,5545.068,N,03745.692,E,001.9,146.4,310522,000.0,W*73
$GPGGA,161203.572,5545.067,N,03745.692,E,1,12,1.0,0.0,M,0.0,M,,*61
$GPGSA,A,3,01,02,03,04,05,06,07,08,09,10,11,12,1.0,1.0,1.0*30
$GPRMC,161203.572,A,5545.067,N,03745.692,E,001.9,146.4,310522,000.0,W*7D
$GPGGA,161204.572,5545.067,N,03745.692,E,1,12,1.0,0.0,M,0.0,M,,*66
$GPGSA,A,3,01,02,03,04,05,06,07,08,09,10,11,12,1.0,1.0,1.0*30
$GPRMC,161204.572,A,5545.067,N,03745.692,E,001.9,146.4,310522,000.0,W*7A
$GPGGA,161205.572,5545.066,N,03745.693,E,1,12,1.0,0.0,M,0.0,M,,*67
$GPGSA,A,3,01,02,03,04,05,06,07,08,09,10,11,12,1.0,1.0,1.0*30
$GPRMC,161205.572,A,5545.066,N,03745.693,E,001.9,146.4,310522,000.0,W*7B
$GPGGA,161206.572,5545.066,N,03745.693,E,1,12,1.0,0.0,M,0.0,M,,*64
$GPGSA,A,3,01,02,03,04,05,06,07,08,09,10,11,12,1.0,1.0,1.0*30
$GPRMC,161206.572,A,5545.066,N,03745.693,E,001.9,146.4,310522,000.0,W*78
$GPGGA,161207.572,5545.065,N,03745.693,E,1,12,1.0,0.0,M,0.0,M,,*66
$GPGSA,A,3,01,02,03,04,05,06,07,08,09,10,11,12,1.0,1.0,1.0*30
$GPRMC,161207.572,A,5545.065,N,03745.693,E,001.9,146.4,310522,000.0,W*7A
$GPGGA,161208.572,5545.065,N,03745.694,E,1,12,1.0,0.0,M,0.0,M,,*6E
$GPGSA,A,3,01,02,03,04,05,06,07,08,09,10,11,12,1.0,1.0,1.0*30
$GPRMC,161208.572,A,5545.065,N,03745.694,E,001.9,146.4,310522,000.0,W*72
$GPGGA,161209.572,5545.064,N,03745.694,E,1,12,1.0,0.0,M,0.0,M,,*6E
$GPGSA,A,3,01,02,03,04,05,06,07,08,09,10,11,12,1.0,1.0,1.0*30
$GPRMC,161209.572,A,5545.064,N,03745.694,E,001.9,146.4,310522,000.0,W*72
$GPGGA,161210.572,5545.064,N,03745.695,E,1,12,1.0,0.0,M,0.0,M,,*67
$GPGSA,A,3,01,02,03,04,05,06,07,08,09,10,11,12,1.0,1.0,1.0*30
$GPRMC,161210.572,A,5545.064,N,03745.695,E,001.9,146.4,310522,000.0,W*7B
$GPGGA,161211.572,5545.063,N,03745.695,E,1,12,1.0,0.0,M,0.0,M,,*61
$GPGSA,A,3,01,02,03,04,05,06,07,08,09,10,11,12,1.0,1.0,1.0*30
$GPRMC,161211.572,A,5545.063,N,03745.695,E,001.9,146.4,310522,000.0,W*7D
$GPGGA,161212.572,5545.063,N,03745.695,E,1,12,1.0,0.0,M,0.0,M,,*62
$GPGSA,A,3,01,02,03,04,05,06,07,08,09,10,11,12,1.0,1.0,1.0*30
$GPRMC,161212.572,A,5545.063,N,03745.695,E,001.9,146.4,310522,000.0,W*7E
$GPGGA,161213.572,5545.062,N,03745.696,E,1,12,1.0,0.0,M,0.0,M,,*61
$GPGSA,A,3,01,02,03,04,05,06,07,08,09,10,11,12,1.0,1.0,1.0*30
$GPRMC,161213.572,A,5545.062,N,03745.696,E,001.9,146.4,310522,000.0,W*7D
$GPGGA,161214.572,5545.062,N,03745.696,E,1,12,1.0,0.0,M,0.0,M,,*66
$GPGSA,A,3,01,02,03,04,05,06,07,08,09,10,11,12,1.0,1.0,1.0*30
$GPRMC,161214.572,A,5545.062,N,03745.696,E,001.9,146.4,310522,000.0,W*7A
