$GPRMC,130527.357,A,5545.109,N,03745.576,E,009.7,078.8,060722,000.0,W*79
$GPRMC,130528.357,A,5545.110,N,03745.581,E,009.7,078.8,060722,000.0,W*76
$GPRMC,130529.357,A,5545.111,N,03745.585,E,009.7,078.8,060722,000.0,W*72
$GPRMC,130530.357,A,5545.112,N,03745.590,E,009.7,078.8,060722,000.0,W*7D
$GPRMC,130531.357,A,5545.113,N,03745.594,E,009.7,078.8,060722,000.0,W*79
$GPRMC,130532.357,A,5545.114,N,03745.599,E,009.7,078.8,060722,000.0,W*70
$GPRMC,130533.357,A,5545.115,N,03745.603,E,009.7,078.8,060722,000.0,W*70
$GPRMC,130534.357,A,5545.115,N,03745.608,E,009.7,078.8,060722,000.0,W*7C
$GPRMC,130535.357,A,5545.116,N,03745.612,E,009.7,078.8,060722,000.0,W*75
$GPRMC,130536.357,A,5545.117,N,03745.617,E,009.7,078.8,060722,000.0,W*72
$GPRMC,130537.357,A,5545.118,N,03745.621,E,009.7,078.8,060722,000.0,W*79
$GPRMC,130538.357,A,5545.119,N,03745.626,E,009.7,078.8,060722,000.0,W*70
$GPRMC,130539.357,A,5545.120,N,03745.630,E,009.7,078.8,060722,000.0,W*7C
$GPRMC,130540.357,A,5545.121,N,03745.635,E,009.7,078.8,060722,000.0,W*76
$GPRMC,130541.357,A,5545.122,N,03745.639,E,009.7,078.8,060722,000.0,W*78
$GPRMC,130542.357,A,5545.123,N,03745.644,E,009.7,078.8,060722,000.0,W*70
$GPRMC,130543.357,A,5545.123,N,03745.648,E,009.7,078.8,060722,000.0,W*7D
$GPRMC,130544.357,A,5545.124,N,03745.653,E,009.7,078.8,060722,000.0,W*77
$GPRMC,130545.357,A,5545.125,N,03745.658,E,009.7,325.3,060722,000.0,W*7C
$GPRMC,130546.357,A,5545.128,N,03745.656,E,009.7,325.3,060722,000.0,W*7C
$GPRMC,130547.357,A,5545.130,N,03745.654,E,009.7,325.3,060722,000.0,W*76
$GPRMC,130548.357,A,5545.133,N,03745.652,E,009.7,325.3,060722,000.0,W*7C
$GPRMC,130549.357,A,5545.135,N,03745.651,E,009.7,325.3,060722,000.0,W*78
$GPRMC,130550.357,A,5545.138,N,03745.649,E,009.7,325.3,060722,000.0,W*74
$GPRMC,130551.357,A,5545.140,N,03745.647,E,009.7,325.3,060722,000.0,W*74
$GPRMC,130552.357,A,5545.143,N,03745.645,E,009.7,325.3,060722,000.0,W*76
$GPRMC,130553.357,A,5545.145,N,03745.644,E,009.7,325.3,060722,000.0,W*70
$GPRMC,130554.357,A,5545.148,N,03745.642,E,009.7,079.0,060722,000.0,W*75
$GPRMC,130555.357,A,5545.149,N,03745.646,E,009.7,079.0,060722,000.0,W*71
$GPRMC,130556.357,A,5545.150,N,03745.651,E,009.7,079.0,060722,000.0,W*7C
$GPRMC,130557.357,A,5545.150,N,03745.655,E,009.7,079.0,060722,000.0,W*79
$GPRMC,130558.357,A,5545.151,N,03745.660,E,009.7,079.0,060722,000.0,W*71
$GPRMC,130559.357,A,5545.152,N,03745.664,E,009.7,079.0,060722,000.0,W*77
$GPRMC,130600.357,A,5545.153,N,03745.669,E,009.7,079.0,060722,000.0,W*74
$GPRMC,130601.357,A,5545.154,N,03745.674,E,009.7,079.0,060722,000.0,W*7E
$GPRMC,130602.357,A,5545.155,N,03745.678,E,009.7,079.0,060722,000.0,W*70
$GPRMC,130603.357,A,5545.156,N,03745.683,E,009.7,079.0,060722,000.0,W*76
$GPRMC,130604.357,A,5545.157,N,03745.687,E,009.7,079.0,060722,000.0,W*74
$GPRMC,130605.357,A,5545.157,N,03745.692,E,009.7,079.0,060722,000.0,W*71
$GPRMC,130606.357,A,5545.158,N,03745.696,E,009.7,079.0,060722,000.0,W*79
$GPRMC,130607.357,A,5545.159,N,03745.701,E,009.7,079.0,060722,000.0,W*76
$GPRMC,130608.357,A,5545.160,N,03745.705,E,009.7,079.0,060722,000.0,W*77
$GPRMC,130609.357,A,5545.161,N,03745.710,E,009.7,079.0,060722,000.0,W*73
$GPRMC,130610.357,A,5545.162,N,03745.714,E,009.7,079.0,060722,000.0,W*7C
$GPRMC,130611.357,A,5545.163,N,03745.719,E,009.7,079.0,060722,000.0,W*71
$GPRMC,130612.357,A,5545.164,N,03745.723,E,009.7,079.0,060722,000.0,W*7C
$GPRMC,130613.357,A,5545.164,N,03745.728,E,009.7,079.0,060722,000.0,W*76
$GPRMC,130614.357,A,5545.165,N,03745.733,E,009.7,079.0,060722,000.0,W*7A
$GPRMC,130615.357,A,5545.166,N,03745.737,E,009.7,079.0,060722,000.0,W*7C
$GPRMC,130616.357,A,5545.167,N,03745.742,E,009.7,079.0,060722,000.0,W*7C
$GPRMC,130617.357,A,5545.168,N,03745.746,E,009.7,079.0,060722,000.0,W*76
$GPRMC,130618.357,A,5545.169,N,03745.751,E,009.7,079.0,060722,000.0,W*7E
$GPRMC,130619.357,A,5545.170,N,03745.755,E,009.7,079.0,060722,000.0,W*73
$GPRMC,130620.357,A,5545.171,N,03745.760,E,009.7,079.0,060722,000.0,W*7E
$GPRMC,130621.357,A,5545.171,N,03745.764,E,009.7,079.0,060722,000.0,W*7B
$GPRMC,130622.357,A,5545.172,N,03745.769,E,009.7,079.0,060722,000.0,W*76
$GPRMC,130623.357,A,5545.173,N,03745.773,E,009.7,079.0,060722,000.0,W*7D
$GPRMC,130624.357,A,5545.174,N,03745.778,E,009.7,079.0,060722,000.0,W*76
$GPRMC,130625.357,A,5545.175,N,03745.782,E,009.7,079.0,060722,000.0,W*73
$GPRMC,130626.357,A,5545.176,N,03745.787,E,009.7,079.0,060722,000.0,W*76
$GPRMC,130627.357,A,5545.177,N,03745.791,E,009.7,079.0,060722,000.0,W*71
$GPRMC,130628.357,A,5545.178,N,03745.796,E,009.7,079.0,060722,000.0,W*76
$GPRMC,130629.357,A,5545.178,N,03745.801,E,009.7,079.0,060722,000.0,W*76
$GPRMC,130630.357,A,5545.179,N,03745.805,E,009.7,079.0,060722,000.0,W*7B
$GPRMC,130631.357,A,5545.180,N,03745.810,E,009.7,079.0,060722,000.0,W*78
$GPRMC,130632.357,A,5545.181,N,03745.814,E,009.7,079.0,060722,000.0,W*7E
$GPRMC,130633.357,A,5545.182,N,03745.819,E,009.7,079.0,060722,000.0,W*71
$GPRMC,130634.357,A,5545.183,N,03745.823,E,009.7,079.0,060722,000.0,W*7E
$GPRMC,130635.357,A,5545.184,N,03745.828,E,009.7,079.0,060722,000.0,W*73
$GPRMC,130636.357,A,5545.185,N,03745.832,E,009.7,079.0,060722,000.0,W*7A
$GPRMC,130637.357,A,5545.185,N,03745.837,E,009.7,079.0,060722,000.0,W*7E
$GPRMC,130638.357,A,5545.186,N,03745.841,E,009.7,079.0,060722,000.0,W*73
$GPRMC,130639.357,A,5545.187,N,03745.846,E,009.7,079.0,060722,000.0,W*74
$GPRMC,130640.357,A,5545.188,N,03745.850,E,009.7,079.0,060722,000.0,W*72
$GPRMC,130641.357,A,5545.189,N,03745.855,E,009.7,079.0,060722,000.0,W*77
$GPRMC,130642.357,A,5545.190,N,03745.859,E,009.7,079.0,060722,000.0,W*70
$GPRMC,130643.357,A,5545.191,N,03745.864,E,009.7,079.0,060722,000.0,W*7E
$GPRMC,130644.357,A,5545.192,N,03745.869,E,009.7,079.0,060722,000.0,W*77
$GPRMC,130645.357,A,5545.192,N,03745.873,E,009.7,079.0,060722,000.0,W*7D
$GPRMC,130646.357,A,5545.193,N,03745.878,E,009.7,079.0,060722,000.0,W*74
$GPRMC,130647.357,A,5545.194,N,03745.882,E,009.7,079.0,060722,000.0,W*77
$GPRMC,130648.357,A,5545.195,N,03745.887,E,009.7,079.0,060722,000.0,W*7C
$GPRMC,130649.357,A,5545.196,N,03745.891,E,009.7,079.0,060722,000.0,W*79
$GPRMC,130650.357,A,5545.197,N,03745.896,E,009.7,079.0,060722,000.0,W*77
$GPRMC,130651.357,A,5545.198,N,03745.900,E,009.7,079.0,060722,000.0,W*77
$GPRMC,130652.357,A,5545.199,N,03745.905,E,009.7,079.0,060722,000.0,W*70
$GPRMC,130653.357,A,5545.199,N,03745.909,E,009.7,079.0,060722,000.0,W*7D
$GPRMC,130654.357,A,5545.200,N,03745.914,E,009.7,079.0,060722,000.0,W*75
$GPRMC,130655.357,A,5545.201,N,03745.918,E,009.7,079.0,060722,000.0,W*79
$GPRMC,130656.357,A,5545.202,N,03745.923,E,009.7,079.0,060722,000.0,W*71
$GPRMC,130657.357,A,5545.203,N,03745.928,E,009.7,079.0,060722,000.0,W*7A
$GPRMC,130658.357,A,5545.204,N,03745.932,E,009.7,079.0,060722,000.0,W*79
$GPRMC,130659.357,A,5545.205,N,03745.937,E,009.7,079.0,060722,000.0,W*7C
$GPRMC,130700.357,A,5545.206,N,03745.941,E,009.7,079.0,060722,000.0,W*73
$GPRMC,130701.357,A,5545.206,N,03745.946,E,009.7,079.0,060722,000.0,W*75
$GPRMC,130702.357,A,5545.207,N,03745.950,E,009.7,079.0,060722,000.0,W*70
$GPRMC,130703.357,A,5545.208,N,03745.955,E,009.7,079.0,060722,000.0,W*7B
$GPRMC,130704.357,A,5545.209,N,03745.959,E,009.7,079.0,060722,000.0,W*71
$GPRMC,130705.357,A,5545.210,N,03745.964,E,009.7,079.0,060722,000.0,W*76
$GPRMC,130706.357,A,5545.211,N,03745.968,E,009.7,079.0,060722,000.0,W*78
$GPRMC,130707.357,A,5545.212,N,03745.973,E,009.7,079.0,060722,000.0,W*70
$GPRMC,130708.357,A,5545.213,N,03745.977,E,009.7,079.0,060722,000.0,W*7A
$GPRMC,130709.357,A,5545.213,N,03745.982,E,009.7,079.0,060722,000.0,W*71
$GPRMC,130710.357,A,5545.214,N,03745.986,E,009.7,079.0,060722,000.0,W*7A
$GPRMC,130711.357,A,5545.215,N,03745.991,E,009.7,079.0,060722,000.0,W*7C
$GPRMC,130712.357,A,5545.216,N,03745.996,E,009.7,079.0,060722,000.0,W*7B
$GPRMC,130713.357,A,5545.217,N,03746.000,E,009.7,079.0,060722,000.0,W*7E
$GPRMC,130714.357,A,5545.218,N,03746.005,E,009.7,079.0,060722,000.0,W*73
$GPRMC,130715.357,A,5545.219,N,03746.009,E,009.7,079.0,060722,000.0,W*7F
$GPRMC,130716.357,A,5545.220,N,03746.014,E,009.7,079.0,060722,000.0,W*7A
$GPRMC,130717.357,A,5545.220,N,03746.018,E,009.7,079.0,060722,000.0,W*77
$GPRMC,130718.357,A,5545.221,N,03746.023,E,009.7,079.0,060722,000.0,W*71
$GPRMC,130719.357,A,5545.222,N,03746.027,E,009.7,079.0,060722,000.0,W*77
$GPRMC,130720.357,A,5545.223,N,03746.032,E,009.7,079.0,060722,000.0,W*78
$GPRMC,130721.357,A,5545.224,N,03746.036,E,009.7,079.0,060722,000.0,W*7A
$GPRMC,130722.357,A,5545.225,N,03746.041,E,009.7,079.0,060722,000.0,W*78
$GPRMC,130723.357,A,5545.226,N,03746.045,E,009.7,079.0,060722,000.0,W*7E
$GPRMC,130724.357,A,5545.227,N,03746.050,E,009.7,079.0,060722,000.0,W*7C
$GPRMC,130725.357,A,5545.227,N,03746.055,E,009.7,079.0,060722,000.0,W*78
$GPRMC,130726.357,A,5545.228,N,03746.059,E,009.7,079.0,060722,000.0,W*78
$GPRMC,130727.357,A,5545.229,N,03746.064,E,009.7,079.0,060722,000.0,W*76
$GPRMC,130728.357,A,5545.230,N,03746.068,E,009.7,147.6,060722,000.0,W*77
$GPRMC,130729.357,A,5545.228,N,03746.070,E,009.7,147.6,060722,000.0,W*76
$GPRMC,130730.357,A,5545.225,N,03746.071,E,009.7,147.6,060722,000.0,W*72
$GPRMC,130731.357,A,5545.222,N,03746.073,E,009.7,147.6,060722,000.0,W*76
$GPRMC,130732.357,A,5545.220,N,03746.075,E,009.7,147.6,060722,000.0,W*71
$GPRMC,130733.357,A,5545.217,N,03746.076,E,009.7,147.6,060722,000.0,W*77
$GPRMC,130734.357,A,5545.215,N,03746.078,E,009.7,147.6,060722,000.0,W*7C
$GPRMC,130735.357,A,5545.212,N,03746.079,E,009.7,147.6,060722,000.0,W*7B
$GPRMC,130736.357,A,5545.210,N,03746.081,E,009.7,147.6,060722,000.0,W*7D
$GPRMC,130737.357,A,5545.207,N,03746.083,E,009.7,147.6,060722,000.0,W*78
$GPRMC,130738.357,A,5545.205,N,03746.084,E,009.7,147.6,060722,000.0,W*72
$GPRMC,130739.357,A,5545.202,N,03746.086,E,009.7,147.6,060722,000.0,W*76
$GPRMC,130740.357,A,5545.200,N,03746.088,E,009.7,147.6,060722,000.0,W*74
$GPRMC,130741.357,A,5545.197,N,03746.089,E,009.7,147.6,060722,000.0,W*79
$GPRMC,130742.357,A,5545.195,N,03746.091,E,009.7,147.6,060722,000.0,W*71
$GPRMC,130743.357,A,5545.192,N,03746.092,E,009.7,147.6,060722,000.0,W*74
$GPRMC,130744.357,A,5545.189,N,03746.094,E,009.7,147.6,060722,000.0,W*7F
$GPRMC,130745.357,A,5545.187,N,03746.096,E,009.7,147.6,060722,000.0,W*72
$GPRMC,130746.357,A,5545.184,N,03746.097,E,009.7,147.6,060722,000.0,W*73
$GPRMC,130747.357,A,5545.182,N,03746.099,E,009.7,147.6,060722,000.0,W*7A
$GPRMC,130748.357,A,5545.179,N,03746.101,E,009.7,147.6,060722,000.0,W*71
$GPRMC,130749.357,A,5545.177,N,03746.102,E,009.7,147.6,060722,000.0,W*7D
$GPRMC,130750.357,A,5545.174,N,03746.104,E,009.7,147.6,060722,000.0,W*70
$GPRMC,130751.357,A,5545.172,N,03746.105,E,009.7,147.6,060722,000.0,W*76
$GPRMC,130752.357,A,5545.169,N,03746.107,E,009.7,147.6,060722,000.0,W*7D
$GPRMC,130753.357,A,5545.167,N,03746.109,E,009.7,147.6,060722,000.0,W*7C
$GPRMC,130754.357,A,5545.164,N,03746.110,E,009.7,147.6,060722,000.0,W*70
$GPRMC,130755.357,A,5545.162,N,03746.112,E,009.7,147.6,060722,000.0,W*75
$GPRMC,130756.357,A,5545.159,N,03746.114,E,009.7,147.6,060722,000.0,W*78
$GPRMC,130757.357,A,5545.156,N,03746.115,E,009.7,147.6,060722,000.0,W*77
$GPRMC,130758.357,A,5545.154,N,03746.117,E,009.7,147.6,060722,000.0,W*78
$GPRMC,130759.357,A,5545.151,N,03746.118,E,009.7,147.6,060722,000.0,W*73
$GPRMC,130800.357,A,5545.149,N,03746.120,E,009.7,147.6,060722,000.0,W*72
$GPRMC,130801.357,A,5545.146,N,03746.122,E,009.7,147.6,060722,000.0,W*7E
$GPRMC,130802.357,A,5545.144,N,03746.123,E,009.7,147.6,060722,000.0,W*7E
$GPRMC,130803.357,A,5545.141,N,03746.125,E,009.7,147.6,060722,000.0,W*7C
$GPRMC,130804.357,A,5545.139,N,03746.127,E,009.7,147.6,060722,000.0,W*76
$GPRMC,130805.357,A,5545.136,N,03746.128,E,009.7,147.6,060722,000.0,W*77
$GPRMC,130806.357,A,5545.134,N,03746.130,E,009.7,147.6,060722,000.0,W*7F
$GPRMC,130807.357,A,5545.131,N,03746.131,E,009.7,147.6,060722,000.0,W*7A
$GPRMC,130808.357,A,5545.128,N,03746.133,E,009.7,147.6,060722,000.0,W*7F
$GPRMC,130809.357,A,5545.126,N,03746.135,E,009.7,147.6,060722,000.0,W*76
$GPRMC,130810.357,A,5545.123,N,03746.136,E,009.7,147.6,060722,000.0,W*78
$GPRMC,130811.357,A,5545.121,N,03746.138,E,009.7,147.6,060722,000.0,W*75
$GPRMC,130812.357,A,5545.118,N,03746.139,E,009.7,147.6,060722,000.0,W*7D
$GPRMC,130813.357,A,5545.116,N,03746.141,E,009.7,147.6,060722,000.0,W*7D
$GPRMC,130814.357,A,5545.113,N,03746.143,E,009.7,147.6,060722,000.0,W*7D
$GPRMC,130815.357,A,5545.111,N,03746.144,E,009.7,147.6,060722,000.0,W*79
$GPRMC,130816.357,A,5545.108,N,03746.146,E,009.7,147.6,060722,000.0,W*70
$GPRMC,130817.357,A,5545.106,N,03746.148,E,009.7,147.6,060722,000.0,W*71
$GPRMC,130818.357,A,5545.103,N,03746.149,E,009.7,147.6,060722,000.0,W*7A
$GPRMC,130819.357,A,5545.101,N,03746.151,E,009.7,147.6,060722,000.0,W*70
$GPRMC,130820.357,A,5545.098,N,03746.152,E,009.7,147.6,060722,000.0,W*78
$GPRMC,130821.357,A,5545.095,N,03746.154,E,009.7,147.6,060722,000.0,W*72
$GPRMC,130822.357,A,5545.093,N,03746.156,E,009.7,147.6,060722,000.0,W*75
$GPRMC,130823.357,A,5545.090,N,03746.157,E,009.7,147.6,060722,000.0,W*76
$GPRMC,130824.357,A,5545.088,N,03746.159,E,009.7,147.6,060722,000.0,W*76
$GPRMC,130825.357,A,5545.085,N,03746.161,E,009.7,147.6,060722,000.0,W*71
$GPRMC,130826.357,A,5545.083,N,03746.162,E,009.7,147.6,060722,000.0,W*77
$GPRMC,130827.357,A,5545.080,N,03746.164,E,009.7,147.6,060722,000.0,W*73
$GPRMC,130828.357,A,5545.078,N,03746.165,E,009.7,147.6,060722,000.0,W*7A
$GPRMC,130829.357,A,5545.075,N,03746.167,E,009.7,147.6,060722,000.0,W*74
$GPRMC,130830.357,A,5545.073,N,03746.169,E,009.7,147.6,060722,000.0,W*74
$GPRMC,130831.357,A,5545.070,N,03746.170,E,009.7,147.6,060722,000.0,W*7E
$GPRMC,130832.357,A,5545.068,N,03746.172,E,009.7,147.6,060722,000.0,W*76
$GPRMC,130833.357,A,5545.065,N,03746.174,E,009.7,147.6,060722,000.0,W*7C
$GPRMC,130834.357,A,5545.062,N,03746.175,E,009.7,147.6,060722,000.0,W*7D
$GPRMC,130835.357,A,5545.060,N,03746.177,E,009.7,147.6,060722,000.0,W*7C
$GPRMC,130836.357,A,5545.057,N,03746.178,E,009.7,147.6,060722,000.0,W*74
$GPRMC,130837.357,A,5545.055,N,03746.180,E,009.7,147.6,060722,000.0,W*70
$GPRMC,130838.357,A,5545.052,N,03746.182,E,009.7,147.6,060722,000.0,W*7A
$GPRMC,130839.357,A,5545.050,N,03746.183,E,009.7,147.6,060722,000.0,W*78
$GPRMC,130840.357,A,5545.047,N,03746.185,E,009.7,147.6,060722,000.0,W*76
$GPRMC,130841.357,A,5545.045,N,03746.186,E,009.7,147.6,060722,000.0,W*76
$GPRMC,130842.357,A,5545.042,N,03746.188,E,009.7,147.6,060722,000.0,W*7C
$GPRMC,130843.357,A,5545.040,N,03746.190,E,009.7,147.6,060722,000.0,W*76
$GPRMC,130844.357,A,5545.037,N,03746.191,E,009.7,147.6,060722,000.0,W*70
$GPRMC,130845.357,A,5545.035,N,03746.193,E,009.7,147.6,060722,000.0,W*71
$GPRMC,130846.357,A,5545.032,N,03746.195,E,009.7,147.6,060722,000.0,W*73
$GPRMC,130847.357,A,5545.029,N,03746.196,E,009.7,147.6,060722,000.0,W*7B
$GPRMC,130848.357,A,5545.027,N,03746.198,E,009.7,147.6,060722,000.0,W*74
$GPRMC,130849.357,A,5545.024,N,03746.199,E,009.7,147.6,060722,000.0,W*77
$GPRMC,130850.357,A,5545.022,N,03746.201,E,009.7,147.6,060722,000.0,W*7B
$GPRMC,130851.357,A,5545.019,N,03746.203,E,009.7,147.6,060722,000.0,W*70
$GPRMC,130852.357,A,5545.017,N,03746.204,E,009.7,147.6,060722,000.0,W*7A
$GPRMC,130853.357,A,5545.014,N,03746.206,E,009.7,147.6,060722,000.0,W*7A
$GPRMC,130854.357,A,5545.012,N,03746.208,E,009.7,147.6,060722,000.0,W*75
$GPRMC,130855.357,A,5545.009,N,03746.209,E,009.7,147.6,060722,000.0,W*7F
$GPRMC,130856.357,A,5545.007,N,03746.211,E,009.7,147.6,060722,000.0,W*7B
$GPRMC,130857.357,A,5545.004,N,03746.212,E,009.7,147.6,060722,000.0,W*7A
$GPRMC,130858.357,A,5545.002,N,03746.214,E,009.7,147.6,060722,000.0,W*75
$GPRMC,130859.357,A,5544.999,N,03746.216,E,009.7,147.6,060722,000.0,W*7C
$GPRMC,130900.357,A,5544.996,N,03746.217,E,009.7,147.6,060722,000.0,W*7F
$GPRMC,130901.357,A,5544.994,N,03746.219,E,009.7,147.6,060722,000.0,W*72
$GPRMC,130902.357,A,5544.991,N,03746.221,E,009.7,147.6,060722,000.0,W*7F
$GPRMC,130903.357,A,5544.989,N,03746.222,E,009.7,147.6,060722,000.0,W*74
$GPRMC,130904.357,A,5544.986,N,03746.224,E,009.7,147.6,060722,000.0,W*7A
$GPRMC,130905.357,A,5544.984,N,03746.225,E,009.7,147.6,060722,000.0,W*78
$GPRMC,130906.357,A,5544.981,N,03746.227,E,009.7,147.6,060722,000.0,W*7C
$GPRMC,130907.357,A,5544.979,N,03746.229,E,009.7,147.6,060722,000.0,W*74
$GPRMC,130908.357,A,5544.976,N,03746.230,E,009.7,147.6,060722,000.0,W*7C
$GPRMC,130909.357,A,5544.974,N,03746.232,E,009.7,147.6,060722,000.0,W*7D
$GPRMC,130910.357,A,5544.971,N,03746.234,E,009.7,147.6,060722,000.0,W*76
$GPRMC,130911.357,A,5544.969,N,03746.235,E,009.7,147.6,060722,000.0,W*7F
$GPRMC,130912.357,A,5544.966,N,03746.237,E,009.7,147.6,060722,000.0,W*71
$GPRMC,130913.357,A,5544.963,N,03746.238,E,009.7,147.6,060722,000.0,W*7A
$GPRMC,130914.357,A,5544.961,N,03746.240,E,009.7,147.6,060722,000.0,W*70
$GPRMC,130915.357,A,5544.958,N,03746.242,E,009.7,147.6,060722,000.0,W*79
$GPRMC,130916.357,A,5544.956,N,03746.243,E,009.7,147.6,060722,000.0,W*75
$GPRMC,130917.357,A,5544.953,N,03746.245,E,009.7,147.6,060722,000.0,W*77
$GPRMC,130918.357,A,5544.951,N,03746.246,E,009.7,147.6,060722,000.0,W*79
$GPRMC,130919.357,A,5544.948,N,03746.248,E,009.7,147.6,060722,000.0,W*7E
$GPRMC,130920.357,A,5544.946,N,03746.250,E,009.7,147.6,060722,000.0,W*73
$GPRMC,130921.357,A,5544.943,N,03746.251,E,009.7,147.6,060722,000.0,W*76
$GPRMC,130922.357,A,5544.941,N,03746.253,E,009.7,147.6,060722,000.0,W*75
$GPRMC,130923.357,A,5544.938,N,03746.255,E,009.7,147.6,060722,000.0,W*7C
$GPRMC,130924.357,A,5544.936,N,03746.256,E,009.7,147.6,060722,000.0,W*76
$GPRMC,130925.357,A,5544.933,N,03746.258,E,009.7,147.6,060722,000.0,W*7C
$GPRMC,130926.357,A,5544.930,N,03746.259,E,009.7,147.6,060722,000.0,W*7D
$GPRMC,130927.357,A,5544.928,N,03746.261,E,009.7,147.6,060722,000.0,W*7E
$GPRMC,130928.357,A,5544.925,N,03746.263,E,009.7,258.9,060722,000.0,W*7C
$GPRMC,130929.357,A,5544.924,N,03746.258,E,009.7,258.9,060722,000.0,W*74
$GPRMC,130930.357,A,5544.924,N,03746.254,E,009.7,258.9,060722,000.0,W*70
$GPRMC,130931.357,A,5544.923,N,03746.249,E,009.7,258.9,060722,000.0,W*7A
$GPRMC,130932.357,A,5544.922,N,03746.245,E,009.7,258.9,060722,000.0,W*74
$GPRMC,130933.357,A,5544.921,N,03746.240,E,009.7,258.9,060722,000.0,W*73
$GPRMC,130934.357,A,5544.920,N,03746.236,E,009.7,258.9,060722,000.0,W*74
$GPRMC,130935.357,A,5544.919,N,03746.231,E,009.7,258.9,060722,000.0,W*78
$GPRMC,130936.357,A,5544.918,N,03746.226,E,009.7,258.9,060722,000.0,W*7C
$GPRMC,130937.357,A,5544.917,N,03746.222,E,009.7,258.9,060722,000.0,W*76
$GPRMC,130938.357,A,5544.917,N,03746.217,E,009.7,258.9,060722,000.0,W*7F
$GPRMC,130939.357,A,5544.916,N,03746.213,E,009.7,258.9,060722,000.0,W*7B
$GPRMC,130940.357,A,5544.915,N,03746.208,E,009.7,258.9,060722,000.0,W*7C
$GPRMC,130941.357,A,5544.914,N,03746.204,E,009.7,258.9,060722,000.0,W*70
$GPRMC,130942.357,A,5544.913,N,03746.199,E,009.7,258.9,060722,000.0,W*73
$GPRMC,130943.357,A,5544.912,N,03746.195,E,009.7,258.9,060722,000.0,W*7F
$GPRMC,130944.357,A,5544.911,N,03746.190,E,009.7,258.9,060722,000.0,W*7E
$GPRMC,130945.357,A,5544.910,N,03746.186,E,009.7,258.9,060722,000.0,W*79
$GPRMC,130946.357,A,5544.909,N,03746.181,E,009.7,258.9,060722,000.0,W*75
$GPRMC,130947.357,A,5544.909,N,03746.177,E,009.7,258.9,060722,000.0,W*7D
$GPRMC,130948.357,A,5544.908,N,03746.172,E,009.7,258.9,060722,000.0,W*76
$GPRMC,130949.357,A,5544.907,N,03746.168,E,009.7,258.9,060722,000.0,W*73
$GPRMC,130950.357,A,5544.906,N,03746.163,E,009.7,258.9,060722,000.0,W*71
$GPRMC,130951.357,A,5544.905,N,03746.159,E,009.7,258.9,060722,000.0,W*7A
$GPRMC,130952.357,A,5544.904,N,03746.154,E,009.7,258.9,060722,000.0,W*75
$GPRMC,130953.357,A,5544.903,N,03746.150,E,009.7,258.9,060722,000.0,W*77
$GPRMC,130954.357,A,5544.902,N,03746.145,E,009.7,258.9,060722,000.0,W*75
$GPRMC,130955.357,A,5544.901,N,03746.140,E,009.7,258.9,060722,000.0,W*72
$GPRMC,130956.357,A,5544.901,N,03746.136,E,009.7,258.9,060722,000.0,W*70
$GPRMC,130957.357,A,5544.900,N,03746.131,E,009.7,258.9,060722,000.0,W*77
$GPRMC,130958.357,A,5544.899,N,03746.127,E,009.7,258.9,060722,000.0,W*7E
$GPRMC,130959.357,A,5544.898,N,03746.122,E,009.7,258.9,060722,000.0,W*7B
$GPRMC,131000.357,A,5544.897,N,03746.118,E,009.7,258.9,060722,000.0,W*79
$GPRMC,131001.357,A,5544.896,N,03746.113,E,009.7,258.9,060722,000.0,W*72
$GPRMC,131002.357,A,5544.895,N,03746.109,E,009.7,258.9,060722,000.0,W*79
$GPRMC,131003.357,A,5544.894,N,03746.104,E,009.7,258.9,060722,000.0,W*74
$GPRMC,131004.357,A,5544.893,N,03746.100,E,009.7,258.9,060722,000.0,W*70
$GPRMC,131005.357,A,5544.893,N,03746.095,E,009.7,258.9,060722,000.0,W*7C
$GPRMC,131006.357,A,5544.892,N,03746.091,E,009.7,258.9,060722,000.0,W*7A
$GPRMC,131007.357,A,5544.891,N,03746.086,E,009.7,258.9,060722,000.0,W*7E
$GPRMC,131008.357,A,5544.890,N,03746.082,E,009.7,258.9,060722,000.0,W*74
$GPRMC,131009.357,A,5544.889,N,03746.077,E,009.7,258.9,060722,000.0,W*77
$GPRMC,131010.357,A,5544.888,N,03746.073,E,009.7,258.9,060722,000.0,W*7A
$GPRMC,131011.357,A,5544.887,N,03746.068,E,009.7,258.9,060722,000.0,W*7E
$GPRMC,131012.357,A,5544.886,N,03746.064,E,009.7,258.9,060722,000.0,W*70
$GPRMC,131013.357,A,5544.885,N,03746.059,E,009.7,258.9,060722,000.0,W*7C
$GPRMC,131014.357,A,5544.885,N,03746.054,E,009.7,258.9,060722,000.0,W*76
$GPRMC,131015.357,A,5544.884,N,03746.050,E,009.7,258.9,060722,000.0,W*72
$GPRMC,131016.357,A,5544.883,N,03746.045,E,009.7,258.9,060722,000.0,W*72
$GPRMC,131017.357,A,5544.882,N,03746.041,E,009.7,258.9,060722,000.0,W*76
$GPRMC,131018.357,A,5544.881,N,03746.036,E,009.7,258.9,060722,000.0,W*7A
$GPRMC,131019.357,A,5544.880,N,03746.032,E,009.7,258.9,060722,000.0,W*7E
$GPRMC,131020.357,A,5544.879,N,03746.027,E,009.7,258.9,060722,000.0,W*76
$GPRMC,131021.357,A,5544.878,N,03746.023,E,009.7,258.9,060722,000.0,W*72
$GPRMC,131022.357,A,5544.877,N,03746.018,E,009.7,258.9,060722,000.0,W*76
$GPRMC,131023.357,A,5544.877,N,03746.014,E,009.7,258.9,060722,000.0,W*7B
$GPRMC,131024.357,A,5544.876,N,03746.009,E,009.7,258.9,060722,000.0,W*71
$GPRMC,131025.357,A,5544.875,N,03746.005,E,009.7,258.9,060722,000.0,W*7F
$GPRMC,131026.357,A,5544.874,N,03746.000,E,009.7,252.6,060722,000.0,W*7D
$GPRMC,131027.357,A,5544.873,N,03745.996,E,009.7,252.6,060722,000.0,W*7E
$GPRMC,131028.357,A,5544.871,N,03745.992,E,009.7,252.6,060722,000.0,W*77
$GPRMC,131029.357,A,5544.870,N,03745.988,E,009.7,252.6,060722,000.0,W*7C
$GPRMC,131030.357,A,5544.869,N,03745.983,E,009.7,252.6,060722,000.0,W*77
$GPRMC,131031.357,A,5544.867,N,03745.979,E,009.7,252.6,060722,000.0,W*7D
$GPRMC,131032.357,A,5544.866,N,03745.975,E,009.7,252.6,060722,000.0,W*73
$GPRMC,131033.357,A,5544.865,N,03745.971,E,009.7,252.6,060722,000.0,W*75
$GPRMC,131034.357,A,5544.863,N,03745.967,E,009.7,252.6,060722,000.0,W*73
$GPRMC,131035.357,A,5544.862,N,03745.962,E,009.7,252.6,060722,000.0,W*76
$GPRMC,131036.357,A,5544.861,N,03745.958,E,009.7,252.6,060722,000.0,W*7F
$GPRMC,131037.357,A,5544.859,N,03745.954,E,009.7,252.6,060722,000.0,W*79
$GPRMC,131038.357,A,5544.858,N,03745.950,E,009.7,252.6,060722,000.0,W*73
$GPRMC,131039.357,A,5544.857,N,03745.946,E,009.7,252.6,060722,000.0,W*7A
$GPRMC,131040.357,A,5544.856,N,03745.941,E,009.7,252.6,060722,000.0,W*72
$GPRMC,131041.357,A,5544.854,N,03745.937,E,009.7,252.6,060722,000.0,W*70
$GPRMC,131042.357,A,5544.853,N,03745.933,E,009.7,252.6,060722,000.0,W*70
$GPRMC,131043.357,A,5544.852,N,03745.929,E,009.7,252.6,060722,000.0,W*7B
$GPRMC,131044.357,A,5544.850,N,03745.925,E,009.7,252.6,060722,000.0,W*72
$GPRMC,131045.357,A,5544.849,N,03745.921,E,009.7,247.8,060722,000.0,W*75
$GPRMC,131046.357,A,5544.847,N,03745.917,E,009.7,247.8,060722,000.0,W*7D
$GPRMC,131047.357,A,5544.846,N,03745.913,E,009.7,247.8,060722,000.0,W*79
$GPRMC,131048.357,A,5544.844,N,03745.909,E,009.7,247.8,060722,000.0,W*7F
$GPRMC,131049.357,A,5544.843,N,03745.905,E,009.7,247.8,060722,000.0,W*75
$GPRMC,131050.357,A,5544.841,N,03745.901,E,009.7,247.8,060722,000.0,W*7B
$GPRMC,131051.357,A,5544.840,N,03745.897,E,009.7,247.8,060722,000.0,W*75
$GPRMC,131052.357,A,5544.838,N,03745.893,E,009.7,247.8,060722,000.0,W*7D
$GPRMC,131053.357,A,5544.836,N,03745.889,E,009.7,247.8,060722,000.0,W*79
$GPRMC,131054.357,A,5544.835,N,03745.886,E,009.7,247.8,060722,000.0,W*72
$GPRMC,131055.357,A,5544.833,N,03745.882,E,009.7,247.8,060722,000.0,W*71
$GPRMC,131056.357,A,5544.832,N,03745.878,E,009.7,247.8,060722,000.0,W*76
$GPRMC,131057.357,A,5544.830,N,03745.874,E,009.7,247.8,060722,000.0,W*79
$GPRMC,131058.357,A,5544.828,N,03745.870,E,009.7,247.8,060722,000.0,W*7B
$GPRMC,131059.357,A,5544.827,N,03745.866,E,009.7,273.1,060722,000.0,W*7C
$GPRMC,131100.357,A,5544.827,N,03745.861,E,009.7,273.1,060722,000.0,W*76
$GPRMC,131101.357,A,5544.827,N,03745.857,E,009.7,273.1,060722,000.0,W*72
$GPRMC,131102.357,A,5544.828,N,03745.852,E,009.7,273.1,060722,000.0,W*7B
$GPRMC,131103.357,A,5544.828,N,03745.847,E,009.7,273.1,060722,000.0,W*7E
$GPRMC,131104.357,A,5544.828,N,03745.842,E,009.7,273.1,060722,000.0,W*7C
$GPRMC,131105.357,A,5544.828,N,03745.837,E,009.7,273.1,060722,000.0,W*7F
$GPRMC,131106.357,A,5544.829,N,03745.833,E,009.7,273.1,060722,000.0,W*79
$GPRMC,131107.357,A,5544.829,N,03745.828,E,009.7,273.1,060722,000.0,W*72
$GPRMC,131108.357,A,5544.829,N,03745.823,E,009.7,273.1,060722,000.0,W*76
$GPRMC,131109.357,A,5544.829,N,03745.818,E,009.7,273.1,060722,000.0,W*7F
$GPRMC,131110.357,A,5544.830,N,03745.814,E,009.7,273.1,060722,000.0,W*73
$GPRMC,131111.357,A,5544.830,N,03745.809,E,009.7,273.1,060722,000.0,W*7E
$GPRMC,131112.357,A,5544.830,N,03745.804,E,009.7,273.1,060722,000.0,W*70
$GPRMC,131113.357,A,5544.830,N,03745.799,E,009.7,273.1,060722,000.0,W*7A
$GPRMC,131114.357,A,5544.831,N,03745.795,E,009.7,273.1,060722,000.0,W*70
$GPRMC,131115.357,A,5544.831,N,03745.790,E,009.7,273.1,060722,000.0,W*74
$GPRMC,131116.357,A,5544.831,N,03745.785,E,009.7,273.1,060722,000.0,W*73
$GPRMC,131117.357,A,5544.831,N,03745.780,E,009.7,273.1,060722,000.0,W*77
$GPRMC,131118.357,A,5544.832,N,03745.775,E,009.7,273.1,060722,000.0,W*71
$GPRMC,131119.357,A,5544.832,N,03745.771,E,009.7,273.1,060722,000.0,W*74
$GPRMC,131120.357,A,5544.832,N,03745.766,E,009.7,273.1,060722,000.0,W*78
$GPRMC,131121.357,A,5544.832,N,03745.761,E,009.7,273.1,060722,000.0,W*7E
$GPRMC,131122.357,A,5544.833,N,03745.756,E,009.7,273.1,060722,000.0,W*78
$GPRMC,131123.357,A,5544.833,N,03745.752,E,009.7,273.1,060722,000.0,W*7D
$GPRMC,131124.357,A,5544.833,N,03745.747,E,009.7,273.1,060722,000.0,W*7E
$GPRMC,131125.357,A,5544.833,N,03745.742,E,009.7,273.1,060722,000.0,W*7A
$GPRMC,131126.357,A,5544.834,N,03745.737,E,009.7,273.1,060722,000.0,W*7C
$GPRMC,131127.357,A,5544.834,N,03745.732,E,009.7,273.1,060722,000.0,W*78
$GPRMC,131128.357,A,5544.834,N,03745.728,E,009.7,273.1,060722,000.0,W*7C
$GPRMC,131129.357,A,5544.835,N,03745.723,E,009.7,273.1,060722,000.0,W*77
$GPRMC,131130.357,A,5544.835,N,03745.718,E,009.7,273.1,060722,000.0,W*77
$GPRMC,131131.357,A,5544.835,N,03745.713,E,009.7,273.1,060722,000.0,W*7D
$GPRMC,131132.357,A,5544.835,N,03745.709,E,009.7,273.1,060722,000.0,W*75
$GPRMC,131133.357,A,5544.836,N,03745.704,E,009.7,273.1,060722,000.0,W*7A
$GPRMC,131134.357,A,5544.836,N,03745.699,E,009.7,273.1,060722,000.0,W*78
$GPRMC,131135.357,A,5544.836,N,03745.694,E,009.7,273.1,060722,000.0,W*74
$GPRMC,131136.357,A,5544.836,N,03745.690,E,009.7,273.1,060722,000.0,W*73
$GPRMC,131137.357,A,5544.837,N,03745.685,E,009.7,273.1,060722,000.0,W*77
$GPRMC,131138.357,A,5544.837,N,03745.680,E,009.7,273.1,060722,000.0,W*7D
$GPRMC,131139.357,A,5544.837,N,03745.675,E,009.7,273.1,060722,000.0,W*76
$GPRMC,131140.357,A,5544.837,N,03745.670,E,009.7,273.1,060722,000.0,W*7D
$GPRMC,131141.357,A,5544.838,N,03745.666,E,009.7,273.1,060722,000.0,W*74
$GPRMC,131142.357,A,5544.838,N,03745.661,E,009.7,273.1,060722,000.0,W*70
$GPRMC,131143.357,A,5544.838,N,03745.656,E,009.7,273.1,060722,000.0,W*75
$GPRMC,131144.357,A,5544.838,N,03745.651,E,009.7,273.1,060722,000.0,W*75
$GPRMC,131145.357,A,5544.839,N,03745.647,E,009.7,273.1,060722,000.0,W*72
$GPRMC,131146.357,A,5544.839,N,03745.642,E,009.7,273.1,060722,000.0,W*74
$GPRMC,131147.357,A,5544.839,N,03745.637,E,009.7,273.1,060722,000.0,W*77
$GPRMC,131148.357,A,5544.839,N,03745.632,E,009.7,273.1,060722,000.0,W*7D
$GPRMC,131149.357,A,5544.840,N,03745.628,E,009.7,273.1,060722,000.0,W*79
$GPRMC,131150.357,A,5544.840,N,03745.623,E,009.7,273.1,060722,000.0,W*7A
$GPRMC,131151.357,A,5544.840,N,03745.618,E,009.7,273.1,060722,000.0,W*73
$GPRMC,131152.357,A,5544.840,N,03745.613,E,009.7,273.1,060722,000.0,W*7B
$GPRMC,131153.357,A,5544.841,N,03745.608,E,009.7,273.1,060722,000.0,W*71
$GPRMC,131154.357,A,5544.841,N,03745.604,E,009.7,273.1,060722,000.0,W*7A
$GPRMC,131155.357,A,5544.841,N,03745.599,E,009.7,273.1,060722,000.0,W*7C
$GPRMC,131156.357,A,5544.841,N,03745.594,E,009.7,273.1,060722,000.0,W*72
$GPRMC,131157.357,A,5544.842,N,03745.589,E,009.7,273.1,060722,000.0,W*7C
$GPRMC,131158.357,A,5544.842,N,03745.585,E,009.7,273.1,060722,000.0,W*7F
$GPRMC,131159.357,A,5544.842,N,03745.580,E,009.7,273.1,060722,000.0,W*7B
$GPRMC,131200.357,A,5544.842,N,03745.575,E,009.7,273.1,060722,000.0,W*7E
$GPRMC,131201.357,A,5544.843,N,03745.570,E,009.7,273.1,060722,000.0,W*7B
$GPRMC,131202.357,A,5544.843,N,03745.565,E,009.7,273.1,060722,000.0,W*7C
$GPRMC,131203.357,A,5544.843,N,03745.561,E,009.7,273.1,060722,000.0,W*79
$GPRMC,131204.357,A,5544.843,N,03745.556,E,009.7,273.1,060722,000.0,W*7A
$GPRMC,131205.357,A,5544.844,N,03745.551,E,009.7,273.1,060722,000.0,W*7B
$GPRMC,131206.357,A,5544.844,N,03745.546,E,009.7,273.1,060722,000.0,W*7E
$GPRMC,131207.357,A,5544.844,N,03745.542,E,009.7,273.1,060722,000.0,W*7B
$GPRMC,131208.357,A,5544.844,N,03745.537,E,009.7,273.1,060722,000.0,W*76
$GPRMC,131209.357,A,5544.845,N,03745.532,E,009.7,273.1,060722,000.0,W*73
$GPRMC,131210.357,A,5544.845,N,03745.527,E,009.7,273.1,060722,000.0,W*7F
$GPRMC,131211.357,A,5544.845,N,03745.523,E,009.7,273.1,060722,000.0,W*7A
$GPRMC,131212.357,A,5544.845,N,03745.518,E,009.7,273.1,060722,000.0,W*71
$GPRMC,131213.357,A,5544.846,N,03745.513,E,009.7,273.1,060722,000.0,W*78
$GPRMC,131214.357,A,5544.846,N,03745.508,E,009.7,273.1,060722,000.0,W*75
$GPRMC,131215.357,A,5544.846,N,03745.503,E,009.7,273.1,060722,000.0,W*7F
$GPRMC,131216.357,A,5544.846,N,03745.499,E,009.7,273.1,060722,000.0,W*7E
$GPRMC,131217.357,A,5544.847,N,03745.494,E,009.7,273.1,060722,000.0,W*73
$GPRMC,131218.357,A,5544.847,N,03745.489,E,009.7,273.1,060722,000.0,W*70
$GPRMC,131219.357,A,5544.847,N,03745.484,E,009.7,273.1,060722,000.0,W*7C
$GPRMC,131220.357,A,5544.847,N,03745.480,E,009.7,273.1,060722,000.0,W*72
$GPRMC,131221.357,A,5544.848,N,03745.475,E,009.7,273.1,060722,000.0,W*76
$GPRMC,131222.357,A,5544.848,N,03745.470,E,009.7,273.1,060722,000.0,W*70
$GPRMC,131223.357,A,5544.848,N,03745.465,E,009.7,273.1,060722,000.0,W*75
$GPRMC,131224.357,A,5544.848,N,03745.460,E,009.7,273.1,060722,000.0,W*77
$GPRMC,131225.357,A,5544.849,N,03745.456,E,009.7,273.1,060722,000.0,W*72
$GPRMC,131226.357,A,5544.849,N,03745.451,E,009.7,273.1,060722,000.0,W*76
$GPRMC,131227.357,A,5544.849,N,03745.446,E,009.7,273.1,060722,000.0,W*71
$GPRMC,131228.357,A,5544.849,N,03745.441,E,009.7,273.1,060722,000.0,W*79
$GPRMC,131229.357,A,5544.850,N,03745.437,E,009.7,276.5,060722,000.0,W*70
$GPRMC,131230.357,A,5544.850,N,03745.432,E,009.7,276.5,060722,000.0,W*7D
$GPRMC,131231.357,A,5544.851,N,03745.427,E,009.7,276.5,060722,000.0,W*79
$GPRMC,131232.357,A,5544.851,N,03745.423,E,009.7,276.5,060722,000.0,W*7E
$GPRMC,131233.357,A,5544.852,N,03745.418,E,009.7,276.5,060722,000.0,W*74
$GPRMC,131234.357,A,5544.852,N,03745.413,E,009.7,276.5,060722,000.0,W*78
$GPRMC,131235.357,A,5544.853,N,03745.408,E,009.7,276.5,060722,000.0,W*72
$GPRMC,131236.357,A,5544.853,N,03745.404,E,009.7,274.3,060722,000.0,W*79
$GPRMC,131237.357,A,5544.854,N,03745.399,E,009.7,274.3,060722,000.0,W*7C
$GPRMC,131238.357,A,5544.854,N,03745.394,E,009.7,274.3,060722,000.0,W*7E
$GPRMC,131239.357,A,5544.854,N,03745.389,E,009.7,274.3,060722,000.0,W*73
$GPRMC,131240.357,A,5544.855,N,03745.385,E,009.7,274.3,060722,000.0,W*70
$GPRMC,131241.357,A,5544.855,N,03745.380,E,009.7,274.3,060722,000.0,W*74
$GPRMC,131242.357,A,5544.856,N,03745.375,E,009.7,274.3,060722,000.0,W*7E
$GPRMC,131243.357,A,5544.856,N,03745.370,E,009.7,274.3,060722,000.0,W*7A
$GPRMC,131244.357,A,5544.856,N,03745.366,E,009.7,274.3,060722,000.0,W*7A
$GPRMC,131245.357,A,5544.857,N,03745.361,E,009.7,274.3,060722,000.0,W*7D
$GPRMC,131246.357,A,5544.857,N,03745.356,E,009.7,274.3,060722,000.0,W*7A
$GPRMC,131247.357,A,5544.857,N,03745.351,E,009.7,274.3,060722,000.0,W*7C
$GPRMC,131248.357,A,5544.858,N,03745.347,E,009.7,274.3,060722,000.0,W*7B
$GPRMC,131249.357,A,5544.858,N,03745.342,E,009.7,274.3,060722,000.0,W*7F
$GPRMC,131250.357,A,5544.858,N,03745.337,E,009.7,274.3,060722,000.0,W*75
$GPRMC,131251.357,A,5544.859,N,03745.332,E,009.7,274.3,060722,000.0,W*70
$GPRMC,131252.357,A,5544.859,N,03745.328,E,009.7,274.3,060722,000.0,W*78
$GPRMC,131253.357,A,5544.859,N,03745.323,E,009.7,274.3,060722,000.0,W*72
$GPRMC,131254.357,A,5544.860,N,03745.318,E,009.7,274.3,060722,000.0,W*77
$GPRMC,131255.357,A,5544.860,N,03745.313,E,009.7,274.3,060722,000.0,W*7D
$GPRMC,131256.357,A,5544.860,N,03745.309,E,009.7,274.3,060722,000.0,W*75
$GPRMC,131257.357,A,5544.861,N,03745.304,E,009.7,274.3,060722,000.0,W*78
$GPRMC,131258.357,A,5544.861,N,03745.299,E,009.7,274.3,060722,000.0,W*72
$GPRMC,131259.357,A,5544.862,N,03745.294,E,009.7,274.3,060722,000.0,W*7D
$GPRMC,131300.357,A,5544.862,N,03745.290,E,009.7,274.3,060722,000.0,W*74
$GPRMC,131301.357,A,5544.862,N,03745.285,E,009.7,274.3,060722,000.0,W*71
$GPRMC,131302.357,A,5544.863,N,03745.280,E,009.7,274.3,060722,000.0,W*76
$GPRMC,131303.357,A,5544.863,N,03745.275,E,009.7,274.3,060722,000.0,W*7D
$GPRMC,131304.357,A,5544.863,N,03745.271,E,009.7,274.3,060722,000.0,W*7E
$GPRMC,131305.357,A,5544.864,N,03745.266,E,009.7,274.3,060722,000.0,W*7E
$GPRMC,131306.357,A,5544.864,N,03745.261,E,009.7,274.3,060722,000.0,W*7A
$GPRMC,131307.357,A,5544.864,N,03745.256,E,009.7,274.3,060722,000.0,W*7F
$GPRMC,131308.357,A,5544.865,N,03745.252,E,009.7,274.3,060722,000.0,W*75
$GPRMC,131309.357,A,5544.865,N,03745.247,E,009.7,274.3,060722,000.0,W*70
$GPRMC,131310.357,A,5544.865,N,03745.242,E,009.7,274.3,060722,000.0,W*7D
$GPRMC,131311.357,A,5544.866,N,03745.237,E,009.7,274.3,060722,000.0,W*7D
$GPRMC,131312.357,A,5544.866,N,03745.233,E,009.7,274.3,060722,000.0,W*7A
$GPRMC,131313.357,A,5544.866,N,03745.228,E,009.7,274.3,060722,000.0,W*71
$GPRMC,131314.357,A,5544.867,N,03745.223,E,009.7,274.3,060722,000.0,W*7C
$GPRMC,131315.357,A,5544.867,N,03745.218,E,009.7,274.3,060722,000.0,W*75
$GPRMC,131316.357,A,5544.867,N,03745.214,E,009.7,274.3,060722,000.0,W*7A
$GPRMC,131317.357,A,5544.868,N,03745.209,E,009.7,274.3,060722,000.0,W*78
$GPRMC,131318.357,A,5544.868,N,03745.204,E,009.7,274.3,060722,000.0,W*7A
$GPRMC,131319.357,A,5544.869,N,03745.199,E,009.7,274.3,060722,000.0,W*7D
$GPRMC,131320.357,A,5544.869,N,03745.195,E,009.7,274.3,060722,000.0,W*7B
$GPRMC,131321.357,A,5544.869,N,03745.190,E,009.7,274.3,060722,000.0,W*7F
$GPRMC,131322.357,A,5544.870,N,03745.185,E,009.7,274.3,060722,000.0,W*70
$GPRMC,131323.357,A,5544.870,N,03745.180,E,009.7,274.3,060722,000.0,W*74
$GPRMC,131324.357,A,5544.870,N,03745.176,E,009.7,278.0,060722,000.0,W*75
$GPRMC,131325.357,A,5544.871,N,03745.171,E,009.7,278.0,060722,000.0,W*72
$GPRMC,131326.357,A,5544.872,N,03745.166,E,009.7,278.0,060722,000.0,W*74
$GPRMC,131327.357,A,5544.872,N,03745.162,E,009.7,278.0,060722,000.0,W*71
$GPRMC,131328.357,A,5544.873,N,03745.157,E,009.7,278.0,060722,000.0,W*79
$GPRMC,131329.357,A,5544.874,N,03745.152,E,009.7,278.0,060722,000.0,W*7A
$GPRMC,131330.357,A,5544.874,N,03745.148,E,009.7,278.0,060722,000.0,W*79
$GPRMC,131331.357,A,5544.875,N,03745.143,E,009.7,278.0,060722,000.0,W*72
$GPRMC,131332.357,A,5544.876,N,03745.138,E,009.7,278.0,060722,000.0,W*7E
$GPRMC,131333.357,A,5544.876,N,03745.134,E,009.7,278.0,060722,000.0,W*73
$GPRMC,131334.357,A,5544.877,N,03745.129,E,009.7,278.0,060722,000.0,W*79
$GPRMC,131335.357,A,5544.877,N,03745.124,E,009.7,278.0,060722,000.0,W*75
$GPRMC,131336.357,A,5544.878,N,03745.120,E,009.7,278.0,060722,000.0,W*7D
$GPRMC,131337.357,A,5544.879,N,03745.115,E,009.7,278.0,060722,000.0,W*7B
$GPRMC,131338.357,A,5544.879,N,03745.110,E,009.7,278.0,060722,000.0,W*71
$GPRMC,131339.357,A,5544.880,N,03745.106,E,009.7,278.0,060722,000.0,W*71
$GPRMC,131340.357,A,5544.881,N,03745.101,E,009.7,278.0,060722,000.0,W*79
$GPRMC,131341.357,A,5544.881,N,03745.096,E,009.7,278.0,060722,000.0,W*77
$GPRMC,131342.357,A,5544.882,N,03745.092,E,009.7,278.0,060722,000.0,W*73
$GPRMC,131343.357,A,5544.883,N,03745.087,E,009.7,278.0,060722,000.0,W*77
$GPRMC,131344.357,A,5544.883,N,03745.083,E,009.7,278.0,060722,000.0,W*74
$GPRMC,131345.357,A,5544.884,N,03745.078,E,009.7,278.0,060722,000.0,W*76
$GPRMC,131346.357,A,5544.885,N,03745.073,E,009.7,278.0,060722,000.0,W*7F
$GPRMC,131347.357,A,5544.885,N,03745.069,E,009.7,278.0,060722,000.0,W*75
$GPRMC,131348.357,A,5544.886,N,03745.064,E,009.7,278.0,060722,000.0,W*74
$GPRMC,131349.357,A,5544.887,N,03745.059,E,009.7,278.0,060722,000.0,W*7A
$GPRMC,131350.357,A,5544.887,N,03745.055,E,009.7,278.0,060722,000.0,W*7E
$GPRMC,131351.357,A,5544.888,N,03745.050,E,009.7,273.1,060722,000.0,W*7F
$GPRMC,131352.357,A,5544.888,N,03745.045,E,009.7,273.1,060722,000.0,W*78
$GPRMC,131353.357,A,5544.888,N,03745.040,E,009.7,273.1,060722,000.0,W*7C
$GPRMC,131354.357,A,5544.889,N,03745.036,E,009.7,273.1,060722,000.0,W*7B
$GPRMC,131355.357,A,5544.889,N,03745.031,E,009.7,273.1,060722,000.0,W*7D
$GPRMC,131356.357,A,5544.889,N,03745.026,E,009.7,273.1,060722,000.0,W*78
$GPRMC,131357.357,A,5544.889,N,03745.021,E,009.7,261.0,060722,000.0,W*7C
$GPRMC,131358.357,A,5544.889,N,03745.017,E,009.7,261.0,060722,000.0,W*76
$GPRMC,131359.357,A,5544.888,N,03745.012,E,009.7,261.0,060722,000.0,W*73
$GPRMC,131400.357,A,5544.887,N,03745.007,E,009.7,261.0,060722,000.0,W*73
$GPRMC,131401.357,A,5544.886,N,03745.003,E,009.7,225.7,060722,000.0,W*70
$GPRMC,131402.357,A,5544.884,N,03745.000,E,009.7,225.7,060722,000.0,W*72
$GPRMC,131403.357,A,5544.882,N,03744.998,E,009.7,225.7,060722,000.0,W*7C
$GPRMC,131404.357,A,5544.879,N,03744.996,E,009.7,195.4,060722,000.0,W*7A
$GPRMC,131405.357,A,5544.877,N,03744.995,E,009.7,195.4,060722,000.0,W*76
$GPRMC,131406.357,A,5544.874,N,03744.994,E,009.7,195.4,060722,000.0,W*77
$GPRMC,131407.357,A,5544.871,N,03744.993,E,009.7,195.4,060722,000.0,W*74
$GPRMC,131408.357,A,5544.869,N,03744.993,E,009.7,095.6,060722,000.0,W*71
$GPRMC,131409.357,A,5544.868,N,03744.997,E,009.7,095.6,060722,000.0,W*75
$GPRMC,131410.357,A,5544.868,N,03745.002,E,009.7,095.6,060722,000.0,W*79
$GPRMC,131411.357,A,5544.867,N,03745.007,E,009.7,095.6,060722,000.0,W*72
$GPRMC,131412.357,A,5544.867,N,03745.012,E,009.7,095.6,060722,000.0,W*75
$GPRMC,131413.357,A,5544.866,N,03745.016,E,009.7,095.6,060722,000.0,W*71
$GPRMC,131414.357,A,5544.866,N,03745.021,E,009.7,093.4,060722,000.0,W*76
$GPRMC,131415.357,A,5544.866,N,03745.026,E,009.7,093.4,060722,000.0,W*70
$GPRMC,131416.357,A,5544.865,N,03745.031,E,009.7,093.4,060722,000.0,W*76
$GPRMC,131417.357,A,5544.865,N,03745.035,E,009.7,093.4,060722,000.0,W*73
$GPRMC,131418.357,A,5544.865,N,03745.040,E,009.7,093.4,060722,000.0,W*7E
$GPRMC,131419.357,A,5544.865,N,03745.045,E,009.7,093.4,060722,000.0,W*7A
$GPRMC,131420.357,A,5544.864,N,03745.050,E,009.7,093.4,060722,000.0,W*75
$GPRMC,131421.357,A,5544.864,N,03745.054,E,009.7,092.4,060722,000.0,W*71
$GPRMC,131422.357,A,5544.864,N,03745.059,E,009.7,092.4,060722,000.0,W*7F
$GPRMC,131423.357,A,5544.864,N,03745.064,E,009.7,092.4,060722,000.0,W*70
$GPRMC,131424.357,A,5544.863,N,03745.069,E,009.7,092.4,060722,000.0,W*7D
$GPRMC,131425.357,A,5544.863,N,03745.074,E,009.7,092.4,060722,000.0,W*70
$GPRMC,131426.357,A,5544.863,N,03745.078,E,009.7,092.4,060722,000.0,W*7F
$GPRMC,131427.357,A,5544.863,N,03745.083,E,009.7,092.4,060722,000.0,W*7A
$GPRMC,131428.357,A,5544.863,N,03745.088,E,009.7,092.4,060722,000.0,W*7E
$GPRMC,131429.357,A,5544.862,N,03745.093,E,009.7,092.4,060722,000.0,W*74
$GPRMC,131430.357,A,5544.862,N,03745.097,E,009.7,092.4,060722,000.0,W*78
$GPRMC,131431.357,A,5544.862,N,03745.102,E,009.7,092.4,060722,000.0,W*74
$GPRMC,131432.357,A,5544.862,N,03745.107,E,009.7,092.4,060722,000.0,W*72
$GPRMC,131433.357,A,5544.862,N,03745.112,E,009.7,092.4,060722,000.0,W*77
$GPRMC,131434.357,A,5544.861,N,03745.117,E,009.7,092.4,060722,000.0,W*76
$GPRMC,131435.357,A,5544.861,N,03745.121,E,009.7,092.4,060722,000.0,W*72
$GPRMC,131436.357,A,5544.861,N,03745.126,E,009.7,092.4,060722,000.0,W*76
$GPRMC,131437.357,A,5544.861,N,03745.131,E,009.7,092.4,060722,000.0,W*71
$GPRMC,131438.357,A,5544.861,N,03745.136,E,009.7,092.4,060722,000.0,W*79
$GPRMC,131439.357,A,5544.860,N,03745.140,E,009.7,092.4,060722,000.0,W*78
$GPRMC,131440.357,A,5544.860,N,03745.145,E,009.7,092.4,060722,000.0,W*73
$GPRMC,131441.357,A,5544.860,N,03745.150,E,009.7,092.4,060722,000.0,W*76
$GPRMC,131442.357,A,5544.860,N,03745.155,E,009.7,092.4,060722,000.0,W*70
$GPRMC,131443.357,A,5544.860,N,03745.160,E,009.7,092.4,060722,000.0,W*77
$GPRMC,131444.357,A,5544.859,N,03745.164,E,009.7,092.4,060722,000.0,W*7E
$GPRMC,131445.357,A,5544.859,N,03745.169,E,009.7,092.4,060722,000.0,W*72
$GPRMC,131446.357,A,5544.859,N,03745.174,E,009.7,092.4,060722,000.0,W*7D
$GPRMC,131447.357,A,5544.859,N,03745.179,E,009.7,092.4,060722,000.0,W*71
$GPRMC,131448.357,A,5544.859,N,03745.183,E,009.7,092.4,060722,000.0,W*7B
$GPRMC,131449.357,A,5544.858,N,03745.188,E,009.7,092.4,060722,000.0,W*70
$GPRMC,131450.357,A,5544.858,N,03745.193,E,009.7,093.1,060722,000.0,W*76
$GPRMC,131451.357,A,5544.858,N,03745.198,E,009.7,093.1,060722,000.0,W*7C
$GPRMC,131452.357,A,5544.858,N,03745.203,E,009.7,093.1,060722,000.0,W*7E
$GPRMC,131453.357,A,5544.857,N,03745.207,E,009.7,093.1,060722,000.0,W*74
$GPRMC,131454.357,A,5544.857,N,03745.212,E,009.7,093.1,060722,000.0,W*77
$GPRMC,131455.357,A,5544.857,N,03745.217,E,009.7,093.1,060722,000.0,W*73
$GPRMC,131456.357,A,5544.857,N,03745.222,E,009.7,093.1,060722,000.0,W*76
$GPRMC,131457.357,A,5544.856,N,03745.226,E,009.7,093.1,060722,000.0,W*72
$GPRMC,131458.357,A,5544.856,N,03745.231,E,009.7,093.1,060722,000.0,W*7B
$GPRMC,131459.357,A,5544.856,N,03745.236,E,009.7,093.1,060722,000.0,W*7D
$GPRMC,131500.357,A,5544.856,N,03745.241,E,009.7,093.1,060722,000.0,W*70
$GPRMC,131501.357,A,5544.855,N,03745.246,E,009.7,093.1,060722,000.0,W*75
$GPRMC,131502.357,A,5544.855,N,03745.250,E,009.7,093.1,060722,000.0,W*71
$GPRMC,131503.357,A,5544.855,N,03745.255,E,009.7,093.1,060722,000.0,W*75
$GPRMC,131504.357,A,5544.855,N,03745.260,E,009.7,093.1,060722,000.0,W*74
$GPRMC,131505.357,A,5544.854,N,03745.265,E,009.7,093.1,060722,000.0,W*71
$GPRMC,131506.357,A,5544.854,N,03745.269,E,009.7,093.1,060722,000.0,W*7E
$GPRMC,131507.357,A,5544.854,N,03745.274,E,009.7,093.1,060722,000.0,W*73
$GPRMC,131508.357,A,5544.854,N,03745.279,E,009.7,093.1,060722,000.0,W*71
$GPRMC,131509.357,A,5544.853,N,03745.284,E,009.7,093.1,060722,000.0,W*75
$GPRMC,131510.357,A,5544.853,N,03745.288,E,009.7,093.1,060722,000.0,W*71
$GPRMC,131511.357,A,5544.853,N,03745.293,E,009.7,093.1,060722,000.0,W*7A
$GPRMC,131512.357,A,5544.853,N,03745.298,E,009.7,093.1,060722,000.0,W*72
$GPRMC,131513.357,A,5544.852,N,03745.303,E,009.7,093.1,060722,000.0,W*71
$GPRMC,131514.357,A,5544.852,N,03745.308,E,009.7,093.1,060722,000.0,W*7D
$GPRMC,131515.357,A,5544.852,N,03745.312,E,009.7,093.1,060722,000.0,W*77
$GPRMC,131516.357,A,5544.852,N,03745.317,E,009.7,093.1,060722,000.0,W*71
$GPRMC,131517.357,A,5544.851,N,03745.322,E,009.7,093.1,060722,000.0,W*75
$GPRMC,131518.357,A,5544.851,N,03745.327,E,009.7,093.1,060722,000.0,W*7F
$GPRMC,131519.357,A,5544.851,N,03745.331,E,009.7,093.1,060722,000.0,W*79
$GPRMC,131520.357,A,5544.850,N,03745.336,E,009.7,093.1,060722,000.0,W*75
$GPRMC,131521.357,A,5544.850,N,03745.341,E,009.7,093.1,060722,000.0,W*74
$GPRMC,131522.357,A,5544.850,N,03745.346,E,009.7,093.1,060722,000.0,W*70
$GPRMC,131523.357,A,5544.850,N,03745.351,E,009.7,093.1,060722,000.0,W*77
$GPRMC,131524.357,A,5544.849,N,03745.355,E,009.7,093.1,060722,000.0,W*7C
$GPRMC,131525.357,A,5544.849,N,03745.360,E,009.7,093.1,060722,000.0,W*7B
$GPRMC,131526.357,A,5544.849,N,03745.365,E,009.7,093.1,060722,000.0,W*7D
$GPRMC,131527.357,A,5544.849,N,03745.370,E,009.7,093.1,060722,000.0,W*78
$GPRMC,131528.357,A,5544.848,N,03745.374,E,009.7,093.1,060722,000.0,W*72
$GPRMC,131529.357,A,5544.848,N,03745.379,E,009.7,093.1,060722,000.0,W*7E
$GPRMC,131530.357,A,5544.848,N,03745.384,E,009.7,093.1,060722,000.0,W*74
$GPRMC,131531.357,A,5544.848,N,03745.389,E,009.7,093.1,060722,000.0,W*78
$GPRMC,131532.357,A,5544.847,N,03745.393,E,009.7,093.1,060722,000.0,W*7F
$GPRMC,131533.357,A,5544.847,N,03745.398,E,009.7,093.1,060722,000.0,W*75
$GPRMC,131534.357,A,5544.847,N,03745.403,E,009.7,093.1,060722,000.0,W*77
$GPRMC,131535.357,A,5544.847,N,03745.408,E,009.7,093.1,060722,000.0,W*7D
$GPRMC,131536.357,A,5544.846,N,03745.413,E,009.7,093.1,060722,000.0,W*75
$GPRMC,131537.357,A,5544.846,N,03745.417,E,009.7,093.1,060722,000.0,W*70
$GPRMC,131538.357,A,5544.846,N,03745.422,E,009.7,093.1,060722,000.0,W*79
$GPRMC,131539.357,A,5544.846,N,03745.427,E,009.7,093.1,060722,000.0,W*7D
$GPRMC,131540.357,A,5544.845,N,03745.432,E,009.7,093.1,060722,000.0,W*74
$GPRMC,131541.357,A,5544.845,N,03745.436,E,009.7,328.7,060722,000.0,W*74
$GPRMC,131542.357,A,5544.848,N,03745.435,E,009.7,328.7,060722,000.0,W*79
$GPRMC,131543.357,A,5544.850,N,03745.433,E,009.7,328.7,060722,000.0,W*77
$GPRMC,131544.357,A,5544.853,N,03745.432,E,009.7,328.7,060722,000.0,W*72
$GPRMC,131545.357,A,5544.855,N,03745.430,E,009.7,328.7,060722,000.0,W*77
$GPRMC,131546.357,A,5544.858,N,03745.429,E,009.7,328.7,060722,000.0,W*71
$GPRMC,131547.357,A,5544.860,N,03745.427,E,009.7,328.7,060722,000.0,W*75
$GPRMC,131548.357,A,5544.863,N,03745.425,E,009.7,328.7,060722,000.0,W*7B
$GPRMC,131549.357,A,5544.865,N,03745.424,E,009.7,328.7,060722,000.0,W*7D
$GPRMC,131550.357,A,5544.868,N,03745.422,E,009.7,328.7,060722,000.0,W*7E
$GPRMC,131551.357,A,5544.871,N,03745.421,E,009.7,328.7,060722,000.0,W*74
$GPRMC,131552.357,A,5544.873,N,03745.419,E,009.7,328.7,060722,000.0,W*7E
$GPRMC,131553.357,A,5544.876,N,03745.418,E,009.7,328.7,060722,000.0,W*7B
$GPRMC,131554.357,A,5544.878,N,03745.416,E,009.7,328.7,060722,000.0,W*7C
$GPRMC,131555.357,A,5544.881,N,03745.415,E,009.7,328.7,060722,000.0,W*78
$GPRMC,131556.357,A,5544.883,N,03745.413,E,009.7,328.7,060722,000.0,W*7F
$GPRMC,131557.357,A,5544.886,N,03745.411,E,009.7,328.7,060722,000.0,W*79
$GPRMC,131558.357,A,5544.888,N,03745.410,E,009.7,328.7,060722,000.0,W*79
$GPRMC,131559.357,A,5544.891,N,03745.408,E,009.7,328.7,060722,000.0,W*79
$GPRMC,131600.357,A,5544.894,N,03745.407,E,009.7,328.7,060722,000.0,W*7C
$GPRMC,131601.357,A,5544.896,N,03745.405,E,009.7,328.7,060722,000.0,W*7D
$GPRMC,131602.357,A,5544.899,N,03745.404,E,009.7,328.7,060722,000.0,W*70
$GPRMC,131603.357,A,5544.901,N,03745.402,E,009.7,328.7,060722,000.0,W*77
$GPRMC,131604.357,A,5544.904,N,03745.401,E,009.7,328.7,060722,000.0,W*76
$GPRMC,131605.357,A,5544.906,N,03745.399,E,009.7,328.7,060722,000.0,W*73
$GPRMC,131606.357,A,5544.909,N,03745.397,E,009.7,328.7,060722,000.0,W*71
$GPRMC,131607.357,A,5544.911,N,03745.396,E,009.7,328.7,060722,000.0,W*78
$GPRMC,131608.357,A,5544.914,N,03745.394,E,009.7,328.7,060722,000.0,W*70
$GPRMC,131609.357,A,5544.917,N,03745.393,E,009.7,328.7,060722,000.0,W*75
$GPRMC,131610.357,A,5544.919,N,03745.391,E,009.7,328.7,060722,000.0,W*71
$GPRMC,131611.357,A,5544.922,N,03745.390,E,009.7,328.7,060722,000.0,W*79
$GPRMC,131612.357,A,5544.924,N,03745.388,E,009.7,328.7,060722,000.0,W*75
$GPRMC,131613.357,A,5544.927,N,03745.386,E,009.7,328.7,060722,000.0,W*79
$GPRMC,131614.357,A,5544.929,N,03745.385,E,009.7,328.7,060722,000.0,W*73
$GPRMC,131615.357,A,5544.932,N,03745.383,E,009.7,328.7,060722,000.0,W*7E
$GPRMC,131616.357,A,5544.934,N,03745.382,E,009.7,328.7,060722,000.0,W*7A
$GPRMC,131617.357,A,5544.937,N,03745.380,E,009.7,328.7,060722,000.0,W*7A
$GPRMC,131618.357,A,5544.939,N,03745.379,E,009.7,328.7,060722,000.0,W*7D
$GPRMC,131619.357,A,5544.942,N,03745.377,E,009.7,328.7,060722,000.0,W*7E
$GPRMC,131620.357,A,5544.945,N,03745.376,E,009.7,328.7,060722,000.0,W*72
$GPRMC,131621.357,A,5544.947,N,03745.374,E,009.7,328.7,060722,000.0,W*73
$GPRMC,131622.357,A,5544.950,N,03745.372,E,009.7,328.7,060722,000.0,W*70
$GPRMC,131623.357,A,5544.952,N,03745.371,E,009.7,328.7,060722,000.0,W*70
$GPRMC,131624.357,A,5544.955,N,03745.369,E,009.7,328.7,060722,000.0,W*79
$GPRMC,131625.357,A,5544.957,N,03745.368,E,009.7,328.7,060722,000.0,W*7B
$GPRMC,131626.357,A,5544.960,N,03745.366,E,009.7,328.7,060722,000.0,W*72
$GPRMC,131627.357,A,5544.962,N,03745.365,E,009.7,328.7,060722,000.0,W*72
$GPRMC,131628.357,A,5544.965,N,03745.363,E,009.7,328.7,060722,000.0,W*7C
$GPRMC,131629.357,A,5544.968,N,03745.362,E,009.7,328.7,060722,000.0,W*71
$GPRMC,131630.357,A,5544.970,N,03745.360,E,009.7,328.7,060722,000.0,W*72
$GPRMC,131631.357,A,5544.973,N,03745.358,E,009.7,328.7,060722,000.0,W*7B
$GPRMC,131632.357,A,5544.975,N,03745.357,E,009.7,328.7,060722,000.0,W*71
$GPRMC,131633.357,A,5544.978,N,03745.355,E,009.7,328.7,060722,000.0,W*7F
$GPRMC,131634.357,A,5544.980,N,03745.354,E,009.7,328.7,060722,000.0,W*7E
$GPRMC,131635.357,A,5544.983,N,03745.352,E,009.7,328.7,060722,000.0,W*7A
$GPRMC,131636.357,A,5544.985,N,03745.351,E,009.7,328.7,060722,000.0,W*7C
$GPRMC,131637.357,A,5544.988,N,03745.349,E,009.7,328.7,060722,000.0,W*79
$GPRMC,131638.357,A,5544.990,N,03745.347,E,009.7,328.7,060722,000.0,W*71
$GPRMC,131639.357,A,5544.993,N,03745.346,E,009.7,328.7,060722,000.0,W*72
$GPRMC,131640.357,A,5544.996,N,03745.344,E,009.7,328.7,060722,000.0,W*7B
$GPRMC,131641.357,A,5544.998,N,03745.343,E,009.7,328.7,060722,000.0,W*73
$GPRMC,131642.357,A,5545.001,N,03745.341,E,009.7,328.7,060722,000.0,W*7A
$GPRMC,131643.357,A,5545.003,N,03745.340,E,009.7,328.7,060722,000.0,W*78
$GPRMC,131644.357,A,5545.006,N,03745.338,E,009.7,328.7,060722,000.0,W*75
$GPRMC,131645.357,A,5545.008,N,03745.337,E,009.7,328.7,060722,000.0,W*75
$GPRMC,131646.357,A,5545.011,N,03745.335,E,009.7,328.7,060722,000.0,W*7C
$GPRMC,131647.357,A,5545.013,N,03745.333,E,009.7,328.7,060722,000.0,W*79
$GPRMC,131648.357,A,5545.016,N,03745.332,E,009.7,328.7,060722,000.0,W*72
$GPRMC,131649.357,A,5545.019,N,03745.330,E,009.7,328.7,060722,000.0,W*7E
$GPRMC,131650.357,A,5545.021,N,03745.329,E,009.7,328.7,060722,000.0,W*75
$GPRMC,131651.357,A,5545.024,N,03745.327,E,009.7,328.7,060722,000.0,W*7F
$GPRMC,131652.357,A,5545.026,N,03745.326,E,009.7,328.7,060722,000.0,W*7F
$GPRMC,131653.357,A,5545.029,N,03745.324,E,009.7,328.7,060722,000.0,W*73
$GPRMC,131654.357,A,5545.031,N,03745.323,E,009.7,328.7,060722,000.0,W*7A
$GPRMC,131655.357,A,5545.034,N,03745.321,E,009.7,328.7,060722,000.0,W*7C
$GPRMC,131656.357,A,5545.036,N,03745.319,E,009.7,328.7,060722,000.0,W*76
$GPRMC,131657.357,A,5545.039,N,03745.318,E,009.7,328.7,060722,000.0,W*79
$GPRMC,131658.357,A,5545.042,N,03745.316,E,009.7,328.7,060722,000.0,W*74
$GPRMC,131659.357,A,5545.044,N,03745.315,E,009.7,328.7,060722,000.0,W*70
$GPRMC,131700.357,A,5545.047,N,03745.313,E,009.7,328.7,060722,000.0,W*78
$GPRMC,131701.357,A,5545.049,N,03745.312,E,009.7,328.7,060722,000.0,W*76
$GPRMC,131702.357,A,5545.052,N,03745.310,E,009.7,328.7,060722,000.0,W*7D
$GPRMC,131703.357,A,5545.054,N,03745.308,E,009.7,328.7,060722,000.0,W*73
$GPRMC,131704.357,A,5545.057,N,03745.307,E,009.7,328.7,060722,000.0,W*78
$GPRMC,131705.357,A,5545.059,N,03745.305,E,009.7,328.7,060722,000.0,W*75
$GPRMC,131706.357,A,5545.062,N,03745.304,E,009.7,328.7,060722,000.0,W*7F
$GPRMC,131707.357,A,5545.064,N,03745.302,E,009.7,328.7,060722,000.0,W*7E
$GPRMC,131708.357,A,5545.067,N,03745.301,E,009.7,328.7,060722,000.0,W*71
$GPRMC,131709.357,A,5545.070,N,03745.299,E,009.7,328.7,060722,000.0,W*76
$GPRMC,131710.357,A,5545.072,N,03745.298,E,009.7,328.7,060722,000.0,W*7D
$GPRMC,131711.357,A,5545.075,N,03745.296,E,009.7,328.7,060722,000.0,W*75
$GPRMC,131712.357,A,5545.077,N,03745.294,E,009.7,328.7,060722,000.0,W*76
$GPRMC,131713.357,A,5545.080,N,03745.293,E,009.7,079.6,060722,000.0,W*7E
$GPRMC,131714.357,A,5545.081,N,03745.297,E,009.7,079.6,060722,000.0,W*7C
$GPRMC,131715.357,A,5545.081,N,03745.302,E,009.7,079.6,060722,000.0,W*70
$GPRMC,131716.357,A,5545.082,N,03745.307,E,009.7,079.6,060722,000.0,W*75
$GPRMC,131717.357,A,5545.083,N,03745.311,E,009.7,079.6,060722,000.0,W*72
$GPRMC,131718.357,A,5545.084,N,03745.316,E,009.7,079.6,060722,000.0,W*7D
$GPRMC,131719.357,A,5545.085,N,03745.320,E,009.7,079.6,060722,000.0,W*78
$GPRMC,131720.357,A,5545.086,N,03745.325,E,009.7,079.6,060722,000.0,W*74
$GPRMC,131721.357,A,5545.086,N,03745.329,E,009.7,079.6,060722,000.0,W*79
$GPRMC,131722.357,A,5545.087,N,03745.334,E,009.7,079.6,060722,000.0,W*77
$GPRMC,131723.357,A,5545.088,N,03745.339,E,009.7,079.6,060722,000.0,W*74
$GPRMC,131724.357,A,5545.089,N,03745.343,E,009.7,079.6,060722,000.0,W*7F
$GPRMC,131725.357,A,5545.090,N,03745.348,E,009.7,079.6,060722,000.0,W*7D
$GPRMC,131726.357,A,5545.091,N,03745.352,E,009.7,079.6,060722,000.0,W*74
$GPRMC,131727.357,A,5545.091,N,03745.357,E,009.7,079.6,060722,000.0,W*70
$GPRMC,131728.357,A,5545.092,N,03745.361,E,009.7,079.6,060722,000.0,W*79
$GPRMC,131729.357,A,5545.093,N,03745.366,E,009.7,079.6,060722,000.0,W*7E
$GPRMC,131730.357,A,5545.094,N,03745.370,E,009.7,079.6,060722,000.0,W*76
$GPRMC,131731.357,A,5545.095,N,03745.375,E,009.7,079.6,060722,000.0,W*73
$GPRMC,131732.357,A,5545.096,N,03745.380,E,009.7,079.6,060722,000.0,W*79
$GPRMC,131733.357,A,5545.096,N,03745.384,E,009.7,079.6,060722,000.0,W*7C
$GPRMC,131734.357,A,5545.097,N,03745.389,E,009.7,079.6,060722,000.0,W*77
$GPRMC,131735.357,A,5545.098,N,03745.393,E,009.7,079.6,060722,000.0,W*72
$GPRMC,131736.357,A,5545.099,N,03745.398,E,009.7,079.6,060722,000.0,W*7B
$GPRMC,131737.357,A,5545.100,N,03745.402,E,009.7,079.8,060722,000.0,W*71
$GPRMC,131738.357,A,5545.101,N,03745.407,E,009.7,079.8,060722,000.0,W*7A
$GPRMC,131739.357,A,5545.101,N,03745.411,E,009.7,079.8,060722,000.0,W*7C
$GPRMC,131740.357,A,5545.102,N,03745.416,E,009.7,079.8,060722,000.0,W*76
$GPRMC,131741.357,A,5545.103,N,03745.421,E,009.7,079.8,060722,000.0,W*72
$GPRMC,131742.357,A,5545.104,N,03745.425,E,009.7,079.8,060722,000.0,W*72
$GPRMC,131743.357,A,5545.105,N,03745.430,E,009.7,079.8,060722,000.0,W*76
$GPRMC,131744.357,A,5545.105,N,03745.434,E,009.7,079.8,060722,000.0,W*75
$GPRMC,131745.357,A,5545.106,N,03745.439,E,009.7,079.8,060722,000.0,W*7A
$GPRMC,131746.357,A,5545.107,N,03745.443,E,009.7,148.3,060722,000.0,W*7D
$GPRMC,131747.357,A,5545.105,N,03745.445,E,009.7,148.3,060722,000.0,W*78
$GPRMC,131748.357,A,5545.102,N,03745.447,E,009.7,148.3,060722,000.0,W*72
$GPRMC,131749.357,A,5545.099,N,03745.448,E,009.7,148.3,060722,000.0,W*7F
$GPRMC,131750.357,A,5545.097,N,03745.450,E,009.7,148.3,060722,000.0,W*70
$GPRMC,131751.357,A,5545.094,N,03745.451,E,009.7,148.3,060722,000.0,W*73
$GPRMC,131752.357,A,5545.092,N,03745.453,E,009.7,148.3,060722,000.0,W*74
$GPRMC,131753.357,A,5545.089,N,03745.455,E,009.7,148.3,060722,000.0,W*79
$GPRMC,131754.357,A,5545.087,N,03745.456,E,009.7,148.3,060722,000.0,W*73
$GPRMC,131755.357,A,5545.084,N,03745.458,E,009.7,148.3,060722,000.0,W*7F
$GPRMC,131756.357,A,5545.082,N,03745.459,E,009.7,148.3,060722,000.0,W*7B
$GPRMC,131757.357,A,5545.079,N,03745.461,E,009.7,148.3,060722,000.0,W*75
$GPRMC,131758.357,A,5545.077,N,03745.462,E,009.7,148.3,060722,000.0,W*77
$GPRMC,131759.357,A,5545.074,N,03745.464,E,009.7,148.3,060722,000.0,W*73
$GPRMC,131800.357,A,5545.071,N,03745.466,E,009.7,148.3,060722,000.0,W*77
