$GPGGA,130527.357,5545.109,N,03745.576,E,1,12,1.0,0.0,M,0.0,M,,*65
$GPGSA,A,3,01,02,03,04,05,06,07,08,09,10,11,12,1.0,1.0,1.0*30
$GPRMC,130527.357,A,5545.109,N,03745.576,E,009.7,078.8,060722,000.0,W*79
$GPGGA,130528.357,5545.110,N,03745.581,E,1,12,1.0,0.0,M,0.0,M,,*6A
$GPGSA,A,3,01,02,03,04,05,06,07,08,09,10,11,12,1.0,1.0,1.0*30
$GPRMC,130528.357,A,5545.110,N,03745.581,E,009.7,078.8,060722,000.0,W*76
$GPGGA,130529.357,5545.111,N,03745.585,E,1,12,1.0,0.0,M,0.0,M,,*6E
$GPGSA,A,3,01,02,03,04,05,06,07,08,09,10,11,12,1.0,1.0,1.0*30
$GPRMC,130529.357,A,5545.111,N,03745.585,E,009.7,078.8,060722,000.0,W*72
$GPGGA,130530.357,5545.112,N,03745.590,E,1,12,1.0,0.0,M,0.0,M,,*61
$GPGSA,A,3,01,02,03,04,05,06,07,08,09,10,11,12,1.0,1.0,1.0*30
$GPRMC,130530.357,A,5545.112,N,03745.590,E,009.7,078.8,060722,000.0,W*7D
$GPGGA,130531.357,5545.113,N,03745.594,E,1,12,1.0,0.0,M,0.0,M,,*65
$GPGSA,A,3,01,02,03,04,05,06,07,08,09,10,11,12,1.0,1.0,1.0*30
$GPRMC,130531.357,A,5545.113,N,03745.594,E,009.7,078.8,060722,000.0,W*79
$GPGGA,130532.357,5545.114,N,03745.599,E,1,12,1.0,0.0,M,0.0,M,,*6C
$GPGSA,A,3,01,02,03,04,05,06,07,08,09,10,11,12,1.0,1.0,1.0*30
$GPRMC,130532.357,A,5545.114,N,03745.599,E,009.7,078.8,060722,000.0,W*70
$GPGGA,130533.357,5545.115,N,03745.603,E,1,12,1.0,0.0,M,0.0,M,,*6C
$GPGSA,A,3,01,02,03,04,05,06,07,08,09,10,11,12,1.0,1.0,1.0*30
$GPRMC,130533.357,A,5545.115,N,03745.603,E,009.7,078.8,060722,000.0,W*70
$GPGGA,130534.357,5545.115,N,03745.608,E,1,12,1.0,0.0,M,0.0,M,,*60
$GPGSA,A,3,01,02,03,04,05,06,07,08,09,10,11,12,1.0,1.0,1.0*30
$GPRMC,130534.357,A,5545.115,N,03745.608,E,009.7,078.8,060722,000.0,W*7C
$GPGGA,130535.357,5545.116,N,03745.612,E,1,12,1.0,0.0,M,0.0,M,,*69
$GPGSA,A,3,01,02,03,04,05,06,07,08,09,10,11,12,1.0,1.0,1.0*30
$GPRMC,130535.357,A,5545.116,N,03745.612,E,009.7,078.8,060722,000.0,W*75
$GPGGA,130536.357,5545.117,N,03745.617,E,1,12,1.0,0.0,M,0.0,M,,*6E
$GPGSA,A,3,01,02,03,04,05,06,07,08,09,10,11,12,1.0,1.0,1.0*30
$GPRMC,130536.357,A,5545.117,N,03745.617,E,009.7,078.8,060722,000.0,W*72
$GPGGA,130537.357,5545.118,N,03745.621,E,1,12,1.0,0.0,M,0.0,M,,*65
$GPGSA,A,3,01,02,03,04,05,06,07,08,09,10,11,12,1.0,1.0,1.0*30
$GPRMC,130537.357,A,5545.118,N,03745.621,E,009.7,078.8,060722,000.0,W*79
$GPGGA,130538.357,5545.119,N,03745.626,E,1,12,1.0,0.0,M,0.0,M,,*6C
$GPGSA,A,3,01,02,03,04,05,06,07,08,09,10,11,12,1.0,1.0,1.0*30
$GPRMC,130538.357,A,5545.119,N,03745.626,E,009.7,078.8,060722,000.0,W*70
$GPGGA,130539.357,5545.120,N,03745.630,E,1,12,1.0,0.0,M,0.0,M,,*60
$GPGSA,A,3,01,02,03,04,05,06,07,08,09,10,11,12,1.0,1.0,1.0*30
$GPRMC,130539.357,A,5545.120,N,03745.630,E,009.7,078.8,060722,000.0,W*7C
$GPGGA,130540.357,5545.121,N,03745.635,E,1,12,1.0,0.0,M,0.0,M,,*6A
$GPGSA,A,3,01,02,03,04,05,06,07,08,09,10,11,12,1.0,1.0,1.0*30
$GPRMC,130540.357,A,5545.121,N,03745.635,E,009.7,078.8,060722,000.0,W*76
$GPGGA,130541.357,5545.122,N,03745.639,E,1,12,1.0,0.0,M,0.0,M,,*64
$GPGSA,A,3,01,02,03,04,05,06,07,08,09,10,11,12,1.0,1.0,1.0*30
$GPRMC,130541.357,A,5545.122,N,03745.639,E,009.7,078.8,060722,000.0,W*78
$GPGGA,130542.357,5545.123,N,03745.644,E,1,12,1.0,0.0,M,0.0,M,,*6C
$GPGSA,A,3,01,02,03,04,05,06,07,08,09,10,11,12,1.0,1.0,1.0*30
$GPRMC,130542.357,A,5545.123,N,03745.644,E,009.7,078.8,060722,000.0,W*70
$GPGGA,130543.357,5545.123,N,03745.648,E,1,12,1.0,0.0,M,0.0,M,,*61
$GPGSA,A,3,01,02,03,04,05,06,07,08,09,10,11,12,1.0,1.0,1.0*30
$GPRMC,130543.357,A,5545.123,N,03745.648,E,009.7,078.8,060722,000.0,W*7D
$GPGGA,130544.357,5545.124,N,03745.653,E,1,12,1.0,0.0,M,0.0,M,,*6B
$GPGSA,A,3,01,02,03,04,05,06,07,08,09,10,11,12,1.0,1.0,1.0*30
$GPRMC,130544.357,A,5545.124,N,03745.653,E,009.7,078.8,060722,000.0,W*77
$GPGGA,130545.357,5545.125,N,03745.658,E,1,12,1.0,0.0,M,0.0,M,,*60
$GPGSA,A,3,01,02,03,04,05,06,07,08,09,10,11,12,1.0,1.0,1.0*30
$GPRMC,130545.357,A,5545.125,N,03745.658,E,009.7,325.3,060722,000.0,W*7C
$GPGGA,130546.357,5545.128,N,03745.656,E,1,12,1.0,0.0,M,0.0,M,,*60
$GPGSA,A,3,01,02,03,04,05,06,07,08,09,10,11,12,1.0,1.0,1.0*30
$GPRMC,130546.357,A,5545.128,N,03745.656,E,009.7,325.3,060722,000.0,W*7C
$GPGGA,130547.357,5545.130,N,03745.654,E,1,12,1.0,0.0,M,0.0,M,,*6A
$GPGSA,A,3,01,02,03,04,05,06,07,08,09,10,11,12,1.0,1.0,1.0*30
$GPRMC,130547.357,A,5545.130,N,03745.654,E,009.7,325.3,060722,000.0,W*76
$GPGGA,130548.357,5545.133,N,03745.652,E,1,12,1.0,0.0,M,0.0,M,,*60
$GPGSA,A,3,01,02,03,04,05,06,07,08,09,10,11,12,1.0,1.0,1.0*30
$GPRMC,130548.357,A,5545.133,N,03745.652,E,009.7,325.3,060722,000.0,W*7C
$GPGGA,130549.357,5545.135,N,03745.651,E,1,12,1.0,0.0,M,0.0,M,,*64
$GPGSA,A,3,01,02,03,04,05,06,07,08,09,10,11,12,1.0,1.0,1.0*30
$GPRMC,130549.357,A,5545.135,N,03745.651,E,009.7,325.3,060722,000.0,W*78
$GPGGA,130550.357,5545.138,N,03745.649,E,1,12,1.0,0.0,M,0.0,M,,*68
$GPGSA,A,3,01,02,03,04,05,06,07,08,09,10,11,12,1.0,1.0,1.0*30
$GPRMC,130550.357,A,5545.138,N,03745.649,E,009.7,325.3,060722,000.0,W*74
$GPGGA,130551.357,5545.140,N,03745.647,E,1,12,1.0,0.0,M,0.0,M,,*68
$GPGSA,A,3,01,02,03,04,05,06,07,08,09,10,11,12,1.0,1.0,1.0*30
$GPRMC,130551.357,A,5545.140,N,03745.647,E,009.7,325.3,060722,000.0,W*74
$GPGGA,130552.357,5545.143,N,03745.645,E,1,12,1.0,0.0,M,0.0,M,,*6A
$GPGSA,A,3,01,02,03,04,05,06,07,08,09,10,11,12,1.0,1.0,1.0*30
$GPRMC,130552.357,A,5545.143,N,03745.645,E,009.7,325.3,060722,000.0,W*76
$GPGGA,130553.357,5545.145,N,03745.644,E,1,12,1.0,0.0,M,0.0,M,,*6C
$GPGSA,A,3,01,02,03,04,05,06,07,08,09,10,11,12,1.0,1.0,1.0*30
$GPRMC,130553.357,A,5545.145,N,03745.644,E,009.7,325.3,060722,000.0,W*70
$GPGGA,130554.357,5545.148,N,03745.642,E,1,12,1.0,0.0,M,0.0,M,,*60
$GPGSA,A,3,01,02,03,04,05,06,07,08,09,10,11,12,1.0,1.0,1.0*30
$GPRMC,130554.357,A,5545.148,N,03745.642,E,009.7,079.0,060722,000.0,W*75
$GPGGA,130555.357,5545.149,N,03745.646,E,1,12,1.0,0.0,M,0.0,M,,*64
$GPGSA,A,3,01,02,03,04,05,06,07,08,09,10,11,12,1.0,1.0,1.0*30
$GPRMC,130555.357,A,5545.149,N,03745.646,E,009.7,079.0,060722,000.0,W*71
$GPGGA,130556.357,5545.150,N,03745.651,E,1,12,1.0,0.0,M,0.0,M,,*69
$GPGSA,A,3,01,02,03,04,05,06,07,08,09,10,11,12,1.0,1.0,1.0*30
$GPRMC,130556.357,A,5545.150,N,03745.651,E,009.7,079.0,060722,000.0,W*7C
$GPGGA,130557.357,5545.150,N,03745.655,E,1,12,1.0,0.0,M,0.0,M,,*6C
$GPGSA,A,3,01,02,03,04,05,06,07,08,09,10,11,12,1.0,1.0,1.0*30
$GPRMC,130557.357,A,5545.150,N,03745.655,E,009.7,079.0,060722,000.0,W*79
$GPGGA,130558.357,5545.151,N,03745.660,E,1,12,1.0,0.0,M,0.0,M,,*64
$GPGSA,A,3,01,02,03,04,05,06,07,08,09,10,11,12,1.0,1.0,1.0*30
$GPRMC,130558.357,A,5545.151,N,03745.660,E,009.7,079.0,060722,000.0,W*71
$GPGGA,130559.357,5545.152,N,03745.664,E,1,12,1.0,0.0,M,0.0,M,,*62
$GPGSA,A,3,01,02,03,04,05,06,07,08,09,10,11,12,1.0,1.0,1.0*30
$GPRMC,130559.357,A,5545.152,N,03745.664,E,009.7,079.0,060722,000.0,W*77
$GPGGA,130600.357,5545.153,N,03745.669,E,1,12,1.0,0.0,M,0.0,M,,*61
$GPGSA,A,3,01,02,03,04,05,06,07,08,09,10,11,12,1.0,1.0,1.0*30
$GPRMC,130600.357,A,5545.153,N,03745.669,E,009.7,079.0,060722,000.0,W*74
$GPGGA,130601.357,5545.154,N,03745.674,E,1,12,1.0,0.0,M,0.0,M,,*6B
$GPGSA,A,3,01,02,03,04,05,06,07,08,09,10,11,12,1.0,1.0,1.0*30
$GPRMC,130601.357,A,5545.154,N,03745.674,E,009.7,079.0,060722,000.0,W*7E
$GPGGA,130602.357,5545.155,N,03745.678,E,1,12,1.0,0.0,M,0.0,M,,*65
$GPGSA,A,3,01,02,03,04,05,06,07,08,09,10,11,12,1.0,1.0,1.0*30
$GPRMC,130602.357,A,5545.155,N,03745.678,E,009.7,079.0,060722,000.0,W*70
$GPGGA,130603.357,5545.156,N,03745.683,E,1,12,1.0,0.0,M,0.0,M,,*63
$GPGSA,A,3,01,02,03,04,05,06,07,08,09,10,11,12,1.0,1.0,1.0*30
$GPRMC,130603.357,A,5545.156,N,03745.683,E,009.7,079.0,060722,000.0,W*76
$GPGGA,130604.357,5545.157,N,03745.687,E,1,12,1.0,0.0,M,0.0,M,,*61
$GPGSA,A,3,01,02,03,04,05,06,07,08,09,10,11,12,1.0,1.0,1.0*30
$GPRMC,130604.357,A,5545.157,N,03745.687,E,009.7,079.0,060722,000.0,W*74
$GPGGA,130605.357,5545.157,N,03745.692,E,1,12,1.0,0.0,M,0.0,M,,*64
$GPGSA,A,3,01,02,03,04,05,06,07,08,09,10,11,12,1.0,1.0,1.0*30
$GPRMC,130605.357,A,5545.157,N,03745.692,E,009.7,079.0,060722,000.0,W*71
$GPGGA,130606.357,5545.158,N,03745.696,E,1,12,1.0,0.0,M,0.0,M,,*6C
$GPGSA,A,3,01,02,03,04,05,06,07,08,09,10,11,12,1.0,1.0,1.0*30
$GPRMC,130606.357,A,5545.158,N,03745.696,E,009.7,079.0,060722,000.0,W*79
$GPGGA,130607.357,5545.159,N,03745.701,E,1,12,1.0,0.0,M,0.0,M,,*63
$GPGSA,A,3,01,02,03,04,05,06,07,08,09,10,11,12,1.0,1.0,1.0*30
$GPRMC,130607.357,A,5545.159,N,03745.701,E,009.7,079.0,060722,000.0,W*76
$GPGGA,130608.357,5545.160,N,03745.705,E,1,12,1.0,0.0,M,0.0,M,,*62
$GPGSA,A,3,01,02,03,04,05,06,07,08,09,10,11,12,1.0,1.0,1.0*30
$GPRMC,130608.357,A,5545.160,N,03745.705,E,009.7,079.0,060722,000.0,W*77
$GPGGA,130609.357,5545.161,N,03745.710,E,1,12,1.0,0.0,M,0.0,M,,*66
$GPGSA,A,3,01,02,03,04,05,06,07,08,09,10,11,12,1.0,1.0,1.0*30
$GPRMC,130609.357,A,5545.161,N,03745.710,E,009.7,079.0,060722,000.0,W*73
$GPGGA,130610.357,5545.162,N,03745.714,E,1,12,1.0,0.0,M,0.0,M,,*69
$GPGSA,A,3,01,02,03,04,05,06,07,08,09,10,11,12,1.0,1.0,1.0*30
$GPRMC,130610.357,A,5545.162,N,03745.714,E,009.7,079.0,060722,000.0,W*7C
$GPGGA,130611.357,5545.163,N,03745.719,E,1,12,1.0,0.0,M,0.0,M,,*64
$GPGSA,A,3,01,02,03,04,05,06,07,08,09,10,11,12,1.0,1.0,1.0*30
$GPRMC,130611.357,A,5545.163,N,03745.719,E,009.7,079.0,060722,000.0,W*71
$GPGGA,130612.357,5545.164,N,03745.723,E,1,12,1.0,0.0,M,0.0,M,,*69
$GPGSA,A,3,01,02,03,04,05,06,07,08,09,10,11,12,1.0,1.0,1.0*30
$GPRMC,130612.357,A,5545.164,N,03745.723,E,009.7,079.0,060722,000.0,W*7C
$GPGGA,130613.357,5545.164,N,03745.728,E,1,12,1.0,0.0,M,0.0,M,,*63
$GPGSA,A,3,01,02,03,04,05,06,07,08,09,10,11,12,1.0,1.0,1.0*30
$GPRMC,130613.357,A,5545.164,N,03745.728,E,009.7,079.0,060722,000.0,W*76
$GPGGA,130614.357,5545.165,N,03745.733,E,1,12,1.0,0.0,M,0.0,M,,*6F
$GPGSA,A,3,01,02,03,04,05,06,07,08,09,10,11,12,1.0,1.0,1.0*30
$GPRMC,130614.357,A,5545.165,N,03745.733,E,009.7,079.0,060722,000.0,W*7A
$GPGGA,130615.357,5545.166,N,03745.737,E,1,12,1.0,0.0,M,0.0,M,,*69
$GPGSA,A,3,01,02,03,04,05,06,07,08,09,10,11,12,1.0,1.0,1.0*30
$GPRMC,130615.357,A,5545.166,N,03745.737,E,009.7,079.0,060722,000.0,W*7C
$GPGGA,130616.357,5545.167,N,03745.742,E,1,12,1.0,0.0,M,0.0,M,,*69
$GPGSA,A,3,01,02,03,04,05,06,07,08,09,10,11,12,1.0,1.0,1.0*30
$GPRMC,130616.357,A,5545.167,N,03745.742,E,009.7,079.0,060722,000.0,W*7C
$GPGGA,130617.357,5545.168,N,03745.746,E,1,12,1.0,0.0,M,0.0,M,,*63
$GPGSA,A,3,01,02,03,04,05,06,07,08,09,10,11,12,1.0,1.0,1.0*30
$GPRMC,130617.357,A,5545.168,N,03745.746,E,009.7,079.0,060722,000.0,W*76
$GPGGA,130618.357,5545.169,N,03745.751,E,1,12,1.0,0.0,M,0.0,M,,*6B
$GPGSA,A,3,01,02,03,04,05,06,07,08,09,10,11,12,1.0,1.0,1.0*30
$GPRMC,130618.357,A,5545.169,N,03745.751,E,009.7,079.0,060722,000.0,W*7E
$GPGGA,130619.357,5545.170,N,03745.755,E,1,12,1.0,0.0,M,0.0,M,,*66
$GPGSA,A,3,01,02,03,04,05,06,07,08,09,10,11,12,1.0,1.0,1.0*30
$GPRMC,130619.357,A,5545.170,N,03745.755,E,009.7,079.0,060722,000.0,W*73
$GPGGA,130620.357,5545.171,N,03745.760,E,1,12,1.0,0.0,M,0.0,M,,*6B
$GPGSA,A,3,01,02,03,04,05,06,07,08,09,10,11,12,1.0,1.0,1.0*30
$GPRMC,130620.357,A,5545.171,N,03745.760,E,009.7,079.0,060722,000.0,W*7E
$GPGGA,130621.357,5545.171,N,03745.764,E,1,12,1.0,0.0,M,0.0,M,,*6E
$GPGSA,A,3,01,02,03,04,05,06,07,08,09,10,11,12,1.0,1.0,1.0*30
$GPRMC,130621.357,A,5545.171,N,03745.764,E,009.7,079.0,060722,000.0,W*7B
$GPGGA,130622.357,5545.172,N,03745.769,E,1,12,1.0,0.0,M,0.0,M,,*63
$GPGSA,A,3,01,02,03,04,05,06,07,08,09,10,11,12,1.0,1.0,1.0*30
$GPRMC,130622.357,A,5545.172,N,03745.769,E,009.7,079.0,060722,000.0,W*76
$GPGGA,130623.357,5545.173,N,03745.773,E,1,12,1.0,0.0,M,0.0,M,,*68
$GPGSA,A,3,01,02,03,04,05,06,07,08,09,10,11,12,1.0,1.0,1.0*30
$GPRMC,130623.357,A,5545.173,N,03745.773,E,009.7,079.0,060722,000.0,W*7D
$GPGGA,130624.357,5545.174,N,03745.778,E,1,12,1.0,0.0,M,0.0,M,,*63
$GPGSA,A,3,01,02,03,04,05,06,07,08,09,10,11,12,1.0,1.0,1.0*30
$GPRMC,130624.357,A,5545.174,N,03745.778,E,009.7,079.0,060722,000.0,W*76
$GPGGA,130625.357,5545.175,N,03745.782,E,1,12,1.0,0.0,M,0.0,M,,*66
$GPGSA,A,3,01,02,03,04,05,06,07,08,09,10,11,12,1.0,1.0,1.0*30
$GPRMC,130625.357,A,5545.175,N,03745.782,E,009.7,079.0,060722,000.0,W*73
$GPGGA,130626.357,5545.176,N,03745.787,E,1,12,1.0,0.0,M,0.0,M,,*63
$GPGSA,A,3,01,02,03,04,05,06,07,08,09,10,11,12,1.0,1.0,1.0*30
$GPRMC,130626.357,A,5545.176,N,03745.787,E,009.7,079.0,060722,000.0,W*76
$GPGGA,130627.357,5545.177,N,03745.791,E,1,12,1.0,0.0,M,0.0,M,,*64
$GPGSA,A,3,01,02,03,04,05,06,07,08,09,10,11,12,1.0,1.0,1.0*30
$GPRMC,130627.357,A,5545.177,N,03745.791,E,009.7,079.0,060722,000.0,W*71
$GPGGA,130628.357,5545.178,N,03745.796,E,1,12,1.0,0.0,M,0.0,M,,*63
$GPGSA,A,3,01,02,03,04,05,06,07,08,09,10,11,12,1.0,1.0,1.0*30
$GPRMC,130628.357,A,5545.178,N,03745.796,E,009.7,079.0,060722,000.0,W*76
$GPGGA,130629.357,5545.178,N,03745.801,E,1,12,1.0,0.0,M,0.0,M,,*63
$GPGSA,A,3,01,02,03,04,05,06,07,08,09,10,11,12,1.0,1.0,1.0*30
$GPRMC,130629.357,A,5545.178,N,03745.801,E,009.7,079.0,060722,000.0,W*76
$GPGGA,130630.357,5545.179,N,03745.805,E,1,12,1.0,0.0,M,0.0,M,,*6E
$GPGSA,A,3,01,02,03,04,05,06,07,08,09,10,11,12,1.0,1.0,1.0*30
$GPRMC,130630.357,A,5545.179,N,03745.805,E,009.7,079.0,060722,000.0,W*7B
$GPGGA,130631.357,5545.180,N,03745.810,E,1,12,1.0,0.0,M,0.0,M,,*6D
$GPGSA,A,3,01,02,03,04,05,06,07,08,09,10,11,12,1.0,1.0,1.0*30
$GPRMC,130631.357,A,5545.180,N,03745.810,E,009.7,079.0,060722,000.0,W*78
$GPGGA,130632.357,5545.181,N,03745.814,E,1,12,1.0,0.0,M,0.0,M,,*6B
$GPGSA,A,3,01,02,03,04,05,06,07,08,09,10,11,12,1.0,1.0,1.0*30
$GPRMC,130632.357,A,5545.181,N,03745.814,E,009.7,079.0,060722,000.0,W*7E
$GPGGA,130633.357,5545.182,N,03745.819,E,1,12,1.0,0.0,M,0.0,M,,*64
$GPGSA,A,3,01,02,03,04,05,06,07,08,09,10,11,12,1.0,1.0,1.0*30
$GPRMC,130633.357,A,5545.182,N,03745.819,E,009.7,079.0,060722,000.0,W*71
$GPGGA,130634.357,5545.183,N,03745.823,E,1,12,1.0,0.0,M,0.0,M,,*6B
$GPGSA,A,3,01,02,03,04,05,06,07,08,09,10,11,12,1.0,1.0,1.0*30
$GPRMC,130634.357,A,5545.183,N,03745.823,E,009.7,079.0,060722,000.0,W*7E
$GPGGA,130635.357,5545.184,N,03745.828,E,1,12,1.0,0.0,M,0.0,M,,*66
$GPGSA,A,3,01,02,03,04,05,06,07,08,09,10,11,12,1.0,1.0,1.0*30
$GPRMC,130635.357,A,5545.184,N,03745.828,E,009.7,079.0,060722,000.0,W*73
$GPGGA,130636.357,5545.185,N,03745.832,E,1,12,1.0,0.0,M,0.0,M,,*6F
$GPGSA,A,3,01,02,03,04,05,06,07,08,09,10,11,12,1.0,1.0,1.0*30
$GPRMC,130636.357,A,5545.185,N,03745.832,E,009.7,079.0,060722,000.0,W*7A
$GPGGA,130637.357,5545.185,N,03745.837,E,1,12,1.0,0.0,M,0.0,M,,*6B
$GPGSA,A,3,01,02,03,04,05,06,07,08,09,10,11,12,1.0,1.0,1.0*30
$GPRMC,130637.357,A,5545.185,N,03745.837,E,009.7,079.0,060722,000.0,W*7E
$GPGGA,130638.357,5545.186,N,03745.841,E,1,12,1.0,0.0,M,0.0,M,,*66
$GPGSA,A,3,01,02,03,04,05,06,07,08,09,10,11,12,1.0,1.0,1.0*30
$GPRMC,130638.357,A,5545.186,N,03745.841,E,009.7,079.0,060722,000.0,W*73
$GPGGA,130639.357,5545.187,N,03745.846,E,1,12,1.0,0.0,M,0.0,M,,*61
$GPGSA,A,3,01,02,03,04,05,06,07,08,09,10,11,12,1.0,1.0,1.0*30
$GPRMC,130639.357,A,5545.187,N,03745.846,E,009.7,079.0,060722,000.0,W*74
$GPGGA,130640.357,5545.188,N,03745.850,E,1,12,1.0,0.0,M,0.0,M,,*67
$GPGSA,A,3,01,02,03,04,05,06,07,08,09,10,11,12,1.0,1.0,1.0*30
$GPRMC,130640.357,A,5545.188,N,03745.850,E,009.7,079.0,060722,000.0,W*72
$GPGGA,130641.357,5545.189,N,03745.855,E,1,12,1.0,0.0,M,0.0,M,,*62
$GPGSA,A,3,01,02,03,04,05,06,07,08,09,10,11,12,1.0,1.0,1.0*30
$GPRMC,130641.357,A,5545.189,N,03745.855,E,009.7,079.0,060722,000.0,W*77
$GPGGA,130642.357,5545.190,N,03745.859,E,1,12,1.0,0.0,M,0.0,M,,*65
$GPGSA,A,3,01,02,03,04,05,06,07,08,09,10,11,12,1.0,1.0,1.0*30
$GPRMC,130642.357,A,5545.190,N,03745.859,E,009.7,079.0,060722,000.0,W*70
$GPGGA,130643.357,5545.191,N,03745.864,E,1,12,1.0,0.0,M,0.0,M,,*6B
$GPGSA,A,3,01,02,03,04,05,06,07,08,09,10,11,12,1.0,1.0,1.0*30
$GPRMC,130643.357,A,5545.191,N,03745.864,E,009.7,079.0,060722,000.0,W*7E
$GPGGA,130644.357,5545.192,N,03745.869,E,1,12,1.0,0.0,M,0.0,M,,*62
$GPGSA,A,3,01,02,03,04,05,06,07,08,09,10,11,12,1.0,1.0,1.0*30
$GPRMC,130644.357,A,5545.192,N,03745.869,E,009.7,079.0,060722,000.0,W*77
$GPGGA,130645.357,5545.192,N,03745.873,E,1,12,1.0,0.0,M,0.0,M,,*68
$GPGSA,A,3,01,02,03,04,05,06,07,08,09,10,11,12,1.0,1.0,1.0*30
$GPRMC,130645.357,A,5545.192,N,03745.873,E,009.7,079.0,060722,000.0,W*7D
$GPGGA,130646.357,5545.193,N,03745.878,E,1,12,1.0,0.0,M,0.0,M,,*61
$GPGSA,A,3,01,02,03,04,05,06,07,08,09,10,11,12,1.0,1.0,1.0*30
$GPRMC,130646.357,A,5545.193,N,03745.878,E,009.7,079.0,060722,000.0,W*74
$GPGGA,130647.357,5545.194,N,03745.882,E,1,12,1.0,0.0,M,0.0,M,,*62
$GPGSA,A,3,01,02,03,04,05,06,07,08,09,10,11,12,1.0,1.0,1.0*30
$GPRMC,130647.357,A,5545.194,N,03745.882,E,009.7,079.0,060722,000.0,W*77
$GPGGA,130648.357,5545.195,N,03745.887,E,1,12,1.0,0.0,M,0.0,M,,*69
$GPGSA,A,3,01,02,03,04,05,06,07,08,09,10,11,12,1.0,1.0,1.0*30
$GPRMC,130648.357,A,5545.195,N,03745.887,E,009.7,079.0,060722,000.0,W*7C
$GPGGA,130649.357,5545.196,N,03745.891,E,1,12,1.0,0.0,M,0.0,M,,*6C
$GPGSA,A,3,01,02,03,04,05,06,07,08,09,10,11,12,1.0,1.0,1.0*30
$GPRMC,130649.357,A,5545.196,N,03745.891,E,009.7,079.0,060722,000.0,W*79
$GPGGA,130650.357,5545.197,N,03745.896,E,1,12,1.0,0.0,M,0.0,M,,*62
$GPGSA,A,3,01,02,03,04,05,06,07,08,09,10,11,12,1.0,1.0,1.0*30
$GPRMC,130650.357,A,5545.197,N,03745.896,E,009.7,079.0,060722,000.0,W*77
$GPGGA,130651.357,5545.198,N,03745.900,E,1,12,1.0,0.0,M,0.0,M,,*62
$GPGSA,A,3,01,02,03,04,05,06,07,08,09,10,11,12,1.0,1.0,1.0*30
$GPRMC,130651.357,A,5545.198,N,03745.900,E,009.7,079.0,060722,000.0,W*77
$GPGGA,130652.357,5545.199,N,03745.905,E,1,12,1.0,0.0,M,0.0,M,,*65
$GPGSA,A,3,01,02,03,04,05,06,07,08,09,10,11,12,1.0,1.0,1.0*30
$GPRMC,130652.357,A,5545.199,N,03745.905,E,009.7,079.0,060722,000.0,W*70
$GPGGA,130653.357,5545.199,N,03745.909,E,1,12,1.0,0.0,M,0.0,M,,*68
$GPGSA,A,3,01,02,03,04,05,06,07,08,09,10,11,12,1.0,1.0,1.0*30
$GPRMC,130653.357,A,5545.199,N,03745.909,E,009.7,079.0,060722,000.0,W*7D
$GPGGA,130654.357,5545.200,N,03745.914,E,1,12,1.0,0.0,M,0.0,M,,*60
$GPGSA,A,3,01,02,03,04,05,06,07,08,09,10,11,12,1.0,1.0,1.0*30
$GPRMC,130654.357,A,5545.200,N,03745.914,E,009.7,079.0,060722,000.0,W*75
$GPGGA,130655.357,5545.201,N,03745.918,E,1,12,1.0,0.0,M,0.0,M,,*6C
$GPGSA,A,3,01,02,03,04,05,06,07,08,09,10,11,12,1.0,1.0,1.0*30
$GPRMC,130655.357,A,5545.201,N,03745.918,E,009.7,079.0,060722,000.0,W*79
$GPGGA,130656.357,5545.202,N,03745.923,E,1,12,1.0,0.0,M,0.0,M,,*64
$GPGSA,A,3,01,02,03,04,05,06,07,08,09,10,11,12,1.0,1.0,1.0*30
$GPRMC,130656.357,A,5545.202,N,03745.923,E,009.7,079.0,060722,000.0,W*71
$GPGGA,130657.357,5545.203,N,03745.928,E,1,12,1.0,0.0,M,0.0,M,,*6F
$GPGSA,A,3,01,02,03,04,05,06,07,08,09,10,11,12,1.0,1.0,1.0*30
$GPRMC,130657.357,A,5545.203,N,03745.928,E,009.7,079.0,060722,000.0,W*7A
$GPGGA,130658.357,5545.204,N,03745.932,E,1,12,1.0,0.0,M,0.0,M,,*6C
$GPGSA,A,3,01,02,03,04,05,06,07,08,09,10,11,12,1.0,1.0,1.0*30
$GPRMC,130658.357,A,5545.204,N,03745.932,E,009.7,079.0,060722,000.0,W*79
$GPGGA,130659.357,5545.205,N,03745.937,E,1,12,1.0,0.0,M,0.0,M,,*69
$GPGSA,A,3,01,02,03,04,05,06,07,08,09,10,11,12,1.0,1.0,1.0*30
$GPRMC,130659.357,A,5545.205,N,03745.937,E,009.7,079.0,060722,000.0,W*7C
$GPGGA,130700.357,5545.206,N,03745.941,E,1,12,1.0,0.0,M,0.0,M,,*66
$GPGSA,A,3,01,02,03,04,05,06,07,08,09,10,11,12,1.0,1.0,1.0*30
$GPRMC,130700.357,A,5545.206,N,03745.941,E,009.7,079.0,060722,000.0,W*73
$GPGGA,130701.357,5545.206,N,03745.946,E,1,12,1.0,0.0,M,0.0,M,,*60
$GPGSA,A,3,01,02,03,04,05,06,07,08,09,10,11,12,1.0,1.0,1.0*30
$GPRMC,130701.357,A,5545.206,N,03745.946,E,009.7,079.0,060722,000.0,W*75
$GPGGA,130702.357,5545.207,N,03745.950,E,1,12,1.0,0.0,M,0.0,M,,*65
$GPGSA,A,3,01,02,03,04,05,06,07,08,09,10,11,12,1.0,1.0,1.0*30
$GPRMC,130702.357,A,5545.207,N,03745.950,E,009.7,079.0,060722,000.0,W*70
$GPGGA,130703.357,5545.208,N,03745.955,E,1,12,1.0,0.0,M,0.0,M,,*6E
$GPGSA,A,3,01,02,03,04,05,06,07,08,09,10,11,12,1.0,1.0,1.0*30
$GPRMC,130703.357,A,5545.208,N,03745.955,E,009.7,079.0,060722,000.0,W*7B
$GPGGA,130704.357,5545.209,N,03745.959,E,1,12,1.0,0.0,M,0.0,M,,*64
$GPGSA,A,3,01,02,03,04,05,06,07,08,09,10,11,12,1.0,1.0,1.0*30
$GPRMC,130704.357,A,5545.209,N,03745.959,E,009.7,079.0,060722,000.0,W*71
$GPGGA,130705.357,5545.210,N,03745.964,E,1,12,1.0,0.0,M,0.0,M,,*63
$GPGSA,A,3,01,02,03,04,05,06,07,08,09,10,11,12,1.0,1.0,1.0*30
$GPRMC,130705.357,A,5545.210,N,03745.964,E,009.7,079.0,060722,000.0,W*76
$GPGGA,130706.357,5545.211,N,03745.968,E,1,12,1.0,0.0,M,0.0,M,,*6D
$GPGSA,A,3,01,02,03,04,05,06,07,08,09,10,11,12,1.0,1.0,1.0*30
$GPRMC,130706.357,A,5545.211,N,03745.968,E,009.7,079.0,060722,000.0,W*78
$GPGGA,130707.357,5545.212,N,03745.973,E,1,12,1.0,0.0,M,0.0,M,,*65
$GPGSA,A,3,01,02,03,04,05,06,07,08,09,10,11,12,1.0,1.0,1.0*30
$GPRMC,130707.357,A,5545.212,N,03745.973,E,009.7,079.0,060722,000.0,W*70
$GPGGA,130708.357,5545.213,N,03745.977,E,1,12,1.0,0.0,M,0.0,M,,*6F
$GPGSA,A,3,01,02,03,04,05,06,07,08,09,10,11,12,1.0,1.0,1.0*30
$GPRMC,130708.357,A,5545.213,N,03745.977,E,009.7,079.0,060722,000.0,W*7A
$GPGGA,130709.357,5545.213,N,03745.982,E,1,12,1.0,0.0,M,0.0,M,,*64
$GPGSA,A,3,01,02,03,04,05,06,07,08,09,10,11,12,1.0,1.0,1.0*30
$GPRMC,130709.357,A,5545.213,N,03745.982,E,009.7,079.0,060722,000.0,W*71
$GPGGA,130710.357,5545.214,N,03745.986,E,1,12,1.0,0.0,M,0.0,M,,*6F
$GPGSA,A,3,01,02,03,04,05,06,07,08,09,10,11,12,1.0,1.0,1.0*30
$GPRMC,130710.357,A,5545.214,N,03745.986,E,009.7,079.0,060722,000.0,W*7A
$GPGGA,130711.357,5545.215,N,03745.991,E,1,12,1.0,0.0,M,0.0,M,,*69
$GPGSA,A,3,01,02,03,04,05,06,07,08,09,10,11,12,1.0,1.0,1.0*30
$GPRMC,130711.357,A,5545.215,N,03745.991,E,009.7,079.0,060722,000.0,W*7C
$GPGGA,130712.357,5545.216,N,03745.996,E,1,12,1.0,0.0,M,0.0,M,,*6E
$GPGSA,A,3,01,02,03,04,05,06,07,08,09,10,11,12,1.0,1.0,1.0*30
$GPRMC,130712.357,A,5545.216,N,03745.996,E,009.7,079.0,060722,000.0,W*7B
$GPGGA,130713.357,5545.217,N,03746.000,E,1,12,1.0,0.0,M,0.0,M,,*6B
$GPGSA,A,3,01,02,03,04,05,06,07,08,09,10,11,12,1.0,1.0,1.0*30
$GPRMC,130713.357,A,5545.217,N,03746.000,E,009.7,079.0,060722,000.0,W*7E
$GPGGA,130714.357,5545.218,N,03746.005,E,1,12,1.0,0.0,M,0.0,M,,*66
$GPGSA,A,3,01,02,03,04,05,06,07,08,09,10,11,12,1.0,1.0,1.0*30
$GPRMC,130714.357,A,5545.218,N,03746.005,E,009.7,079.0,060722,000.0,W*73
$GPGGA,130715.357,5545.219,N,03746.009,E,1,12,1.0,0.0,M,0.0,M,,*6A
$GPGSA,A,3,01,02,03,04,05,06,07,08,09,10,11,12,1.0,1.0,1.0*30
$GPRMC,130715.357,A,5545.219,N,03746.009,E,009.7,079.0,060722,000.0,W*7F
$GPGGA,130716.357,5545.220,N,03746.014,E,1,12,1.0,0.0,M,0.0,M,,*6F
$GPGSA,A,3,01,02,03,04,05,06,07,08,09,10,11,12,1.0,1.0,1.0*30
$GPRMC,130716.357,A,5545.220,N,03746.014,E,009.7,079.0,060722,000.0,W*7A
$GPGGA,130717.357,5545.220,N,03746.018,E,1,12,1.0,0.0,M,0.0,M,,*62
$GPGSA,A,3,01,02,03,04,05,06,07,08,09,10,11,12,1.0,1.0,1.0*30
$GPRMC,130717.357,A,5545.220,N,03746.018,E,009.7,079.0,060722,000.0,W*77
$GPGGA,130718.357,5545.221,N,03746.023,E,1,12,1.0,0.0,M,0.0,M,,*64
$GPGSA,A,3,01,02,03,04,05,06,07,08,09,10,11,12,1.0,1.0,1.0*30
$GPRMC,130718.357,A,5545.221,N,03746.023,E,009.7,079.0,060722,000.0,W*71
$GPGGA,130719.357,5545.222,N,03746.027,E,1,12,1.0,0.0,M,0.0,M,,*62
$GPGSA,A,3,01,02,03,04,05,06,07,08,09,10,11,12,1.0,1.0,1.0*30
$GPRMC,130719.357,A,5545.222,N,03746.027,E,009.7,079.0,060722,000.0,W*77
$GPGGA,130720.357,5545.223,N,03746.032,E,1,12,1.0,0.0,M,0.0,M,,*6D
$GPGSA,A,3,01,02,03,04,05,06,07,08,09,10,11,12,1.0,1.0,1.0*30
$GPRMC,130720.357,A,5545.223,N,03746.032,E,009.7,079.0,060722,000.0,W*78
$GPGGA,130721.357,5545.224,N,03746.036,E,1,12,1.0,0.0,M,0.0,M,,*6F
$GPGSA,A,3,01,02,03,04,05,06,07,08,09,10,11,12,1.0,1.0,1.0*30
$GPRMC,130721.357,A,5545.224,N,03746.036,E,009.7,079.0,060722,000.0,W*7A
$GPGGA,130722.357,5545.225,N,03746.041,E,1,12,1.0,0.0,M,0.0,M,,*6D
$GPGSA,A,3,01,02,03,04,05,06,07,08,09,10,11,12,1.0,1.0,1.0*30
$GPRMC,130722.357,A,5545.225,N,03746.041,E,009.7,079.0,060722,000.0,W*78
$GPGGA,130723.357,5545.226,N,03746.045,E,1,12,1.0,0.0,M,0.0,M,,*6B
$GPGSA,A,3,01,02,03,04,05,06,07,08,09,10,11,12,1.0,1.0,1.0*30
$GPRMC,130723.357,A,5545.226,N,03746.045,E,009.7,079.0,060722,000.0,W*7E
$GPGGA,130724.357,5545.227,N,03746.050,E,1,12,1.0,0.0,M,0.0,M,,*69
$GPGSA,A,3,01,02,03,04,05,06,07,08,09,10,11,12,1.0,1.0,1.0*30
$GPRMC,130724.357,A,5545.227,N,03746.050,E,009.7,079.0,060722,000.0,W*7C
$GPGGA,130725.357,5545.227,N,03746.055,E,1,12,1.0,0.0,M,0.0,M,,*6D
$GPGSA,A,3,01,02,03,04,05,06,07,08,09,10,11,12,1.0,1.0,1.0*30
$GPRMC,130725.357,A,5545.227,N,03746.055,E,009.7,079.0,060722,000.0,W*78
$GPGGA,130726.357,5545.228,N,03746.059,E,1,12,1.0,0.0,M,0.0,M,,*6D
$GPGSA,A,3,01,02,03,04,05,06,07,08,09,10,11,12,1.0,1.0,1.0*30
$GPRMC,130726.357,A,5545.228,N,03746.059,E,009.7,079.0,060722,000.0,W*78
$GPGGA,130727.357,5545.229,N,03746.064,E,1,12,1.0,0.0,M,0.0,M,,*63
$GPGSA,A,3,01,02,03,04,05,06,07,08,09,10,11,12,1.0,1.0,1.0*30
$GPRMC,130727.357,A,5545.229,N,03746.064,E,009.7,079.0,060722,000.0,W*76
$GPGGA,130728.357,5545.230,N,03746.068,E,1,12,1.0,0.0,M,0.0,M,,*68
$GPGSA,A,3,01,02,03,04,05,06,07,08,09,10,11,12,1.0,1.0,1.0*30
$GPRMC,130728.357,A,5545.230,N,03746.068,E,009.7,147.6,060722,000.0,W*77
$GPGGA,130729.357,5545.228,N,03746.070,E,1,12,1.0,0.0,M,0.0,M,,*69
$GPGSA,A,3,01,02,03,04,05,06,07,08,09,10,11,12,1.0,1.0,1.0*30
$GPRMC,130729.357,A,5545.228,N,03746.070,E,009.7,147.6,060722,000.0,W*76
$GPGGA,130730.357,5545.225,N,03746.071,E,1,12,1.0,0.0,M,0.0,M,,*6D
$GPGSA,A,3,01,02,03,04,05,06,07,08,09,10,11,12,1.0,1.0,1.0*30
$GPRMC,130730.357,A,5545.225,N,03746.071,E,009.7,147.6,060722,000.0,W*72
$GPGGA,130731.357,5545.222,N,03746.073,E,1,12,1.0,0.0,M,0.0,M,,*69
$GPGSA,A,3,01,02,03,04,05,06,07,08,09,10,11,12,1.0,1.0,1.0*30
$GPRMC,130731.357,A,5545.222,N,03746.073,E,009.7,147.6,060722,000.0,W*76
$GPGGA,130732.357,5545.220,N,03746.075,E,1,12,1.0,0.0,M,0.0,M,,*6E
$GPGSA,A,3,01,02,03,04,05,06,07,08,09,10,11,12,1.0,1.0,1.0*30
$GPRMC,130732.357,A,5545.220,N,03746.075,E,009.7,147.6,060722,000.0,W*71
$GPGGA,130733.357,5545.217,N,03746.076,E,1,12,1.0,0.0,M,0.0,M,,*68
$GPGSA,A,3,01,02,03,04,05,06,07,08,09,10,11,12,1.0,1.0,1.0*30
$GPRMC,130733.357,A,5545.217,N,03746.076,E,009.7,147.6,060722,000.0,W*77
$GPGGA,130734.357,5545.215,N,03746.078,E,1,12,1.0,0.0,M,0.0,M,,*63
$GPGSA,A,3,01,02,03,04,05,06,07,08,09,10,11,12,1.0,1.0,1.0*30
$GPRMC,130734.357,A,5545.215,N,03746.078,E,009.7,147.6,060722,000.0,W*7C
$GPGGA,130735.357,5545.212,N,03746.079,E,1,12,1.0,0.0,M,0.0,M,,*64
$GPGSA,A,3,01,02,03,04,05,06,07,08,09,10,11,12,1.0,1.0,1.0*30
$GPRMC,130735.357,A,5545.212,N,03746.079,E,009.7,147.6,060722,000.0,W*7B
$GPGGA,130736.357,5545.210,N,03746.081,E,1,12,1.0,0.0,M,0.0,M,,*62
$GPGSA,A,3,01,02,03,04,05,06,07,08,09,10,11,12,1.0,1.0,1.0*30
$GPRMC,130736.357,A,5545.210,N,03746.081,E,009.7,147.6,060722,000.0,W*7D
$GPGGA,130737.357,5545.207,N,03746.083,E,1,12,1.0,0.0,M,0.0,M,,*67
$GPGSA,A,3,01,02,03,04,05,06,07,08,09,10,11,12,1.0,1.0,1.0*30
$GPRMC,130737.357,A,5545.207,N,03746.083,E,009.7,147.6,060722,000.0,W*78
$GPGGA,130738.357,5545.205,N,03746.084,E,1,12,1.0,0.0,M,0.0,M,,*6D
$GPGSA,A,3,01,02,03,04,05,06,07,08,09,10,11,12,1.0,1.0,1.0*30
$GPRMC,130738.357,A,5545.205,N,03746.084,E,009.7,147.6,060722,000.0,W*72
$GPGGA,130739.357,5545.202,N,03746.086,E,1,12,1.0,0.0,M,0.0,M,,*69
$GPGSA,A,3,01,02,03,04,05,06,07,08,09,10,11,12,1.0,1.0,1.0*30
$GPRMC,130739.357,A,5545.202,N,03746.086,E,009.7,147.6,060722,000.0,W*76
$GPGGA,130740.357,5545.200,N,03746.088,E,1,12,1.0,0.0,M,0.0,M,,*6B
$GPGSA,A,3,01,02,03,04,05,06,07,08,09,10,11,12,1.0,1.0,1.0*30
$GPRMC,130740.357,A,5545.200,N,03746.088,E,009.7,147.6,060722,000.0,W*74
$GPGGA,130741.357,5545.197,N,03746.089,E,1,12,1.0,0.0,M,0.0,M,,*66
$GPGSA,A,3,01,02,03,04,05,06,07,08,09,10,11,12,1.0,1.0,1.0*30
$GPRMC,130741.357,A,5545.197,N,03746.089,E,009.7,147.6,060722,000.0,W*79
$GPGGA,130742.357,5545.195,N,03746.091,E,1,12,1.0,0.0,M,0.0,M,,*6E
$GPGSA,A,3,01,02,03,04,05,06,07,08,09,10,11,12,1.0,1.0,1.0*30
$GPRMC,130742.357,A,5545.195,N,03746.091,E,009.7,147.6,060722,000.0,W*71
$GPGGA,130743.357,5545.192,N,03746.092,E,1,12,1.0,0.0,M,0.0,M,,*6B
$GPGSA,A,3,01,02,03,04,05,06,07,08,09,10,11,12,1.0,1.0,1.0*30
$GPRMC,130743.357,A,5545.192,N,03746.092,E,009.7,147.6,060722,000.0,W*74
$GPGGA,130744.357,5545.189,N,03746.094,E,1,12,1.0,0.0,M,0.0,M,,*60
$GPGSA,A,3,01,02,03,04,05,06,07,08,09,10,11,12,1.0,1.0,1.0*30
$GPRMC,130744.357,A,5545.189,N,03746.094,E,009.7,147.6,060722,000.0,W*7F
$GPGGA,130745.357,5545.187,N,03746.096,E,1,12,1.0,0.0,M,0.0,M,,*6D
$GPGSA,A,3,01,02,03,04,05,06,07,08,09,10,11,12,1.0,1.0,1.0*30
$GPRMC,130745.357,A,5545.187,N,03746.096,E,009.7,147.6,060722,000.0,W*72
$GPGGA,130746.357,5545.184,N,03746.097,E,1,12,1.0,0.0,M,0.0,M,,*6C
$GPGSA,A,3,01,02,03,04,05,06,07,08,09,10,11,12,1.0,1.0,1.0*30
$GPRMC,130746.357,A,5545.184,N,03746.097,E,009.7,147.6,060722,000.0,W*73
$GPGGA,130747.357,5545.182,N,03746.099,E,1,12,1.0,0.0,M,0.0,M,,*65
$GPGSA,A,3,01,02,03,04,05,06,07,08,09,10,11,12,1.0,1.0,1.0*30
$GPRMC,130747.357,A,5545.182,N,03746.099,E,009.7,147.6,060722,000.0,W*7A
$GPGGA,130748.357,5545.179,N,03746.101,E,1,12,1.0,0.0,M,0.0,M,,*6E
$GPGSA,A,3,01,02,03,04,05,06,07,08,09,10,11,12,1.0,1.0,1.0*30
$GPRMC,130748.357,A,5545.179,N,03746.101,E,009.7,147.6,060722,000.0,W*71
$GPGGA,130749.357,5545.177,N,03746.102,E,1,12,1.0,0.0,M,0.0,M,,*62
$GPGSA,A,3,01,02,03,04,05,06,07,08,09,10,11,12,1.0,1.0,1.0*30
$GPRMC,130749.357,A,5545.177,N,03746.102,E,009.7,147.6,060722,000.0,W*7D
$GPGGA,130750.357,5545.174,N,03746.104,E,1,12,1.0,0.0,M,0.0,M,,*6F
$GPGSA,A,3,01,02,03,04,05,06,07,08,09,10,11,12,1.0,1.0,1.0*30
$GPRMC,130750.357,A,5545.174,N,03746.104,E,009.7,147.6,060722,000.0,W*70
$GPGGA,130751.357,5545.172,N,03746.105,E,1,12,1.0,0.0,M,0.0,M,,*69
$GPGSA,A,3,01,02,03,04,05,06,07,08,09,10,11,12,1.0,1.0,1.0*30
$GPRMC,130751.357,A,5545.172,N,03746.105,E,009.7,147.6,060722,000.0,W*76
$GPGGA,130752.357,5545.169,N,03746.107,E,1,12,1.0,0.0,M,0.0,M,,*62
$GPGSA,A,3,01,02,03,04,05,06,07,08,09,10,11,12,1.0,1.0,1.0*30
$GPRMC,130752.357,A,5545.169,N,03746.107,E,009.7,147.6,060722,000.0,W*7D
$GPGGA,130753.357,5545.167,N,03746.109,E,1,12,1.0,0.0,M,0.0,M,,*63
$GPGSA,A,3,01,02,03,04,05,06,07,08,09,10,11,12,1.0,1.0,1.0*30
$GPRMC,130753.357,A,5545.167,N,03746.109,E,009.7,147.6,060722,000.0,W*7C
$GPGGA,130754.357,5545.164,N,03746.110,E,1,12,1.0,0.0,M,0.0,M,,*6F
$GPGSA,A,3,01,02,03,04,05,06,07,08,09,10,11,12,1.0,1.0,1.0*30
$GPRMC,130754.357,A,5545.164,N,03746.110,E,009.7,147.6,060722,000.0,W*70
$GPGGA,130755.357,5545.162,N,03746.112,E,1,12,1.0,0.0,M,0.0,M,,*6A
$GPGSA,A,3,01,02,03,04,05,06,07,08,09,10,11,12,1.0,1.0,1.0*30
$GPRMC,130755.357,A,5545.162,N,03746.112,E,009.7,147.6,060722,000.0,W*75
$GPGGA,130756.357,5545.159,N,03746.114,E,1,12,1.0,0.0,M,0.0,M,,*67
$GPGSA,A,3,01,02,03,04,05,06,07,08,09,10,11,12,1.0,1.0,1.0*30
$GPRMC,130756.357,A,5545.159,N,03746.114,E,009.7,147.6,060722,000.0,W*78
$GPGGA,130757.357,5545.156,N,03746.115,E,1,12,1.0,0.0,M,0.0,M,,*68
$GPGSA,A,3,01,02,03,04,05,06,07,08,09,10,11,12,1.0,1.0,1.0*30
$GPRMC,130757.357,A,5545.156,N,03746.115,E,009.7,147.6,060722,000.0,W*77
$GPGGA,130758.357,5545.154,N,03746.117,E,1,12,1.0,0.0,M,0.0,M,,*67
$GPGSA,A,3,01,02,03,04,05,06,07,08,09,10,11,12,1.0,1.0,1.0*30
$GPRMC,130758.357,A,5545.154,N,03746.117,E,009.7,147.6,060722,000.0,W*78
$GPGGA,130759.357,5545.151,N,03746.118,E,1,12,1.0,0.0,M,0.0,M,,*6C
$GPGSA,A,3,01,02,03,04,05,06,07,08,09,10,11,12,1.0,1.0,1.0*30
$GPRMC,130759.357,A,5545.151,N,03746.118,E,009.7,147.6,060722,000.0,W*73
$GPGGA,130800.357,5545.149,N,03746.120,E,1,12,1.0,0.0,M,0.0,M,,*6D
$GPGSA,A,3,01,02,03,04,05,06,07,08,09,10,11,12,1.0,1.0,1.0*30
$GPRMC,130800.357,A,5545.149,N,03746.120,E,009.7,147.6,060722,000.0,W*72
$GPGGA,130801.357,5545.146,N,03746.122,E,1,12,1.0,0.0,M,0.0,M,,*61
$GPGSA,A,3,01,02,03,04,05,06,07,08,09,10,11,12,1.0,1.0,1.0*30
$GPRMC,130801.357,A,5545.146,N,03746.122,E,009.7,147.6,060722,000.0,W*7E
$GPGGA,130802.357,5545.144,N,03746.123,E,1,12,1.0,0.0,M,0.0,M,,*61
$GPGSA,A,3,01,02,03,04,05,06,07,08,09,10,11,12,1.0,1.0,1.0*30
$GPRMC,130802.357,A,5545.144,N,03746.123,E,009.7,147.6,060722,000.0,W*7E
$GPGGA,130803.357,5545.141,N,03746.125,E,1,12,1.0,0.0,M,0.0,M,,*63
$GPGSA,A,3,01,02,03,04,05,06,07,08,09,10,11,12,1.0,1.0,1.0*30
$GPRMC,130803.357,A,5545.141,N,03746.125,E,009.7,147.6,060722,000.0,W*7C
$GPGGA,130804.357,5545.139,N,03746.127,E,1,12,1.0,0.0,M,0.0,M,,*69
$GPGSA,A,3,01,02,03,04,05,06,07,08,09,10,11,12,1.0,1.0,1.0*30
$GPRMC,130804.357,A,5545.139,N,03746.127,E,009.7,147.6,060722,000.0,W*76
$GPGGA,130805.357,5545.136,N,03746.128,E,1,12,1.0,0.0,M,0.0,M,,*68
$GPGSA,A,3,01,02,03,04,05,06,07,08,09,10,11,12,1.0,1.0,1.0*30
$GPRMC,130805.357,A,5545.136,N,03746.128,E,009.7,147.6,060722,000.0,W*77
$GPGGA,130806.357,5545.134,N,03746.130,E,1,12,1.0,0.0,M,0.0,M,,*60
$GPGSA,A,3,01,02,03,04,05,06,07,08,09,10,11,12,1.0,1.0,1.0*30
$GPRMC,130806.357,A,5545.134,N,03746.130,E,009.7,147.6,060722,000.0,W*7F
$GPGGA,130807.357,5545.131,N,03746.131,E,1,12,1.0,0.0,M,0.0,M,,*65
$GPGSA,A,3,01,02,03,04,05,06,07,08,09,10,11,12,1.0,1.0,1.0*30
$GPRMC,130807.357,A,5545.131,N,03746.131,E,009.7,147.6,060722,000.0,W*7A
$GPGGA,130808.357,5545.128,N,03746.133,E,1,12,1.0,0.0,M,0.0,M,,*60
$GPGSA,A,3,01,02,03,04,05,06,07,08,09,10,11,12,1.0,1.0,1.0*30
$GPRMC,130808.357,A,5545.128,N,03746.133,E,009.7,147.6,060722,000.0,W*7F
$GPGGA,130809.357,5545.126,N,03746.135,E,1,12,1.0,0.0,M,0.0,M,,*69
$GPGSA,A,3,01,02,03,04,05,06,07,08,09,10,11,12,1.0,1.0,1.0*30
$GPRMC,130809.357,A,5545.126,N,03746.135,E,009.7,147.6,060722,000.0,W*76
$GPGGA,130810.357,5545.123,N,03746.136,E,1,12,1.0,0.0,M,0.0,M,,*67
$GPGSA,A,3,01,02,03,04,05,06,07,08,09,10,11,12,1.0,1.0,1.0*30
$GPRMC,130810.357,A,5545.123,N,03746.136,E,009.7,147.6,060722,000.0,W*78
$GPGGA,130811.357,5545.121,N,03746.138,E,1,12,1.0,0.0,M,0.0,M,,*6A
$GPGSA,A,3,01,02,03,04,05,06,07,08,09,10,11,12,1.0,1.0,1.0*30
$GPRMC,130811.357,A,5545.121,N,03746.138,E,009.7,147.6,060722,000.0,W*75
$GPGGA,130812.357,5545.118,N,03746.139,E,1,12,1.0,0.0,M,0.0,M,,*62
$GPGSA,A,3,01,02,03,04,05,06,07,08,09,10,11,12,1.0,1.0,1.0*30
$GPRMC,130812.357,A,5545.118,N,03746.139,E,009.7,147.6,060722,000.0,W*7D
$GPGGA,130813.357,5545.116,N,03746.141,E,1,12,1.0,0.0,M,0.0,M,,*62
$GPGSA,A,3,01,02,03,04,05,06,07,08,09,10,11,12,1.0,1.0,1.0*30
$GPRMC,130813.357,A,5545.116,N,03746.141,E,009.7,147.6,060722,000.0,W*7D
$GPGGA,130814.357,5545.113,N,03746.143,E,1,12,1.0,0.0,M,0.0,M,,*62
$GPGSA,A,3,01,02,03,04,05,06,07,08,09,10,11,12,1.0,1.0,1.0*30
$GPRMC,130814.357,A,5545.113,N,03746.143,E,009.7,147.6,060722,000.0,W*7D
$GPGGA,130815.357,5545.111,N,03746.144,E,1,12,1.0,0.0,M,0.0,M,,*66
$GPGSA,A,3,01,02,03,04,05,06,07,08,09,10,11,12,1.0,1.0,1.0*30
$GPRMC,130815.357,A,5545.111,N,03746.144,E,009.7,147.6,060722,000.0,W*79
$GPGGA,130816.357,5545.108,N,03746.146,E,1,12,1.0,0.0,M,0.0,M,,*6F
$GPGSA,A,3,01,02,03,04,05,06,07,08,09,10,11,12,1.0,1.0,1.0*30
$GPRMC,130816.357,A,5545.108,N,03746.146,E,009.7,147.6,060722,000.0,W*70
$GPGGA,130817.357,5545.106,N,03746.148,E,1,12,1.0,0.0,M,0.0,M,,*6E
$GPGSA,A,3,01,02,03,04,05,06,07,08,09,10,11,12,1.0,1.0,1.0*30
$GPRMC,130817.357,A,5545.106,N,03746.148,E,009.7,147.6,060722,000.0,W*71
$GPGGA,130818.357,5545.103,N,03746.149,E,1,12,1.0,0.0,M,0.0,M,,*65
$GPGSA,A,3,01,02,03,04,05,06,07,08,09,10,11,12,1.0,1.0,1.0*30
$GPRMC,130818.357,A,5545.103,N,03746.149,E,009.7,147.6,060722,000.0,W*7A
$GPGGA,130819.357,5545.101,N,03746.151,E,1,12,1.0,0.0,M,0.0,M,,*6F
$GPGSA,A,3,01,02,03,04,05,06,07,08,09,10,11,12,1.0,1.0,1.0*30
$GPRMC,130819.357,A,5545.101,N,03746.151,E,009.7,147.6,060722,000.0,W*70
$GPGGA,130820.357,5545.098,N,03746.152,E,1,12,1.0,0.0,M,0.0,M,,*67
$GPGSA,A,3,01,02,03,04,05,06,07,08,09,10,11,12,1.0,1.0,1.0*30
$GPRMC,130820.357,A,5545.098,N,03746.152,E,009.7,147.6,060722,000.0,W*78
$GPGGA,130821.357,5545.095,N,03746.154,E,1,12,1.0,0.0,M,0.0,M,,*6D
$GPGSA,A,3,01,02,03,04,05,06,07,08,09,10,11,12,1.0,1.0,1.0*30
$GPRMC,130821.357,A,5545.095,N,03746.154,E,009.7,147.6,060722,000.0,W*72
$GPGGA,130822.357,5545.093,N,03746.156,E,1,12,1.0,0.0,M,0.0,M,,*6A
$GPGSA,A,3,01,02,03,04,05,06,07,08,09,10,11,12,1.0,1.0,1.0*30
$GPRMC,130822.357,A,5545.093,N,03746.156,E,009.7,147.6,060722,000.0,W*75
$GPGGA,130823.357,5545.090,N,03746.157,E,1,12,1.0,0.0,M,0.0,M,,*69
$GPGSA,A,3,01,02,03,04,05,06,07,08,09,10,11,12,1.0,1.0,1.0*30
$GPRMC,130823.357,A,5545.090,N,03746.157,E,009.7,147.6,060722,000.0,W*76
$GPGGA,130824.357,5545.088,N,03746.159,E,1,12,1.0,0.0,M,0.0,M,,*69
$GPGSA,A,3,01,02,03,04,05,06,07,08,09,10,11,12,1.0,1.0,1.0*30
$GPRMC,130824.357,A,5545.088,N,03746.159,E,009.7,147.6,060722,000.0,W*76
$GPGGA,130825.357,5545.085,N,03746.161,E,1,12,1.0,0.0,M,0.0,M,,*6E
$GPGSA,A,3,01,02,03,04,05,06,07,08,09,10,11,12,1.0,1.0,1.0*30
$GPRMC,130825.357,A,5545.085,N,03746.161,E,009.7,147.6,060722,000.0,W*71
$GPGGA,130826.357,5545.083,N,03746.162,E,1,12,1.0,0.0,M,0.0,M,,*68
$GPGSA,A,3,01,02,03,04,05,06,07,08,09,10,11,12,1.0,1.0,1.0*30
$GPRMC,130826.357,A,5545.083,N,03746.162,E,009.7,147.6,060722,000.0,W*77
$GPGGA,130827.357,5545.080,N,03746.164,E,1,12,1.0,0.0,M,0.0,M,,*6C
$GPGSA,A,3,01,02,03,04,05,06,07,08,09,10,11,12,1.0,1.0,1.0*30
$GPRMC,130827.357,A,5545.080,N,03746.164,E,009.7,147.6,060722,000.0,W*73
$GPGGA,130828.357,5545.078,N,03746.165,E,1,12,1.0,0.0,M,0.0,M,,*65
$GPGSA,A,3,01,02,03,04,05,06,07,08,09,10,11,12,1.0,1.0,1.0*30
$GPRMC,130828.357,A,5545.078,N,03746.165,E,009.7,147.6,060722,000.0,W*7A
$GPGGA,130829.357,5545.075,N,03746.167,E,1,12,1.0,0.0,M,0.0,M,,*6B
$GPGSA,A,3,01,02,03,04,05,06,07,08,09,10,11,12,1.0,1.0,1.0*30
$GPRMC,130829.357,A,5545.075,N,03746.167,E,009.7,147.6,060722,000.0,W*74
$GPGGA,130830.357,5545.073,N,03746.169,E,1,12,1.0,0.0,M,0.0,M,,*6B
$GPGSA,A,3,01,02,03,04,05,06,07,08,09,10,11,12,1.0,1.0,1.0*30
$GPRMC,130830.357,A,5545.073,N,03746.169,E,009.7,147.6,060722,000.0,W*74
$GPGGA,130831.357,5545.070,N,03746.170,E,1,12,1.0,0.0,M,0.0,M,,*61
$GPGSA,A,3,01,02,03,04,05,06,07,08,09,10,11,12,1.0,1.0,1.0*30
$GPRMC,130831.357,A,5545.070,N,03746.170,E,009.7,147.6,060722,000.0,W*7E
$GPGGA,130832.357,5545.068,N,03746.172,E,1,12,1.0,0.0,M,0.0,M,,*69
$GPGSA,A,3,01,02,03,04,05,06,07,08,09,10,11,12,1.0,1.0,1.0*30
$GPRMC,130832.357,A,5545.068,N,03746.172,E,009.7,147.6,060722,000.0,W*76
$GPGGA,130833.357,5545.065,N,03746.174,E,1,12,1.0,0.0,M,0.0,M,,*63
$GPGSA,A,3,01,02,03,04,05,06,07,08,09,10,11,12,1.0,1.0,1.0*30
$GPRMC,130833.357,A,5545.065,N,03746.174,E,009.7,147.6,060722,000.0,W*7C
$GPGGA,130834.357,5545.062,N,03746.175,E,1,12,1.0,0.0,M,0.0,M,,*62
$GPGSA,A,3,01,02,03,04,05,06,07,08,09,10,11,12,1.0,1.0,1.0*30
$GPRMC,130834.357,A,5545.062,N,03746.175,E,009.7,147.6,060722,000.0,W*7D
$GPGGA,130835.357,5545.060,N,03746.177,E,1,12,1.0,0.0,M,0.0,M,,*63
$GPGSA,A,3,01,02,03,04,05,06,07,08,09,10,11,12,1.0,1.0,1.0*30
$GPRMC,130835.357,A,5545.060,N,03746.177,E,009.7,147.6,060722,000.0,W*7C
$GPGGA,130836.357,5545.057,N,03746.178,E,1,12,1.0,0.0,M,0.0,M,,*6B
$GPGSA,A,3,01,02,03,04,05,06,07,08,09,10,11,12,1.0,1.0,1.0*30
$GPRMC,130836.357,A,5545.057,N,03746.178,E,009.7,147.6,060722,000.0,W*74
$GPGGA,130837.357,5545.055,N,03746.180,E,1,12,1.0,0.0,M,0.0,M,,*6F
$GPGSA,A,3,01,02,03,04,05,06,07,08,09,10,11,12,1.0,1.0,1.0*30
$GPRMC,130837.357,A,5545.055,N,03746.180,E,009.7,147.6,060722,000.0,W*70
$GPGGA,130838.357,5545.052,N,03746.182,E,1,12,1.0,0.0,M,0.0,M,,*65
$GPGSA,A,3,01,02,03,04,05,06,07,08,09,10,11,12,1.0,1.0,1.0*30
$GPRMC,130838.357,A,5545.052,N,03746.182,E,009.7,147.6,060722,000.0,W*7A
$GPGGA,130839.357,5545.050,N,03746.183,E,1,12,1.0,0.0,M,0.0,M,,*67
$GPGSA,A,3,01,02,03,04,05,06,07,08,09,10,11,12,1.0,1.0,1.0*30
$GPRMC,130839.357,A,5545.050,N,03746.183,E,009.7,147.6,060722,000.0,W*78
$GPGGA,130840.357,5545.047,N,03746.185,E,1,12,1.0,0.0,M,0.0,M,,*69
$GPGSA,A,3,01,02,03,04,05,06,07,08,09,10,11,12,1.0,1.0,1.0*30
$GPRMC,130840.357,A,5545.047,N,03746.185,E,009.7,147.6,060722,000.0,W*76
$GPGGA,130841.357,5545.045,N,03746.186,E,1,12,1.0,0.0,M,0.0,M,,*69
$GPGSA,A,3,01,02,03,04,05,06,07,08,09,10,11,12,1.0,1.0,1.0*30
$GPRMC,130841.357,A,5545.045,N,03746.186,E,009.7,147.6,060722,000.0,W*76
$GPGGA,130842.357,5545.042,N,03746.188,E,1,12,1.0,0.0,M,0.0,M,,*63
$GPGSA,A,3,01,02,03,04,05,06,07,08,09,10,11,12,1.0,1.0,1.0*30
$GPRMC,130842.357,A,5545.042,N,03746.188,E,009.7,147.6,060722,000.0,W*7C
$GPGGA,130843.357,5545.040,N,03746.190,E,1,12,1.0,0.0,M,0.0,M,,*69
$GPGSA,A,3,01,02,03,04,05,06,07,08,09,10,11,12,1.0,1.0,1.0*30
$GPRMC,130843.357,A,5545.040,N,03746.190,E,009.7,147.6,060722,000.0,W*76
$GPGGA,130844.357,5545.037,N,03746.191,E,1,12,1.0,0.0,M,0.0,M,,*6F
$GPGSA,A,3,01,02,03,04,05,06,07,08,09,10,11,12,1.0,1.0,1.0*30
$GPRMC,130844.357,A,5545.037,N,03746.191,E,009.7,147.6,060722,000.0,W*70
$GPGGA,130845.357,5545.035,N,03746.193,E,1,12,1.0,0.0,M,0.0,M,,*6E
$GPGSA,A,3,01,02,03,04,05,06,07,08,09,10,11,12,1.0,1.0,1.0*30
$GPRMC,130845.357,A,5545.035,N,03746.193,E,009.7,147.6,060722,000.0,W*71
$GPGGA,130846.357,5545.032,N,03746.195,E,1,12,1.0,0.0,M,0.0,M,,*6C
$GPGSA,A,3,01,02,03,04,05,06,07,08,09,10,11,12,1.0,1.0,1.0*30
$GPRMC,130846.357,A,5545.032,N,03746.195,E,009.7,147.6,060722,000.0,W*73
$GPGGA,130847.357,5545.029,N,03746.196,E,1,12,1.0,0.0,M,0.0,M,,*64
$GPGSA,A,3,01,02,03,04,05,06,07,08,09,10,11,12,1.0,1.0,1.0*30
$GPRMC,130847.357,A,5545.029,N,03746.196,E,009.7,147.6,060722,000.0,W*7B
$GPGGA,130848.357,5545.027,N,03746.198,E,1,12,1.0,0.0,M,0.0,M,,*6B
$GPGSA,A,3,01,02,03,04,05,06,07,08,09,10,11,12,1.0,1.0,1.0*30
$GPRMC,130848.357,A,5545.027,N,03746.198,E,009.7,147.6,060722,000.0,W*74
$GPGGA,130849.357,5545.024,N,03746.199,E,1,12,1.0,0.0,M,0.0,M,,*68
$GPGSA,A,3,01,02,03,04,05,06,07,08,09,10,11,12,1.0,1.0,1.0*30
$GPRMC,130849.357,A,5545.024,N,03746.199,E,009.7,147.6,060722,000.0,W*77
$GPGGA,130850.357,5545.022,N,03746.201,E,1,12,1.0,0.0,M,0.0,M,,*64
$GPGSA,A,3,01,02,03,04,05,06,07,08,09,10,11,12,1.0,1.0,1.0*30
$GPRMC,130850.357,A,5545.022,N,03746.201,E,009.7,147.6,060722,000.0,W*7B
$GPGGA,130851.357,5545.019,N,03746.203,E,1,12,1.0,0.0,M,0.0,M,,*6F
$GPGSA,A,3,01,02,03,04,05,06,07,08,09,10,11,12,1.0,1.0,1.0*30
$GPRMC,130851.357,A,5545.019,N,03746.203,E,009.7,147.6,060722,000.0,W*70
$GPGGA,130852.357,5545.017,N,03746.204,E,1,12,1.0,0.0,M,0.0,M,,*65
$GPGSA,A,3,01,02,03,04,05,06,07,08,09,10,11,12,1.0,1.0,1.0*30
$GPRMC,130852.357,A,5545.017,N,03746.204,E,009.7,147.6,060722,000.0,W*7A
$GPGGA,130853.357,5545.014,N,03746.206,E,1,12,1.0,0.0,M,0.0,M,,*65
$GPGSA,A,3,01,02,03,04,05,06,07,08,09,10,11,12,1.0,1.0,1.0*30
$GPRMC,130853.357,A,5545.014,N,03746.206,E,009.7,147.6,060722,000.0,W*7A
$GPGGA,130854.357,5545.012,N,03746.208,E,1,12,1.0,0.0,M,0.0,M,,*6A
$GPGSA,A,3,01,02,03,04,05,06,07,08,09,10,11,12,1.0,1.0,1.0*30
$GPRMC,130854.357,A,5545.012,N,03746.208,E,009.7,147.6,060722,000.0,W*75
$GPGGA,130855.357,5545.009,N,03746.209,E,1,12,1.0,0.0,M,0.0,M,,*60
$GPGSA,A,3,01,02,03,04,05,06,07,08,09,10,11,12,1.0,1.0,1.0*30
$GPRMC,130855.357,A,5545.009,N,03746.209,E,009.7,147.6,060722,000.0,W*7F
$GPGGA,130856.357,5545.007,N,03746.211,E,1,12,1.0,0.0,M,0.0,M,,*64
$GPGSA,A,3,01,02,03,04,05,06,07,08,09,10,11,12,1.0,1.0,1.0*30
$GPRMC,130856.357,A,5545.007,N,03746.211,E,009.7,147.6,060722,000.0,W*7B
$GPGGA,130857.357,5545.004,N,03746.212,E,1,12,1.0,0.0,M,0.0,M,,*65
$GPGSA,A,3,01,02,03,04,05,06,07,08,09,10,11,12,1.0,1.0,1.0*30
$GPRMC,130857.357,A,5545.004,N,03746.212,E,009.7,147.6,060722,000.0,W*7A
$GPGGA,130858.357,5545.002,N,03746.214,E,1,12,1.0,0.0,M,0.0,M,,*6A
$GPGSA,A,3,01,02,03,04,05,06,07,08,09,10,11,12,1.0,1.0,1.0*30
$GPRMC,130858.357,A,5545.002,N,03746.214,E,009.7,147.6,060722,000.0,W*75
$GPGGA,130859.357,5544.999,N,03746.216,E,1,12,1.0,0.0,M,0.0,M,,*63
$GPGSA,A,3,01,02,03,04,05,06,07,08,09,10,11,12,1.0,1.0,1.0*30
$GPRMC,130859.357,A,5544.999,N,03746.216,E,009.7,147.6,060722,000.0,W*7C
$GPGGA,130900.357,5544.996,N,03746.217,E,1,12,1.0,0.0,M,0.0,M,,*60
$GPGSA,A,3,01,02,03,04,05,06,07,08,09,10,11,12,1.0,1.0,1.0*30
$GPRMC,130900.357,A,5544.996,N,03746.217,E,009.7,147.6,060722,000.0,W*7F
$GPGGA,130901.357,5544.994,N,03746.219,E,1,12,1.0,0.0,M,0.0,M,,*6D
$GPGSA,A,3,01,02,03,04,05,06,07,08,09,10,11,12,1.0,1.0,1.0*30
$GPRMC,130901.357,A,5544.994,N,03746.219,E,009.7,147.6,060722,000.0,W*72
$GPGGA,130902.357,5544.991,N,03746.221,E,1,12,1.0,0.0,M,0.0,M,,*60
$GPGSA,A,3,01,02,03,04,05,06,07,08,09,10,11,12,1.0,1.0,1.0*30
$GPRMC,130902.357,A,5544.991,N,03746.221,E,009.7,147.6,060722,000.0,W*7F
$GPGGA,130903.357,5544.989,N,03746.222,E,1,12,1.0,0.0,M,0.0,M,,*6B
$GPGSA,A,3,01,02,03,04,05,06,07,08,09,10,11,12,1.0,1.0,1.0*30
$GPRMC,130903.357,A,5544.989,N,03746.222,E,009.7,147.6,060722,000.0,W*74
$GPGGA,130904.357,5544.986,N,03746.224,E,1,12,1.0,0.0,M,0.0,M,,*65
$GPGSA,A,3,01,02,03,04,05,06,07,08,09,10,11,12,1.0,1.0,1.0*30
$GPRMC,130904.357,A,5544.986,N,03746.224,E,009.7,147.6,060722,000.0,W*7A
$GPGGA,130905.357,5544.984,N,03746.225,E,1,12,1.0,0.0,M,0.0,M,,*67
$GPGSA,A,3,01,02,03,04,05,06,07,08,09,10,11,12,1.0,1.0,1.0*30
$GPRMC,130905.357,A,5544.984,N,03746.225,E,009.7,147.6,060722,000.0,W*78
$GPGGA,130906.357,5544.981,N,03746.227,E,1,12,1.0,0.0,M,0.0,M,,*63
$GPGSA,A,3,01,02,03,04,05,06,07,08,09,10,11,12,1.0,1.0,1.0*30
$GPRMC,130906.357,A,5544.981,N,03746.227,E,009.7,147.6,060722,000.0,W*7C
$GPGGA,130907.357,5544.979,N,03746.229,E,1,12,1.0,0.0,M,0.0,M,,*6B
$GPGSA,A,3,01,02,03,04,05,06,07,08,09,10,11,12,1.0,1.0,1.0*30
$GPRMC,130907.357,A,5544.979,N,03746.229,E,009.7,147.6,060722,000.0,W*74
$GPGGA,130908.357,5544.976,N,03746.230,E,1,12,1.0,0.0,M,0.0,M,,*63
$GPGSA,A,3,01,02,03,04,05,06,07,08,09,10,11,12,1.0,1.0,1.0*30
$GPRMC,130908.357,A,5544.976,N,03746.230,E,009.7,147.6,060722,000.0,W*7C
$GPGGA,130909.357,5544.974,N,03746.232,E,1,12,1.0,0.0,M,0.0,M,,*62
$GPGSA,A,3,01,02,03,04,05,06,07,08,09,10,11,12,1.0,1.0,1.0*30
$GPRMC,130909.357,A,5544.974,N,03746.232,E,009.7,147.6,060722,000.0,W*7D
$GPGGA,130910.357,5544.971,N,03746.234,E,1,12,1.0,0.0,M,0.0,M,,*69
$GPGSA,A,3,01,02,03,04,05,06,07,08,09,10,11,12,1.0,1.0,1.0*30
$GPRMC,130910.357,A,5544.971,N,03746.234,E,009.7,147.6,060722,000.0,W*76
$GPGGA,130911.357,5544.969,N,03746.235,E,1,12,1.0,0.0,M,0.0,M,,*60
$GPGSA,A,3,01,02,03,04,05,06,07,08,09,10,11,12,1.0,1.0,1.0*30
$GPRMC,130911.357,A,5544.969,N,03746.235,E,009.7,147.6,060722,000.0,W*7F
$GPGGA,130912.357,5544.966,N,03746.237,E,1,12,1.0,0.0,M,0.0,M,,*6E
$GPGSA,A,3,01,02,03,04,05,06,07,08,09,10,11,12,1.0,1.0,1.0*30
$GPRMC,130912.357,A,5544.966,N,03746.237,E,009.7,147.6,060722,000.0,W*71
$GPGGA,130913.357,5544.963,N,03746.238,E,1,12,1.0,0.0,M,0.0,M,,*65
$GPGSA,A,3,01,02,03,04,05,06,07,08,09,10,11,12,1.0,1.0,1.0*30
$GPRMC,130913.357,A,5544.963,N,03746.238,E,009.7,147.6,060722,000.0,W*7A
$GPGGA,130914.357,5544.961,N,03746.240,E,1,12,1.0,0.0,M,0.0,M,,*6F
$GPGSA,A,3,01,02,03,04,05,06,07,08,09,10,11,12,1.0,1.0,1.0*30
$GPRMC,130914.357,A,5544.961,N,03746.240,E,009.7,147.6,060722,000.0,W*70
$GPGGA,130915.357,5544.958,N,03746.242,E,1,12,1.0,0.0,M,0.0,M,,*66
$GPGSA,A,3,01,02,03,04,05,06,07,08,09,10,11,12,1.0,1.0,1.0*30
$GPRMC,130915.357,A,5544.958,N,03746.242,E,009.7,147.6,060722,000.0,W*79
$GPGGA,130916.357,5544.956,N,03746.243,E,1,12,1.0,0.0,M,0.0,M,,*6A
$GPGSA,A,3,01,02,03,04,05,06,07,08,09,10,11,12,1.0,1.0,1.0*30
$GPRMC,130916.357,A,5544.956,N,03746.243,E,009.7,147.6,060722,000.0,W*75
$GPGGA,130917.357,5544.953,N,03746.245,E,1,12,1.0,0.0,M,0.0,M,,*68
$GPGSA,A,3,01,02,03,04,05,06,07,08,09,10,11,12,1.0,1.0,1.0*30
$GPRMC,130917.357,A,5544.953,N,03746.245,E,009.7,147.6,060722,000.0,W*77
$GPGGA,130918.357,5544.951,N,03746.246,E,1,12,1.0,0.0,M,0.0,M,,*66
$GPGSA,A,3,01,02,03,04,05,06,07,08,09,10,11,12,1.0,1.0,1.0*30
$GPRMC,130918.357,A,5544.951,N,03746.246,E,009.7,147.6,060722,000.0,W*79
$GPGGA,130919.357,5544.948,N,03746.248,E,1,12,1.0,0.0,M,0.0,M,,*61
$GPGSA,A,3,01,02,03,04,05,06,07,08,09,10,11,12,1.0,1.0,1.0*30
$GPRMC,130919.357,A,5544.948,N,03746.248,E,009.7,147.6,060722,000.0,W*7E
$GPGGA,130920.357,5544.946,N,03746.250,E,1,12,1.0,0.0,M,0.0,M,,*6C
$GPGSA,A,3,01,02,03,04,05,06,07,08,09,10,11,12,1.0,1.0,1.0*30
$GPRMC,130920.357,A,5544.946,N,03746.250,E,009.7,147.6,060722,000.0,W*73
$GPGGA,130921.357,5544.943,N,03746.251,E,1,12,1.0,0.0,M,0.0,M,,*69
$GPGSA,A,3,01,02,03,04,05,06,07,08,09,10,11,12,1.0,1.0,1.0*30
$GPRMC,130921.357,A,5544.943,N,03746.251,E,009.7,147.6,060722,000.0,W*76
$GPGGA,130922.357,5544.941,N,03746.253,E,1,12,1.0,0.0,M,0.0,M,,*6A
$GPGSA,A,3,01,02,03,04,05,06,07,08,09,10,11,12,1.0,1.0,1.0*30
$GPRMC,130922.357,A,5544.941,N,03746.253,E,009.7,147.6,060722,000.0,W*75
$GPGGA,130923.357,5544.938,N,03746.255,E,1,12,1.0,0.0,M,0.0,M,,*63
$GPGSA,A,3,01,02,03,04,05,06,07,08,09,10,11,12,1.0,1.0,1.0*30
$GPRMC,130923.357,A,5544.938,N,03746.255,E,009.7,147.6,060722,000.0,W*7C
$GPGGA,130924.357,5544.936,N,03746.256,E,1,12,1.0,0.0,M,0.0,M,,*69
$GPGSA,A,3,01,02,03,04,05,06,07,08,09,10,11,12,1.0,1.0,1.0*30
$GPRMC,130924.357,A,5544.936,N,03746.256,E,009.7,147.6,060722,000.0,W*76
$GPGGA,130925.357,5544.933,N,03746.258,E,1,12,1.0,0.0,M,0.0,M,,*63
$GPGSA,A,3,01,02,03,04,05,06,07,08,09,10,11,12,1.0,1.0,1.0*30
$GPRMC,130925.357,A,5544.933,N,03746.258,E,009.7,147.6,060722,000.0,W*7C
$GPGGA,130926.357,5544.930,N,03746.259,E,1,12,1.0,0.0,M,0.0,M,,*62
$GPGSA,A,3,01,02,03,04,05,06,07,08,09,10,11,12,1.0,1.0,1.0*30
$GPRMC,130926.357,A,5544.930,N,03746.259,E,009.7,147.6,060722,000.0,W*7D
$GPGGA,130927.357,5544.928,N,03746.261,E,1,12,1.0,0.0,M,0.0,M,,*61
$GPGSA,A,3,01,02,03,04,05,06,07,08,09,10,11,12,1.0,1.0,1.0*30
$GPRMC,130927.357,A,5544.928,N,03746.261,E,009.7,147.6,060722,000.0,W*7E
$GPGGA,130928.357,5544.925,N,03746.263,E,1,12,1.0,0.0,M,0.0,M,,*61
$GPGSA,A,3,01,02,03,04,05,06,07,08,09,10,11,12,1.0,1.0,1.0*30
$GPRMC,130928.357,A,5544.925,N,03746.263,E,009.7,258.9,060722,000.0,W*7C
$GPGGA,130929.357,5544.924,N,03746.258,E,1,12,1.0,0.0,M,0.0,M,,*69
$GPGSA,A,3,01,02,03,04,05,06,07,08,09,10,11,12,1.0,1.0,1.0*30
$GPRMC,130929.357,A,5544.924,N,03746.258,E,009.7,258.9,060722,000.0,W*74
$GPGGA,130930.357,5544.924,N,03746.254,E,1,12,1.0,0.0,M,0.0,M,,*6D
$GPGSA,A,3,01,02,03,04,05,06,07,08,09,10,11,12,1.0,1.0,1.0*30
$GPRMC,130930.357,A,5544.924,N,03746.254,E,009.7,258.9,060722,000.0,W*70
$GPGGA,130931.357,5544.923,N,03746.249,E,1,12,1.0,0.0,M,0.0,M,,*67
$GPGSA,A,3,01,02,03,04,05,06,07,08,09,10,11,12,1.0,1.0,1.0*30
$GPRMC,130931.357,A,5544.923,N,03746.249,E,009.7,258.9,060722,000.0,W*7A
$GPGGA,130932.357,5544.922,N,03746.245,E,1,12,1.0,0.0,M,0.0,M,,*69
$GPGSA,A,3,01,02,03,04,05,06,07,08,09,10,11,12,1.0,1.0,1.0*30
$GPRMC,130932.357,A,5544.922,N,03746.245,E,009.7,258.9,060722,000.0,W*74
$GPGGA,130933.357,5544.921,N,03746.240,E,1,12,1.0,0.0,M,0.0,M,,*6E
$GPGSA,A,3,01,02,03,04,05,06,07,08,09,10,11,12,1.0,1.0,1.0*30
$GPRMC,130933.357,A,5544.921,N,03746.240,E,009.7,258.9,060722,000.0,W*73
$GPGGA,130934.357,5544.920,N,03746.236,E,1,12,1.0,0.0,M,0.0,M,,*69
$GPGSA,A,3,01,02,03,04,05,06,07,08,09,10,11,12,1.0,1.0,1.0*30
$GPRMC,130934.357,A,5544.920,N,03746.236,E,009.7,258.9,060722,000.0,W*74
$GPGGA,130935.357,5544.919,N,03746.231,E,1,12,1.0,0.0,M,0.0,M,,*65
$GPGSA,A,3,01,02,03,04,05,06,07,08,09,10,11,12,1.0,1.0,1.0*30
$GPRMC,130935.357,A,5544.919,N,03746.231,E,009.7,258.9,060722,000.0,W*78
$GPGGA,130936.357,5544.918,N,03746.226,E,1,12,1.0,0.0,M,0.0,M,,*61
$GPGSA,A,3,01,02,03,04,05,06,07,08,09,10,11,12,1.0,1.0,1.0*30
$GPRMC,130936.357,A,5544.918,N,03746.226,E,009.7,258.9,060722,000.0,W*7C
$GPGGA,130937.357,5544.917,N,03746.222,E,1,12,1.0,0.0,M,0.0,M,,*6B
$GPGSA,A,3,01,02,03,04,05,06,07,08,09,10,11,12,1.0,1.0,1.0*30
$GPRMC,130937.357,A,5544.917,N,03746.222,E,009.7,258.9,060722,000.0,W*76
$GPGGA,130938.357,5544.917,N,03746.217,E,1,12,1.0,0.0,M,0.0,M,,*62
$GPGSA,A,3,01,02,03,04,05,06,07,08,09,10,11,12,1.0,1.0,1.0*30
$GPRMC,130938.357,A,5544.917,N,03746.217,E,009.7,258.9,060722,000.0,W*7F
$GPGGA,130939.357,5544.916,N,03746.213,E,1,12,1.0,0.0,M,0.0,M,,*66
$GPGSA,A,3,01,02,03,04,05,06,07,08,09,10,11,12,1.0,1.0,1.0*30
$GPRMC,130939.357,A,5544.916,N,03746.213,E,009.7,258.9,060722,000.0,W*7B
$GPGGA,130940.357,5544.915,N,03746.208,E,1,12,1.0,0.0,M,0.0,M,,*61
$GPGSA,A,3,01,02,03,04,05,06,07,08,09,10,11,12,1.0,1.0,1.0*30
$GPRMC,130940.357,A,5544.915,N,03746.208,E,009.7,258.9,060722,000.0,W*7C
$GPGGA,130941.357,5544.914,N,03746.204,E,1,12,1.0,0.0,M,0.0,M,,*6D
$GPGSA,A,3,01,02,03,04,05,06,07,08,09,10,11,12,1.0,1.0,1.0*30
$GPRMC,130941.357,A,5544.914,N,03746.204,E,009.7,258.9,060722,000.0,W*70
$GPGGA,130942.357,5544.913,N,03746.199,E,1,12,1.0,0.0,M,0.0,M,,*6E
$GPGSA,A,3,01,02,03,04,05,06,07,08,09,10,11,12,1.0,1.0,1.0*30
$GPRMC,130942.357,A,5544.913,N,03746.199,E,009.7,258.9,060722,000.0,W*73
$GPGGA,130943.357,5544.912,N,03746.195,E,1,12,1.0,0.0,M,0.0,M,,*62
$GPGSA,A,3,01,02,03,04,05,06,07,08,09,10,11,12,1.0,1.0,1.0*30
$GPRMC,130943.357,A,5544.912,N,03746.195,E,009.7,258.9,060722,000.0,W*7F
$GPGGA,130944.357,5544.911,N,03746.190,E,1,12,1.0,0.0,M,0.0,M,,*63
$GPGSA,A,3,01,02,03,04,05,06,07,08,09,10,11,12,1.0,1.0,1.0*30
$GPRMC,130944.357,A,5544.911,N,03746.190,E,009.7,258.9,060722,000.0,W*7E
$GPGGA,130945.357,5544.910,N,03746.186,E,1,12,1.0,0.0,M,0.0,M,,*64
$GPGSA,A,3,01,02,03,04,05,06,07,08,09,10,11,12,1.0,1.0,1.0*30
$GPRMC,130945.357,A,5544.910,N,03746.186,E,009.7,258.9,060722,000.0,W*79
$GPGGA,130946.357,5544.909,N,03746.181,E,1,12,1.0,0.0,M,0.0,M,,*68
$GPGSA,A,3,01,02,03,04,05,06,07,08,09,10,11,12,1.0,1.0,1.0*30
$GPRMC,130946.357,A,5544.909,N,03746.181,E,009.7,258.9,060722,000.0,W*75
$GPGGA,130947.357,5544.909,N,03746.177,E,1,12,1.0,0.0,M,0.0,M,,*60
$GPGSA,A,3,01,02,03,04,05,06,07,08,09,10,11,12,1.0,1.0,1.0*30
$GPRMC,130947.357,A,5544.909,N,03746.177,E,009.7,258.9,060722,000.0,W*7D
$GPGGA,130948.357,5544.908,N,03746.172,E,1,12,1.0,0.0,M,0.0,M,,*6B
$GPGSA,A,3,01,02,03,04,05,06,07,08,09,10,11,12,1.0,1.0,1.0*30
$GPRMC,130948.357,A,5544.908,N,03746.172,E,009.7,258.9,060722,000.0,W*76
$GPGGA,130949.357,5544.907,N,03746.168,E,1,12,1.0,0.0,M,0.0,M,,*6E
$GPGSA,A,3,01,02,03,04,05,06,07,08,09,10,11,12,1.0,1.0,1.0*30
$GPRMC,130949.357,A,5544.907,N,03746.168,E,009.7,258.9,060722,000.0,W*73
$GPGGA,130950.357,5544.906,N,03746.163,E,1,12,1.0,0.0,M,0.0,M,,*6C
$GPGSA,A,3,01,02,03,04,05,06,07,08,09,10,11,12,1.0,1.0,1.0*30
$GPRMC,130950.357,A,5544.906,N,03746.163,E,009.7,258.9,060722,000.0,W*71
$GPGGA,130951.357,5544.905,N,03746.159,E,1,12,1.0,0.0,M,0.0,M,,*67
$GPGSA,A,3,01,02,03,04,05,06,07,08,09,10,11,12,1.0,1.0,1.0*30
$GPRMC,130951.357,A,5544.905,N,03746.159,E,009.7,258.9,060722,000.0,W*7A
$GPGGA,130952.357,5544.904,N,03746.154,E,1,12,1.0,0.0,M,0.0,M,,*68
$GPGSA,A,3,01,02,03,04,05,06,07,08,09,10,11,12,1.0,1.0,1.0*30
$GPRMC,130952.357,A,5544.904,N,03746.154,E,009.7,258.9,060722,000.0,W*75
$GPGGA,130953.357,5544.903,N,03746.150,E,1,12,1.0,0.0,M,0.0,M,,*6A
$GPGSA,A,3,01,02,03,04,05,06,07,08,09,10,11,12,1.0,1.0,1.0*30
$GPRMC,130953.357,A,5544.903,N,03746.150,E,009.7,258.9,060722,000.0,W*77
$GPGGA,130954.357,5544.902,N,03746.145,E,1,12,1.0,0.0,M,0.0,M,,*68
$GPGSA,A,3,01,02,03,04,05,06,07,08,09,10,11,12,1.0,1.0,1.0*30
$GPRMC,130954.357,A,5544.902,N,03746.145,E,009.7,258.9,060722,000.0,W*75
$GPGGA,130955.357,5544.901,N,03746.140,E,1,12,1.0,0.0,M,0.0,M,,*6F
$GPGSA,A,3,01,02,03,04,05,06,07,08,09,10,11,12,1.0,1.0,1.0*30
$GPRMC,130955.357,A,5544.901,N,03746.140,E,009.7,258.9,060722,000.0,W*72
$GPGGA,130956.357,5544.901,N,03746.136,E,1,12,1.0,0.0,M,0.0,M,,*6D
$GPGSA,A,3,01,02,03,04,05,06,07,08,09,10,11,12,1.0,1.0,1.0*30
$GPRMC,130956.357,A,5544.901,N,03746.136,E,009.7,258.9,060722,000.0,W*70
$GPGGA,130957.357,5544.900,N,03746.131,E,1,12,1.0,0.0,M,0.0,M,,*6A
$GPGSA,A,3,01,02,03,04,05,06,07,08,09,10,11,12,1.0,1.0,1.0*30
$GPRMC,130957.357,A,5544.900,N,03746.131,E,009.7,258.9,060722,000.0,W*77
$GPGGA,130958.357,5544.899,N,03746.127,E,1,12,1.0,0.0,M,0.0,M,,*63
$GPGSA,A,3,01,02,03,04,05,06,07,08,09,10,11,12,1.0,1.0,1.0*30
$GPRMC,130958.357,A,5544.899,N,03746.127,E,009.7,258.9,060722,000.0,W*7E
$GPGGA,130959.357,5544.898,N,03746.122,E,1,12,1.0,0.0,M,0.0,M,,*66
$GPGSA,A,3,01,02,03,04,05,06,07,08,09,10,11,12,1.0,1.0,1.0*30
$GPRMC,130959.357,A,5544.898,N,03746.122,E,009.7,258.9,060722,000.0,W*7B
$GPGGA,131000.357,5544.897,N,03746.118,E,1,12,1.0,0.0,M,0.0,M,,*64
$GPGSA,A,3,01,02,03,04,05,06,07,08,09,10,11,12,1.0,1.0,1.0*30
$GPRMC,131000.357,A,5544.897,N,03746.118,E,009.7,258.9,060722,000.0,W*79
$GPGGA,131001.357,5544.896,N,03746.113,E,1,12,1.0,0.0,M,0.0,M,,*6F
$GPGSA,A,3,01,02,03,04,05,06,07,08,09,10,11,12,1.0,1.0,1.0*30
$GPRMC,131001.357,A,5544.896,N,03746.113,E,009.7,258.9,060722,000.0,W*72
$GPGGA,131002.357,5544.895,N,03746.109,E,1,12,1.0,0.0,M,0.0,M,,*64
$GPGSA,A,3,01,02,03,04,05,06,07,08,09,10,11,12,1.0,1.0,1.0*30
$GPRMC,131002.357,A,5544.895,N,03746.109,E,009.7,258.9,060722,000.0,W*79
$GPGGA,131003.357,5544.894,N,03746.104,E,1,12,1.0,0.0,M,0.0,M,,*69
$GPGSA,A,3,01,02,03,04,05,06,07,08,09,10,11,12,1.0,1.0,1.0*30
$GPRMC,131003.357,A,5544.894,N,03746.104,E,009.7,258.9,060722,000.0,W*74
$GPGGA,131004.357,5544.893,N,03746.100,E,1,12,1.0,0.0,M,0.0,M,,*6D
$GPGSA,A,3,01,02,03,04,05,06,07,08,09,10,11,12,1.0,1.0,1.0*30
$GPRMC,131004.357,A,5544.893,N,03746.100,E,009.7,258.9,060722,000.0,W*70
$GPGGA,131005.357,5544.893,N,03746.095,E,1,12,1.0,0.0,M,0.0,M,,*61
$GPGSA,A,3,01,02,03,04,05,06,07,08,09,10,11,12,1.0,1.0,1.0*30
$GPRMC,131005.357,A,5544.893,N,03746.095,E,009.7,258.9,060722,000.0,W*7C
$GPGGA,131006.357,5544.892,N,03746.091,E,1,12,1.0,0.0,M,0.0,M,,*67
$GPGSA,A,3,01,02,03,04,05,06,07,08,09,10,11,12,1.0,1.0,1.0*30
$GPRMC,131006.357,A,5544.892,N,03746.091,E,009.7,258.9,060722,000.0,W*7A
$GPGGA,131007.357,5544.891,N,03746.086,E,1,12,1.0,0.0,M,0.0,M,,*63
$GPGSA,A,3,01,02,03,04,05,06,07,08,09,10,11,12,1.0,1.0,1.0*30
$GPRMC,131007.357,A,5544.891,N,03746.086,E,009.7,258.9,060722,000.0,W*7E
$GPGGA,131008.357,5544.890,N,03746.082,E,1,12,1.0,0.0,M,0.0,M,,*69
$GPGSA,A,3,01,02,03,04,05,06,07,08,09,10,11,12,1.0,1.0,1.0*30
$GPRMC,131008.357,A,5544.890,N,03746.082,E,009.7,258.9,060722,000.0,W*74
$GPGGA,131009.357,5544.889,N,03746.077,E,1,12,1.0,0.0,M,0.0,M,,*6A
$GPGSA,A,3,01,02,03,04,05,06,07,08,09,10,11,12,1.0,1.0,1.0*30
$GPRMC,131009.357,A,5544.889,N,03746.077,E,009.7,258.9,060722,000.0,W*77
$GPGGA,131010.357,5544.888,N,03746.073,E,1,12,1.0,0.0,M,0.0,M,,*67
$GPGSA,A,3,01,02,03,04,05,06,07,08,09,10,11,12,1.0,1.0,1.0*30
$GPRMC,131010.357,A,5544.888,N,03746.073,E,009.7,258.9,060722,000.0,W*7A
$GPGGA,131011.357,5544.887,N,03746.068,E,1,12,1.0,0.0,M,0.0,M,,*63
$GPGSA,A,3,01,02,03,04,05,06,07,08,09,10,11,12,1.0,1.0,1.0*30
$GPRMC,131011.357,A,5544.887,N,03746.068,E,009.7,258.9,060722,000.0,W*7E
$GPGGA,131012.357,5544.886,N,03746.064,E,1,12,1.0,0.0,M,0.0,M,,*6D
$GPGSA,A,3,01,02,03,04,05,06,07,08,09,10,11,12,1.0,1.0,1.0*30
$GPRMC,131012.357,A,5544.886,N,03746.064,E,009.7,258.9,060722,000.0,W*70
$GPGGA,131013.357,5544.885,N,03746.059,E,1,12,1.0,0.0,M,0.0,M,,*61
$GPGSA,A,3,01,02,03,04,05,06,07,08,09,10,11,12,1.0,1.0,1.0*30
$GPRMC,131013.357,A,5544.885,N,03746.059,E,009.7,258.9,060722,000.0,W*7C
$GPGGA,131014.357,5544.885,N,03746.054,E,1,12,1.0,0.0,M,0.0,M,,*6B
$GPGSA,A,3,01,02,03,04,05,06,07,08,09,10,11,12,1.0,1.0,1.0*30
$GPRMC,131014.357,A,5544.885,N,03746.054,E,009.7,258.9,060722,000.0,W*76
$GPGGA,131015.357,5544.884,N,03746.050,E,1,12,1.0,0.0,M,0.0,M,,*6F
$GPGSA,A,3,01,02,03,04,05,06,07,08,09,10,11,12,1.0,1.0,1.0*30
$GPRMC,131015.357,A,5544.884,N,03746.050,E,009.7,258.9,060722,000.0,W*72
$GPGGA,131016.357,5544.883,N,03746.045,E,1,12,1.0,0.0,M,0.0,M,,*6F
$GPGSA,A,3,01,02,03,04,05,06,07,08,09,10,11,12,1.0,1.0,1.0*30
$GPRMC,131016.357,A,5544.883,N,03746.045,E,009.7,258.9,060722,000.0,W*72
$GPGGA,131017.357,5544.882,N,03746.041,E,1,12,1.0,0.0,M,0.0,M,,*6B
$GPGSA,A,3,01,02,03,04,05,06,07,08,09,10,11,12,1.0,1.0,1.0*30
$GPRMC,131017.357,A,5544.882,N,03746.041,E,009.7,258.9,060722,000.0,W*76
$GPGGA,131018.357,5544.881,N,03746.036,E,1,12,1.0,0.0,M,0.0,M,,*67
$GPGSA,A,3,01,02,03,04,05,06,07,08,09,10,11,12,1.0,1.0,1.0*30
$GPRMC,131018.357,A,5544.881,N,03746.036,E,009.7,258.9,060722,000.0,W*7A
$GPGGA,131019.357,5544.880,N,03746.032,E,1,12,1.0,0.0,M,0.0,M,,*63
$GPGSA,A,3,01,02,03,04,05,06,07,08,09,10,11,12,1.0,1.0,1.0*30
$GPRMC,131019.357,A,5544.880,N,03746.032,E,009.7,258.9,060722,000.0,W*7E
$GPGGA,131020.357,5544.879,N,03746.027,E,1,12,1.0,0.0,M,0.0,M,,*6B
$GPGSA,A,3,01,02,03,04,05,06,07,08,09,10,11,12,1.0,1.0,1.0*30
$GPRMC,131020.357,A,5544.879,N,03746.027,E,009.7,258.9,060722,000.0,W*76
$GPGGA,131021.357,5544.878,N,03746.023,E,1,12,1.0,0.0,M,0.0,M,,*6F
$GPGSA,A,3,01,02,03,04,05,06,07,08,09,10,11,12,1.0,1.0,1.0*30
$GPRMC,131021.357,A,5544.878,N,03746.023,E,009.7,258.9,060722,000.0,W*72
$GPGGA,131022.357,5544.877,N,03746.018,E,1,12,1.0,0.0,M,0.0,M,,*6B
$GPGSA,A,3,01,02,03,04,05,06,07,08,09,10,11,12,1.0,1.0,1.0*30
$GPRMC,131022.357,A,5544.877,N,03746.018,E,009.7,258.9,060722,000.0,W*76
$GPGGA,131023.357,5544.877,N,03746.014,E,1,12,1.0,0.0,M,0.0,M,,*66
$GPGSA,A,3,01,02,03,04,05,06,07,08,09,10,11,12,1.0,1.0,1.0*30
$GPRMC,131023.357,A,5544.877,N,03746.014,E,009.7,258.9,060722,000.0,W*7B
