$GPGGA,081358.100,5544.263,N,03745.980,E,1,12,1.0,0.0,M,0.0,M,,*6B
$GPGSA,A,3,01,02,03,04,05,06,07,08,09,10,11,12,1.0,1.0,1.0*30
$GPRMC,081358.100,A,5544.263,N,03745.980,E,003.9,082.9,190822,000.0,W*76
$GPGGA,081359.100,5544.263,N,03745.982,E,1,12,1.0,0.0,M,0.0,M,,*68
$GPGSA,A,3,01,02,03,04,05,06,07,08,09,10,11,12,1.0,1.0,1.0*30
$GPRMC,081359.100,A,5544.263,N,03745.982,E,003.9,082.9,190822,000.0,W*75
$GPGGA,081400.100,5544.263,N,03745.983,E,1,12,1.0,0.0,M,0.0,M,,*62
$GPGSA,A,3,01,02,03,04,05,06,07,08,09,10,11,12,1.0,1.0,1.0*30
$GPRMC,081400.100,A,5544.263,N,03745.983,E,003.9,082.9,190822,000.0,W*7F
$GPGGA,081401.100,5544.263,N,03745.985,E,1,12,1.0,0.0,M,0.0,M,,*65
$GPGSA,A,3,01,02,03,04,05,06,07,08,09,10,11,12,1.0,1.0,1.0*30
$GPRMC,081401.100,A,5544.263,N,03745.985,E,003.9,082.9,190822,000.0,W*78
$GPGGA,081402.100,5544.264,N,03745.987,E,1,12,1.0,0.0,M,0.0,M,,*63
$GPGSA,A,3,01,02,03,04,05,06,07,08,09,10,11,12,1.0,1.0,1.0*30
$GPRMC,081402.100,A,5544.264,N,03745.987,E,003.9,082.9,190822,000.0,W*7E
$GPGGA,081403.100,5544.264,N,03745.989,E,1,12,1.0,0.0,M,0.0,M,,*6C
$GPGSA,A,3,01,02,03,04,05,06,07,08,09,10,11,12,1.0,1.0,1.0*30
$GPRMC,081403.100,A,5544.264,N,03745.989,E,003.9,082.9,190822,000.0,W*71
$GPGGA,081404.100,5544.264,N,03745.991,E,1,12,1.0,0.0,M,0.0,M,,*62
$GPGSA,A,3,01,02,03,04,05,06,07,08,09,10,11,12,1.0,1.0,1.0*30
$GPRMC,081404.100,A,5544.264,N,03745.991,E,003.9,082.9,190822,000.0,W*7F
$GPGGA,081405.100,5544.264,N,03745.993,E,1,12,1.0,0.0,M,0.0,M,,*61
$GPGSA,A,3,01,02,03,04,05,06,07,08,09,10,11,12,1.0,1.0,1.0*30
$GPRMC,081405.100,A,5544.264,N,03745.993,E,003.9,082.9,190822,000.0,W*7C
$GPGGA,081406.100,5544.265,N,03745.995,E,1,12,1.0,0.0,M,0.0,M,,*65
$GPGSA,A,3,01,02,03,04,05,06,07,08,09,10,11,12,1.0,1.0,1.0*30
$GPRMC,081406.100,A,5544.265,N,03745.995,E,003.9,082.9,190822,000.0,W*78
$GPGGA,081407.100,5544.265,N,03745.997,E,1,12,1.0,0.0,M,0.0,M,,*66
$GPGSA,A,3,01,02,03,04,05,06,07,08,09,10,11,12,1.0,1.0,1.0*30
$GPRMC,081407.100,A,5544.265,N,03745.997,E,003.9,082.9,190822,000.0,W*7B
$GPGGA,081408.100,5544.265,N,03745.998,E,1,12,1.0,0.0,M,0.0,M,,*66
$GPGSA,A,3,01,02,03,04,05,06,07,08,09,10,11,12,1.0,1.0,1.0*30
$GPRMC,081408.100,A,5544.265,N,03745.998,E,003.9,082.9,190822,000.0,W*7B
$GPGGA,081409.100,5544.265,N,03746.000,E,1,12,1.0,0.0,M,0.0,M,,*6C
$GPGSA,A,3,01,02,03,04,05,06,07,08,09,10,11,12,1.0,1.0,1.0*30
$GPRMC,081409.100,A,5544.265,N,03746.000,E,003.9,082.9,190822,000.0,W*71
$GPGGA,081410.100,5544.265,N,03746.002,E,1,12,1.0,0.0,M,0.0,M,,*66
$GPGSA,A,3,01,02,03,04,05,06,07,08,09,10,11,12,1.0,1.0,1.0*30
$GPRMC,081410.100,A,5544.265,N,03746.002,E,003.9,082.9,190822,000.0,W*7B
$GPGGA,081411.100,5544.266,N,03746.004,E,1,12,1.0,0.0,M,0.0,M,,*62
$GPGSA,A,3,01,02,03,04,05,06,07,08,09,10,11,12,1.0,1.0,1.0*30
$GPRMC,081411.100,A,5544.266,N,03746.004,E,003.9,082.9,190822,000.0,W*7F
$GPGGA,081412.100,5544.266,N,03746.006,E,1,12,1.0,0.0,M,0.0,M,,*63
$GPGSA,A,3,01,02,03,04,05,06,07,08,09,10,11,12,1.0,1.0,1.0*30
$GPRMC,081412.100,A,5544.266,N,03746.006,E,003.9,082.9,190822,000.0,W*7E
$GPGGA,081413.100,5544.266,N,03746.008,E,1,12,1.0,0.0,M,0.0,M,,*6C
$GPGSA,A,3,01,02,03,04,05,06,07,08,09,10,11,12,1.0,1.0,1.0*30
$GPRMC,081413.100,A,5544.266,N,03746.008,E,003.9,082.9,190822,000.0,W*71
$GPGGA,081414.100,5544.266,N,03746.010,E,1,12,1.0,0.0,M,0.0,M,,*62
$GPGSA,A,3,01,02,03,04,05,06,07,08,09,10,11,12,1.0,1.0,1.0*30
$GPRMC,081414.100,A,5544.266,N,03746.010,E,003.9,082.9,190822,000.0,W*7F
$GPGGA,081415.100,5544.267,N,03746.012,E,1,12,1.0,0.0,M,0.0,M,,*60
$GPGSA,A,3,01,02,03,04,05,06,07,08,09,10,11,12,1.0,1.0,1.0*30
$GPRMC,081415.100,A,5544.267,N,03746.012,E,003.9,082.9,190822,000.0,W*7D
$GPGGA,081416.100,5544.267,N,03746.013,E,1,12,1.0,0.0,M,0.0,M,,*62
$GPGSA,A,3,01,02,03,04,05,06,07,08,09,10,11,12,1.0,1.0,1.0*30
$GPRMC,081416.100,A,5544.267,N,03746.013,E,003.9,082.9,190822,000.0,W*7F
$GPGGA,081417.100,5544.267,N,03746.015,E,1,12,1.0,0.0,M,0.0,M,,*65
$GPGSA,A,3,01,02,03,04,05,06,07,08,09,10,11,12,1.0,1.0,1.0*30
$GPRMC,081417.100,A,5544.267,N,03746.015,E,003.9,082.9,190822,000.0,W*78
$GPGGA,081418.100,5544.267,N,03746.017,E,1,12,1.0,0.0,M,0.0,M,,*68
$GPGSA,A,3,01,02,03,04,05,06,07,08,09,10,11,12,1.0,1.0,1.0*30
$GPRMC,081418.100,A,5544.267,N,03746.017,E,003.9,082.9,190822,000.0,W*75
$GPGGA,081419.100,5544.268,N,03746.019,E,1,12,1.0,0.0,M,0.0,M,,*68
$GPGSA,A,3,01,02,03,04,05,06,07,08,09,10,11,12,1.0,1.0,1.0*30
$GPRMC,081419.100,A,5544.268,N,03746.019,E,003.9,082.9,190822,000.0,W*75
$GPGGA,081420.100,5544.268,N,03746.021,E,1,12,1.0,0.0,M,0.0,M,,*69
$GPGSA,A,3,01,02,03,04,05,06,07,08,09,10,11,12,1.0,1.0,1.0*30
$GPRMC,081420.100,A,5544.268,N,03746.021,E,003.9,082.9,190822,000.0,W*74
$GPGGA,081421.100,5544.268,N,03746.023,E,1,12,1.0,0.0,M,0.0,M,,*6A
$GPGSA,A,3,01,02,03,04,05,06,07,08,09,10,11,12,1.0,1.0,1.0*30
$GPRMC,081421.100,A,5544.268,N,03746.023,E,003.9,082.9,190822,000.0,W*77
$GPGGA,081422.100,5544.268,N,03746.025,E,1,12,1.0,0.0,M,0.0,M,,*6F
$GPGSA,A,3,01,02,03,04,05,06,07,08,09,10,11,12,1.0,1.0,1.0*30
$GPRMC,081422.100,A,5544.268,N,03746.025,E,003.9,082.9,190822,000.0,W*72
$GPGGA,081423.100,5544.268,N,03746.027,E,1,12,1.0,0.0,M,0.0,M,,*6C
$GPGSA,A,3,01,02,03,04,05,06,07,08,09,10,11,12,1.0,1.0,1.0*30
$GPRMC,081423.100,A,5544.268,N,03746.027,E,003.9,082.9,190822,000.0,W*71
$GPGGA,081424.100,5544.269,N,03746.028,E,1,12,1.0,0.0,M,0.0,M,,*65
$GPGSA,A,3,01,02,03,04,05,06,07,08,09,10,11,12,1.0,1.0,1.0*30
$GPRMC,081424.100,A,5544.269,N,03746.028,E,003.9,082.9,190822,000.0,W*78
$GPGGA,081425.100,5544.269,N,03746.030,E,1,12,1.0,0.0,M,0.0,M,,*6D
$GPGSA,A,3,01,02,03,04,05,06,07,08,09,10,11,12,1.0,1.0,1.0*30
$GPRMC,081425.100,A,5544.269,N,03746.030,E,003.9,082.9,190822,000.0,W*70
$GPGGA,081426.100,5544.269,N,03746.032,E,1,12,1.0,0.0,M,0.0,M,,*6C
$GPGSA,A,3,01,02,03,04,05,06,07,08,09,10,11,12,1.0,1.0,1.0*30
$GPRMC,081426.100,A,5544.269,N,03746.032,E,003.9,082.9,190822,000.0,W*71
$GPGGA,081427.100,5544.269,N,03746.034,E,1,12,1.0,0.0,M,0.0,M,,*6B
$GPGSA,A,3,01,02,03,04,05,06,07,08,09,10,11,12,1.0,1.0,1.0*30
$GPRMC,081427.100,A,5544.269,N,03746.034,E,003.9,082.9,190822,000.0,W*76
$GPGGA,081428.100,5544.270,N,03746.036,E,1,12,1.0,0.0,M,0.0,M,,*6E
$GPGSA,A,3,01,02,03,04,05,06,07,08,09,10,11,12,1.0,1.0,1.0*30
$GPRMC,081428.100,A,5544.270,N,03746.036,E,003.9,082.9,190822,000.0,W*73
$GPGGA,081429.100,5544.270,N,03746.038,E,1,12,1.0,0.0,M,0.0,M,,*61
$GPGSA,A,3,01,02,03,04,05,06,07,08,09,10,11,12,1.0,1.0,1.0*30
$GPRMC,081429.100,A,5544.270,N,03746.038,E,003.9,082.9,190822,000.0,W*7C
$GPGGA,081430.100,5544.270,N,03746.040,E,1,12,1.0,0.0,M,0.0,M,,*66
$GPGSA,A,3,01,02,03,04,05,06,07,08,09,10,11,12,1.0,1.0,1.0*30
$GPRMC,081430.100,A,5544.270,N,03746.040,E,003.9,082.9,190822,000.0,W*7B
$GPGGA,081431.100,5544.270,N,03746.042,E,1,12,1.0,0.0,M,0.0,M,,*65
$GPGSA,A,3,01,02,03,04,05,06,07,08,09,10,11,12,1.0,1.0,1.0*30
$GPRMC,081431.100,A,5544.270,N,03746.042,E,003.9,082.9,190822,000.0,W*78
$GPGGA,081432.100,5544.271,N,03746.043,E,1,12,1.0,0.0,M,0.0,M,,*66
$GPGSA,A,3,01,02,03,04,05,06,07,08,09,10,11,12,1.0,1.0,1.0*30
$GPRMC,081432.100,A,5544.271,N,03746.043,E,003.9,082.9,190822,000.0,W*7B
$GPGGA,081433.100,5544.271,N,03746.045,E,1,12,1.0,0.0,M,0.0,M,,*61
$GPGSA,A,3,01,02,03,04,05,06,07,08,09,10,11,12,1.0,1.0,1.0*30
$GPRMC,081433.100,A,5544.271,N,03746.045,E,003.9,082.9,190822,000.0,W*7C
$GPGGA,081434.100,5544.271,N,03746.047,E,1,12,1.0,0.0,M,0.0,M,,*64
$GPGSA,A,3,01,02,03,04,05,06,07,08,09,10,11,12,1.0,1.0,1.0*30
$GPRMC,081434.100,A,5544.271,N,03746.047,E,003.9,082.9,190822,000.0,W*79
$GPGGA,081435.100,5544.271,N,03746.049,E,1,12,1.0,0.0,M,0.0,M,,*6B
$GPGSA,A,3,01,02,03,04,05,06,07,08,09,10,11,12,1.0,1.0,1.0*30
$GPRMC,081435.100,A,5544.271,N,03746.049,E,003.9,082.9,190822,000.0,W*76
$GPGGA,081436.100,5544.271,N,03746.051,E,1,12,1.0,0.0,M,0.0,M,,*61
$GPGSA,A,3,01,02,03,04,05,06,07,08,09,10,11,12,1.0,1.0,1.0*30
$GPRMC,081436.100,A,5544.271,N,03746.051,E,003.9,082.9,190822,000.0,W*7C
$GPGGA,081437.100,5544.272,N,03746.053,E,1,12,1.0,0.0,M,0.0,M,,*61
$GPGSA,A,3,01,02,03,04,05,06,07,08,09,10,11,12,1.0,1.0,1.0*30
$GPRMC,081437.100,A,5544.272,N,03746.053,E,003.9,082.9,190822,000.0,W*7C
$GPGGA,081438.100,5544.272,N,03746.055,E,1,12,1.0,0.0,M,0.0,M,,*68
$GPGSA,A,3,01,02,03,04,05,06,07,08,09,10,11,12,1.0,1.0,1.0*30
$GPRMC,081438.100,A,5544.272,N,03746.055,E,003.9,082.9,190822,000.0,W*75
$GPGGA,081439.100,5544.272,N,03746.057,E,1,12,1.0,0.0,M,0.0,M,,*6B
$GPGSA,A,3,01,02,03,04,05,06,07,08,09,10,11,12,1.0,1.0,1.0*30
$GPRMC,081439.100,A,5544.272,N,03746.057,E,003.9,082.9,190822,000.0,W*76
$GPGGA,081440.100,5544.272,N,03746.058,E,1,12,1.0,0.0,M,0.0,M,,*6A
$GPGSA,A,3,01,02,03,04,05,06,07,08,09,10,11,12,1.0,1.0,1.0*30
$GPRMC,081440.100,A,5544.272,N,03746.058,E,003.9,082.9,190822,000.0,W*77
$GPGGA,081441.100,5544.273,N,03746.060,E,1,12,1.0,0.0,M,0.0,M,,*61
$GPGSA,A,3,01,02,03,04,05,06,07,08,09,10,11,12,1.0,1.0,1.0*30
$GPRMC,081441.100,A,5544.273,N,03746.060,E,003.9,082.9,190822,000.0,W*7C
$GPGGA,081442.100,5544.273,N,03746.062,E,1,12,1.0,0.0,M,0.0,M,,*60
$GPGSA,A,3,01,02,03,04,05,06,07,08,09,10,11,12,1.0,1.0,1.0*30
$GPRMC,081442.100,A,5544.273,N,03746.062,E,003.9,082.9,190822,000.0,W*7D
$GPGGA,081443.100,5544.273,N,03746.064,E,1,12,1.0,0.0,M,0.0,M,,*67
$GPGSA,A,3,01,02,03,04,05,06,07,08,09,10,11,12,1.0,1.0,1.0*30
$GPRMC,081443.100,A,5544.273,N,03746.064,E,003.9,082.9,190822,000.0,W*7A
$GPGGA,081444.100,5544.273,N,03746.066,E,1,12,1.0,0.0,M,0.0,M,,*62
$GPGSA,A,3,01,02,03,04,05,06,07,08,09,10,11,12,1.0,1.0,1.0*30
$GPRMC,081444.100,A,5544.273,N,03746.066,E,003.9,082.9,190822,000.0,W*7F
$GPGGA,081445.100,5544.274,N,03746.068,E,1,12,1.0,0.0,M,0.0,M,,*6A
$GPGSA,A,3,01,02,03,04,05,06,07,08,09,10,11,12,1.0,1.0,1.0*30
$GPRMC,081445.100,A,5544.274,N,03746.068,E,003.9,082.9,190822,000.0,W*77
$GPGGA,081446.100,5544.274,N,03746.070,E,1,12,1.0,0.0,M,0.0,M,,*60
$GPGSA,A,3,01,02,03,04,05,06,07,08,09,10,11,12,1.0,1.0,1.0*30
$GPRMC,081446.100,A,5544.274,N,03746.070,E,003.9,082.9,190822,000.0,W*7D
$GPGGA,081447.100,5544.274,N,03746.072,E,1,12,1.0,0.0,M,0.0,M,,*63
$GPGSA,A,3,01,02,03,04,05,06,07,08,09,10,11,12,1.0,1.0,1.0*30
$GPRMC,081447.100,A,5544.274,N,03746.072,E,003.9,082.9,190822,000.0,W*7E
$GPGGA,081448.100,5544.274,N,03746.073,E,1,12,1.0,0.0,M,0.0,M,,*6D
$GPGSA,A,3,01,02,03,04,05,06,07,08,09,10,11,12,1.0,1.0,1.0*30
$GPRMC,081448.100,A,5544.274,N,03746.073,E,003.9,082.9,190822,000.0,W*70
$GPGGA,081449.100,5544.274,N,03746.075,E,1,12,1.0,0.0,M,0.0,M,,*6A
$GPGSA,A,3,01,02,03,04,05,06,07,08,09,10,11,12,1.0,1.0,1.0*30
$GPRMC,081449.100,A,5544.274,N,03746.075,E,003.9,082.9,190822,000.0,W*77
$GPGGA,081450.100,5544.275,N,03746.077,E,1,12,1.0,0.0,M,0.0,M,,*61
$GPGSA,A,3,01,02,03,04,05,06,07,08,09,10,11,12,1.0,1.0,1.0*30
$GPRMC,081450.100,A,5544.275,N,03746.077,E,003.9,082.9,190822,000.0,W*7C
$GPGGA,081451.100,5544.275,N,03746.079,E,1,12,1.0,0.0,M,0.0,M,,*6E
$GPGSA,A,3,01,02,03,04,05,06,07,08,09,10,11,12,1.0,1.0,1.0*30
$GPRMC,081451.100,A,5544.275,N,03746.079,E,003.9,082.9,190822,000.0,W*73
$GPGGA,081452.100,5544.275,N,03746.081,E,1,12,1.0,0.0,M,0.0,M,,*6A
$GPGSA,A,3,01,02,03,04,05,06,07,08,09,10,11,12,1.0,1.0,1.0*30
$GPRMC,081452.100,A,5544.275,N,03746.081,E,003.9,082.9,190822,000.0,W*77
$GPGGA,081453.100,5544.275,N,03746.083,E,1,12,1.0,0.0,M,0.0,M,,*69
$GPGSA,A,3,01,02,03,04,05,06,07,08,09,10,11,12,1.0,1.0,1.0*30
$GPRMC,081453.100,A,5544.275,N,03746.083,E,003.9,082.9,190822,000.0,W*74
$GPGGA,081454.100,5544.276,N,03746.085,E,1,12,1.0,0.0,M,0.0,M,,*6B
$GPGSA,A,3,01,02,03,04,05,06,07,08,09,10,11,12,1.0,1.0,1.0*30
$GPRMC,081454.100,A,5544.276,N,03746.085,E,003.9,082.9,190822,000.0,W*76
$GPGGA,081455.100,5544.276,N,03746.086,E,1,12,1.0,0.0,M,0.0,M,,*69
$GPGSA,A,3,01,02,03,04,05,06,07,08,09,10,11,12,1.0,1.0,1.0*30
$GPRMC,081455.100,A,5544.276,N,03746.086,E,003.9,082.9,190822,000.0,W*74
$GPGGA,081456.100,5544.276,N,03746.088,E,1,12,1.0,0.0,M,0.0,M,,*64
$GPGSA,A,3,01,02,03,04,05,06,07,08,09,10,11,12,1.0,1.0,1.0*30
$GPRMC,081456.100,A,5544.276,N,03746.088,E,003.9,082.9,190822,000.0,W*79
$GPGGA,081457.100,5544.276,N,03746.090,E,1,12,1.0,0.0,M,0.0,M,,*6C
$GPGSA,A,3,01,02,03,04,05,06,07,08,09,10,11,12,1.0,1.0,1.0*30
$GPRMC,081457.100,A,5544.276,N,03746.090,E,003.9,082.9,190822,000.0,W*71
$GPGGA,081458.100,5544.277,N,03746.092,E,1,12,1.0,0.0,M,0.0,M,,*60
$GPGSA,A,3,01,02,03,04,05,06,07,08,09,10,11,12,1.0,1.0,1.0*30
$GPRMC,081458.100,A,5544.277,N,03746.092,E,003.9,082.9,190822,000.0,W*7D
$GPGGA,081459.100,5544.277,N,03746.094,E,1,12,1.0,0.0,M,0.0,M,,*67
$GPGSA,A,3,01,02,03,04,05,06,07,08,09,10,11,12,1.0,1.0,1.0*30
$GPRMC,081459.100,A,5544.277,N,03746.094,E,003.9,082.9,190822,000.0,W*7A
$GPGGA,081500.100,5544.277,N,03746.096,E,1,12,1.0,0.0,M,0.0,M,,*68
$GPGSA,A,3,01,02,03,04,05,06,07,08,09,10,11,12,1.0,1.0,1.0*30
$GPRMC,081500.100,A,5544.277,N,03746.096,E,003.9,082.9,190822,000.0,W*75
$GPGGA,081501.100,5544.277,N,03746.098,E,1,12,1.0,0.0,M,0.0,M,,*67
$GPGSA,A,3,01,02,03,04,05,06,07,08,09,10,11,12,1.0,1.0,1.0*30
$GPRMC,081501.100,A,5544.277,N,03746.098,E,003.9,082.9,190822,000.0,W*7A
$GPGGA,081502.100,5544.277,N,03746.100,E,1,12,1.0,0.0,M,0.0,M,,*64
$GPGSA,A,3,01,02,03,04,05,06,07,08,09,10,11,12,1.0,1.0,1.0*30
$GPRMC,081502.100,A,5544.277,N,03746.100,E,003.9,082.9,190822,000.0,W*79
$GPGGA,081503.100,5544.278,N,03746.101,E,1,12,1.0,0.0,M,0.0,M,,*6B
$GPGSA,A,3,01,02,03,04,05,06,07,08,09,10,11,12,1.0,1.0,1.0*30
$GPRMC,081503.100,A,5544.278,N,03746.101,E,003.9,082.9,190822,000.0,W*76
$GPGGA,081504.100,5544.278,N,03746.103,E,1,12,1.0,0.0,M,0.0,M,,*6E
$GPGSA,A,3,01,02,03,04,05,06,07,08,09,10,11,12,1.0,1.0,1.0*30
$GPRMC,081504.100,A,5544.278,N,03746.103,E,003.9,082.9,190822,000.0,W*73
$GPGGA,081505.100,5544.278,N,03746.105,E,1,12,1.0,0.0,M,0.0,M,,*69
$GPGSA,A,3,01,02,03,04,05,06,07,08,09,10,11,12,1.0,1.0,1.0*30
$GPRMC,081505.100,A,5544.278,N,03746.105,E,003.9,082.9,190822,000.0,W*74
$GPGGA,081506.100,5544.278,N,03746.107,E,1,12,1.0,0.0,M,0.0,M,,*68
$GPGSA,A,3,01,02,03,04,05,06,07,08,09,10,11,12,1.0,1.0,1.0*30
$GPRMC,081506.100,A,5544.278,N,03746.107,E,003.9,082.9,190822,000.0,W*75
$GPGGA,081507.100,5544.279,N,03746.109,E,1,12,1.0,0.0,M,0.0,M,,*66
$GPGSA,A,3,01,02,03,04,05,06,07,08,09,10,11,12,1.0,1.0,1.0*30
$GPRMC,081507.100,A,5544.279,N,03746.109,E,003.9,082.9,190822,000.0,W*7B
$GPGGA,081508.100,5544.279,N,03746.111,E,1,12,1.0,0.0,M,0.0,M,,*60
$GPGSA,A,3,01,02,03,04,05,06,07,08,09,10,11,12,1.0,1.0,1.0*30
$GPRMC,081508.100,A,5544.279,N,03746.111,E,003.9,082.9,190822,000.0,W*7D
$GPGGA,081509.100,5544.279,N,03746.113,E,1,12,1.0,0.0,M,0.0,M,,*63
$GPGSA,A,3,01,02,03,04,05,06,07,08,09,10,11,12,1.0,1.0,1.0*30
$GPRMC,081509.100,A,5544.279,N,03746.113,E,003.9,082.9,190822,000.0,W*7E
$GPGGA,081510.100,5544.279,N,03746.115,E,1,12,1.0,0.0,M,0.0,M,,*6D
$GPGSA,A,3,01,02,03,04,05,06,07,08,09,10,11,12,1.0,1.0,1.0*30
$GPRMC,081510.100,A,5544.279,N,03746.115,E,003.9,082.9,190822,000.0,W*70
$GPGGA,081511.100,5544.280,N,03746.116,E,1,12,1.0,0.0,M,0.0,M,,*69
$GPGSA,A,3,01,02,03,04,05,06,07,08,09,10,11,12,1.0,1.0,1.0*30
$GPRMC,081511.100,A,5544.280,N,03746.116,E,003.9,082.9,190822,000.0,W*74
$GPGGA,081512.100,5544.280,N,03746.118,E,1,12,1.0,0.0,M,0.0,M,,*64
$GPGSA,A,3,01,02,03,04,05,06,07,08,09,10,11,12,1.0,1.0,1.0*30
$GPRMC,081512.100,A,5544.280,N,03746.118,E,003.9,082.9,190822,000.0,W*79
$GPGGA,081513.100,5544.280,N,03746.120,E,1,12,1.0,0.0,M,0.0,M,,*6E
$GPGSA,A,3,01,02,03,04,05,06,07,08,09,10,11,12,1.0,1.0,1.0*30
$GPRMC,081513.100,A,5544.280,N,03746.120,E,003.9,082.9,190822,000.0,W*73
$GPGGA,081514.100,5544.280,N,03746.122,E,1,12,1.0,0.0,M,0.0,M,,*6B
$GPGSA,A,3,01,02,03,04,05,06,07,08,09,10,11,12,1.0,1.0,1.0*30
$GPRMC,081514.100,A,5544.280,N,03746.122,E,003.9,082.9,190822,000.0,W*76
$GPGGA,081515.100,5544.280,N,03746.124,E,1,12,1.0,0.0,M,0.0,M,,*6C
$GPGSA,A,3,01,02,03,04,05,06,07,08,09,10,11,12,1.0,1.0,1.0*30
$GPRMC,081515.100,A,5544.280,N,03746.124,E,003.9,082.9,190822,000.0,W*71
$GPGGA,081516.100,5544.281,N,03746.126,E,1,12,1.0,0.0,M,0.0,M,,*6C
$GPGSA,A,3,01,02,03,04,05,06,07,08,09,10,11,12,1.0,1.0,1.0*30
$GPRMC,081516.100,A,5544.281,N,03746.126,E,003.9,082.9,190822,000.0,W*71
$GPGGA,081517.100,5544.281,N,03746.128,E,1,12,1.0,0.0,M,0.0,M,,*63
$GPGSA,A,3,01,02,03,04,05,06,07,08,09,10,11,12,1.0,1.0,1.0*30
$GPRMC,081517.100,A,5544.281,N,03746.128,E,003.9,082.9,190822,000.0,W*7E
$GPGGA,081518.100,5544.281,N,03746.130,E,1,12,1.0,0.0,M,0.0,M,,*65
$GPGSA,A,3,01,02,03,04,05,06,07,08,09,10,11,12,1.0,1.0,1.0*30
$GPRMC,081518.100,A,5544.281,N,03746.130,E,003.9,082.9,190822,000.0,W*78
$GPGGA,081519.100,5544.281,N,03746.131,E,1,12,1.0,0.0,M,0.0,M,,*65
$GPGSA,A,3,01,02,03,04,05,06,07,08,09,10,11,12,1.0,1.0,1.0*30
$GPRMC,081519.100,A,5544.281,N,03746.131,E,003.9,082.9,190822,000.0,W*78
$GPGGA,081520.100,5544.282,N,03746.133,E,1,12,1.0,0.0,M,0.0,M,,*6E
$GPGSA,A,3,01,02,03,04,05,06,07,08,09,10,11,12,1.0,1.0,1.0*30
$GPRMC,081520.100,A,5544.282,N,03746.133,E,003.9,082.9,190822,000.0,W*73
$GPGGA,081521.100,5544.282,N,03746.135,E,1,12,1.0,0.0,M,0.0,M,,*69
$GPGSA,A,3,01,02,03,04,05,06,07,08,09,10,11,12,1.0,1.0,1.0*30
$GPRMC,081521.100,A,5544.282,N,03746.135,E,003.9,082.9,190822,000.0,W*74
$GPGGA,081522.100,5544.282,N,03746.137,E,1,12,1.0,0.0,M,0.0,M,,*68
$GPGSA,A,3,01,02,03,04,05,06,07,08,09,10,11,12,1.0,1.0,1.0*30
$GPRMC,081522.100,A,5544.282,N,03746.137,E,003.9,082.9,190822,000.0,W*75
$GPGGA,081523.100,5544.282,N,03746.139,E,1,12,1.0,0.0,M,0.0,M,,*67
$GPGSA,A,3,01,02,03,04,05,06,07,08,09,10,11,12,1.0,1.0,1.0*30
$GPRMC,081523.100,A,5544.282,N,03746.139,E,003.9,082.9,190822,000.0,W*7A
$GPGGA,081524.100,5544.283,N,03746.141,E,1,12,1.0,0.0,M,0.0,M,,*6E
$GPGSA,A,3,01,02,03,04,05,06,07,08,09,10,11,12,1.0,1.0,1.0*30
$GPRMC,081524.100,A,5544.283,N,03746.141,E,003.9,082.9,190822,000.0,W*73
$GPGGA,081525.100,5544.283,N,03746.143,E,1,12,1.0,0.0,M,0.0,M,,*6D
$GPGSA,A,3,01,02,03,04,05,06,07,08,09,10,11,12,1.0,1.0,1.0*30
$GPRMC,081525.100,A,5544.283,N,03746.143,E,003.9,082.9,190822,000.0,W*70
$GPGGA,081526.100,5544.283,N,03746.145,E,1,12,1.0,0.0,M,0.0,M,,*68
$GPGSA,A,3,01,02,03,04,05,06,07,08,09,10,11,12,1.0,1.0,1.0*30
$GPRMC,081526.100,A,5544.283,N,03746.145,E,003.9,082.9,190822,000.0,W*75
$GPGGA,081527.100,5544.283,N,03746.146,E,1,12,1.0,0.0,M,0.0,M,,*6A
$GPGSA,A,3,01,02,03,04,05,06,07,08,09,10,11,12,1.0,1.0,1.0*30
$GPRMC,081527.100,A,5544.283,N,03746.146,E,003.9,082.9,190822,000.0,W*77
$GPGGA,081528.100,5544.283,N,03746.148,E,1,12,1.0,0.0,M,0.0,M,,*6B
$GPGSA,A,3,01,02,03,04,05,06,07,08,09,10,11,12,1.0,1.0,1.0*30
$GPRMC,081528.100,A,5544.283,N,03746.148,E,003.9,082.9,190822,000.0,W*76
$GPGGA,081529.100,5544.284,N,03746.150,E,1,12,1.0,0.0,M,0.0,M,,*64
$GPGSA,A,3,01,02,03,04,05,06,07,08,09,10,11,12,1.0,1.0,1.0*30
$GPRMC,081529.100,A,5544.284,N,03746.150,E,003.9,082.9,190822,000.0,W*79
$GPGGA,081530.100,5544.284,N,03746.152,E,1,12,1.0,0.0,M,0.0,M,,*6E
$GPGSA,A,3,01,02,03,04,05,06,07,08,09,10,11,12,1.0,1.0,1.0*30
$GPRMC,081530.100,A,5544.284,N,03746.152,E,003.9,082.9,190822,000.0,W*73
$GPGGA,081531.100,5544.284,N,03746.154,E,1,12,1.0,0.0,M,0.0,M,,*69
$GPGSA,A,3,01,02,03,04,05,06,07,08,09,10,11,12,1.0,1.0,1.0*30
$GPRMC,081531.100,A,5544.284,N,03746.154,E,003.9,082.9,190822,000.0,W*74
$GPGGA,081532.100,5544.284,N,03746.156,E,1,12,1.0,0.0,M,0.0,M,,*68
$GPGSA,A,3,01,02,03,04,05,06,07,08,09,10,11,12,1.0,1.0,1.0*30
$GPRMC,081532.100,A,5544.284,N,03746.156,E,003.9,082.9,190822,000.0,W*75
$GPGGA,081533.100,5544.285,N,03746.158,E,1,12,1.0,0.0,M,0.0,M,,*66
$GPGSA,A,3,01,02,03,04,05,06,07,08,09,10,11,12,1.0,1.0,1.0*30
$GPRMC,081533.100,A,5544.285,N,03746.158,E,003.9,082.9,190822,000.0,W*7B
$GPGGA,081534.100,5544.285,N,03746.160,E,1,12,1.0,0.0,M,0.0,M,,*6A
$GPGSA,A,3,01,02,03,04,05,06,07,08,09,10,11,12,1.0,1.0,1.0*30
$GPRMC,081534.100,A,5544.285,N,03746.160,E,003.9,082.9,190822,000.0,W*77
$GPGGA,081535.100,5544.285,N,03746.161,E,1,12,1.0,0.0,M,0.0,M,,*6A
$GPGSA,A,3,01,02,03,04,05,06,07,08,09,10,11,12,1.0,1.0,1.0*30
$GPRMC,081535.100,A,5544.285,N,03746.161,E,003.9,082.9,190822,000.0,W*77
$GPGGA,081536.100,5544.285,N,03746.163,E,1,12,1.0,0.0,M,0.0,M,,*6B
$GPGSA,A,3,01,02,03,04,05,06,07,08,09,10,11,12,1.0,1.0,1.0*30
$GPRMC,081536.100,A,5544.285,N,03746.163,E,003.9,082.9,190822,000.0,W*76
$GPGGA,081537.100,5544.286,N,03746.165,E,1,12,1.0,0.0,M,0.0,M,,*6F
$GPGSA,A,3,01,02,03,04,05,06,07,08,09,10,11,12,1.0,1.0,1.0*30
$GPRMC,081537.100,A,5544.286,N,03746.165,E,003.9,082.9,190822,000.0,W*72
$GPGGA,081538.100,5544.286,N,03746.167,E,1,12,1.0,0.0,M,0.0,M,,*62
$GPGSA,A,3,01,02,03,04,05,06,07,08,09,10,11,12,1.0,1.0,1.0*30
$GPRMC,081538.100,A,5544.286,N,03746.167,E,003.9,082.9,190822,000.0,W*7F
$GPGGA,081539.100,5544.286,N,03746.169,E,1,12,1.0,0.0,M,0.0,M,,*6D
$GPGSA,A,3,01,02,03,04,05,06,07,08,09,10,11,12,1.0,1.0,1.0*30
$GPRMC,081539.100,A,5544.286,N,03746.169,E,003.9,082.9,190822,000.0,W*70
$GPGGA,081540.100,5544.286,N,03746.171,E,1,12,1.0,0.0,M,0.0,M,,*6A
$GPGSA,A,3,01,02,03,04,05,06,07,08,09,10,11,12,1.0,1.0,1.0*30
$GPRMC,081540.100,A,5544.286,N,03746.171,E,003.9,082.9,190822,000.0,W*77
$GPGGA,081541.100,5544.286,N,03746.173,E,1,12,1.0,0.0,M,0.0,M,,*69
$GPGSA,A,3,01,02,03,04,05,06,07,08,09,10,11,12,1.0,1.0,1.0*30
$GPRMC,081541.100,A,5544.286,N,03746.173,E,003.9,082.9,190822,000.0,W*74
$GPGGA,081542.100,5544.287,N,03746.174,E,1,12,1.0,0.0,M,0.0,M,,*6C
$GPGSA,A,3,01,02,03,04,05,06,07,08,09,10,11,12,1.0,1.0,1.0*30
$GPRMC,081542.100,A,5544.287,N,03746.174,E,003.9,082.9,190822,000.0,W*71
$GPGGA,081543.100,5544.287,N,03746.176,E,1,12,1.0,0.0,M,0.0,M,,*6F
$GPGSA,A,3,01,02,03,04,05,06,07,08,09,10,11,12,1.0,1.0,1.0*30
$GPRMC,081543.100,A,5544.287,N,03746.176,E,003.9,082.9,190822,000.0,W*72
$GPGGA,081544.100,5544.287,N,03746.178,E,1,12,1.0,0.0,M,0.0,M,,*66
$GPGSA,A,3,01,02,03,04,05,06,07,08,09,10,11,12,1.0,1.0,1.0*30
$GPRMC,081544.100,A,5544.287,N,03746.178,E,003.9,082.9,190822,000.0,W*7B
$GPGGA,081545.100,5544.287,N,03746.180,E,1,12,1.0,0.0,M,0.0,M,,*60
$GPGSA,A,3,01,02,03,04,05,06,07,08,09,10,11,12,1.0,1.0,1.0*30
$GPRMC,081545.100,A,5544.287,N,03746.180,E,003.9,082.9,190822,000.0,W*7D
$GPGGA,081546.100,5544.288,N,03746.182,E,1,12,1.0,0.0,M,0.0,M,,*6E
$GPGSA,A,3,01,02,03,04,05,06,07,08,09,10,11,12,1.0,1.0,1.0*30
$GPRMC,081546.100,A,5544.288,N,03746.182,E,003.9,082.9,190822,000.0,W*73
$GPGGA,081547.100,5544.288,N,03746.184,E,1,12,1.0,0.0,M,0.0,M,,*69
$GPGSA,A,3,01,02,03,04,05,06,07,08,09,10,11,12,1.0,1.0,1.0*30
$GPRMC,081547.100,A,5544.288,N,03746.184,E,003.9,082.9,190822,000.0,W*74
$GPGGA,081548.100,5544.288,N,03746.186,E,1,12,1.0,0.0,M,0.0,M,,*64
$GPGSA,A,3,01,02,03,04,05,06,07,08,09,10,11,12,1.0,1.0,1.0*30
$GPRMC,081548.100,A,5544.288,N,03746.186,E,003.9,082.9,190822,000.0,W*79
$GPGGA,081549.100,5544.288,N,03746.188,E,1,12,1.0,0.0,M,0.0,M,,*6B
$GPGSA,A,3,01,02,03,04,05,06,07,08,09,10,11,12,1.0,1.0,1.0*30
$GPRMC,081549.100,A,5544.288,N,03746.188,E,003.9,082.9,190822,000.0,W*76
$GPGGA,081550.100,5544.289,N,03746.189,E,1,12,1.0,0.0,M,0.0,M,,*63
$GPGSA,A,3,01,02,03,04,05,06,07,08,09,10,11,12,1.0,1.0,1.0*30
$GPRMC,081550.100,A,5544.289,N,03746.189,E,003.9,082.9,190822,000.0,W*7E
$GPGGA,081551.100,5544.289,N,03746.191,E,1,12,1.0,0.0,M,0.0,M,,*6B
$GPGSA,A,3,01,02,03,04,05,06,07,08,09,10,11,12,1.0,1.0,1.0*30
$GPRMC,081551.100,A,5544.289,N,03746.191,E,003.9,082.9,190822,000.0,W*76
$GPGGA,081552.100,5544.289,N,03746.193,E,1,12,1.0,0.0,M,0.0,M,,*6A
$GPGSA,A,3,01,02,03,04,05,06,07,08,09,10,11,12,1.0,1.0,1.0*30
$GPRMC,081552.100,A,5544.289,N,03746.193,E,003.9,082.9,190822,000.0,W*77
$GPGGA,081553.100,5544.289,N,03746.195,E,1,12,1.0,0.0,M,0.0,M,,*6D
$GPGSA,A,3,01,02,03,04,05,06,07,08,09,10,11,12,1.0,1.0,1.0*30
$GPRMC,081553.100,A,5544.289,N,03746.195,E,003.9,082.9,190822,000.0,W*70
$GPGGA,081554.100,5544.289,N,03746.197,E,1,12,1.0,0.0,M,0.0,M,,*68
$GPGSA,A,3,01,02,03,04,05,06,07,08,09,10,11,12,1.0,1.0,1.0*30
$GPRMC,081554.100,A,5544.289,N,03746.197,E,003.9,082.9,190822,000.0,W*75
$GPGGA,081555.100,5544.290,N,03746.199,E,1,12,1.0,0.0,M,0.0,M,,*6F
$GPGSA,A,3,01,02,03,04,05,06,07,08,09,10,11,12,1.0,1.0,1.0*30
$GPRMC,081555.100,A,5544.290,N,03746.199,E,003.9,082.9,190822,000.0,W*72
$GPGGA,081556.100,5544.290,N,03746.201,E,1,12,1.0,0.0,M,0.0,M,,*6E
$GPGSA,A,3,01,02,03,04,05,06,07,08,09,10,11,12,1.0,1.0,1.0*30
$GPRMC,081556.100,A,5544.290,N,03746.201,E,003.9,082.9,190822,000.0,W*73
$GPGGA,081557.100,5544.290,N,03746.203,E,1,12,1.0,0.0,M,0.0,M,,*6D
$GPGSA,A,3,01,02,03,04,05,06,07,08,09,10,11,12,1.0,1.0,1.0*30
$GPRMC,081557.100,A,5544.290,N,03746.203,E,003.9,082.9,190822,000.0,W*70
$GPGGA,081558.100,5544.290,N,03746.204,E,1,12,1.0,0.0,M,0.0,M,,*65
$GPGSA,A,3,01,02,03,04,05,06,07,08,09,10,11,12,1.0,1.0,1.0*30
$GPRMC,081558.100,A,5544.290,N,03746.204,E,003.9,082.9,190822,000.0,W*78
$GPGGA,081559.100,5544.291,N,03746.206,E,1,12,1.0,0.0,M,0.0,M,,*67
$GPGSA,A,3,01,02,03,04,05,06,07,08,09,10,11,12,1.0,1.0,1.0*30
$GPRMC,081559.100,A,5544.291,N,03746.206,E,003.9,082.9,190822,000.0,W*7A
$GPGGA,081600.100,5544.291,N,03746.208,E,1,12,1.0,0.0,M,0.0,M,,*66
$GPGSA,A,3,01,02,03,04,05,06,07,08,09,10,11,12,1.0,1.0,1.0*30
$GPRMC,081600.100,A,5544.291,N,03746.208,E,003.9,082.9,190822,000.0,W*7B
$GPGGA,081601.100,5544.291,N,03746.210,E,1,12,1.0,0.0,M,0.0,M,,*6E
$GPGSA,A,3,01,02,03,04,05,06,07,08,09,10,11,12,1.0,1.0,1.0*30
$GPRMC,081601.100,A,5544.291,N,03746.210,E,003.9,082.9,190822,000.0,W*73
$GPGGA,081602.100,5544.291,N,03746.212,E,1,12,1.0,0.0,M,0.0,M,,*6F
$GPGSA,A,3,01,02,03,04,05,06,07,08,09,10,11,12,1.0,1.0,1.0*30
$GPRMC,081602.100,A,5544.291,N,03746.212,E,003.9,326.6,190822,000.0,W*70
$GPGGA,081603.100,5544.292,N,03746.211,E,1,12,1.0,0.0,M,0.0,M,,*6E
$GPGSA,A,3,01,02,03,04,05,06,07,08,09,10,11,12,1.0,1.0,1.0*30
$GPRMC,081603.100,A,5544.292,N,03746.211,E,003.9,326.6,190822,000.0,W*71
$GPGGA,081604.100,5544.293,N,03746.211,E,1,12,1.0,0.0,M,0.0,M,,*68
$GPGSA,A,3,01,02,03,04,05,06,07,08,09,10,11,12,1.0,1.0,1.0*30
$GPRMC,081604.100,A,5544.293,N,03746.211,E,003.9,326.6,190822,000.0,W*77
$GPGGA,081605.100,5544.294,N,03746.210,E,1,12,1.0,0.0,M,0.0,M,,*6F
$GPGSA,A,3,01,02,03,04,05,06,07,08,09,10,11,12,1.0,1.0,1.0*30
$GPRMC,081605.100,A,5544.294,N,03746.210,E,003.9,326.6,190822,000.0,W*70
$GPGGA,081606.100,5544.295,N,03746.209,E,1,12,1.0,0.0,M,0.0,M,,*65
$GPGSA,A,3,01,02,03,04,05,06,07,08,09,10,11,12,1.0,1.0,1.0*30
$GPRMC,081606.100,A,5544.295,N,03746.209,E,003.9,326.6,190822,000.0,W*7A
$GPGGA,081607.100,5544.296,N,03746.209,E,1,12,1.0,0.0,M,0.0,M,,*67
$GPGSA,A,3,01,02,03,04,05,06,07,08,09,10,11,12,1.0,1.0,1.0*30
$GPRMC,081607.100,A,5544.296,N,03746.209,E,003.9,326.6,190822,000.0,W*78
$GPGGA,081608.100,5544.297,N,03746.208,E,1,12,1.0,0.0,M,0.0,M,,*68
$GPGSA,A,3,01,02,03,04,05,06,07,08,09,10,11,12,1.0,1.0,1.0*30
$GPRMC,081608.100,A,5544.297,N,03746.208,E,003.9,326.6,190822,000.0,W*77
$GPGGA,081609.100,5544.298,N,03746.207,E,1,12,1.0,0.0,M,0.0,M,,*69
$GPGSA,A,3,01,02,03,04,05,06,07,08,09,10,11,12,1.0,1.0,1.0*30
$GPRMC,081609.100,A,5544.298,N,03746.207,E,003.9,326.6,190822,000.0,W*76
$GPGGA,081610.100,5544.299,N,03746.207,E,1,12,1.0,0.0,M,0.0,M,,*60
$GPGSA,A,3,01,02,03,04,05,06,07,08,09,10,11,12,1.0,1.0,1.0*30
$GPRMC,081610.100,A,5544.299,N,03746.207,E,003.9,326.6,190822,000.0,W*7F
$GPGGA,081611.100,5544.300,N,03746.206,E,1,12,1.0,0.0,M,0.0,M,,*61
$GPGSA,A,3,01,02,03,04,05,06,07,08,09,10,11,12,1.0,1.0,1.0*30
$GPRMC,081611.100,A,5544.300,N,03746.206,E,003.9,326.6,190822,000.0,W*7E
$GPGGA,081612.100,5544.301,N,03746.205,E,1,12,1.0,0.0,M,0.0,M,,*60
$GPGSA,A,3,01,02,03,04,05,06,07,08,09,10,11,12,1.0,1.0,1.0*30
$GPRMC,081612.100,A,5544.301,N,03746.205,E,003.9,326.6,190822,000.0,W*7F
$GPGGA,081613.100,5544.302,N,03746.205,E,1,12,1.0,0.0,M,0.0,M,,*62
$GPGSA,A,3,01,02,03,04,05,06,07,08,09,10,11,12,1.0,1.0,1.0*30
$GPRMC,081613.100,A,5544.302,N,03746.205,E,003.9,326.6,190822,000.0,W*7D
$GPGGA,081614.100,5544.303,N,03746.204,E,1,12,1.0,0.0,M,0.0,M,,*65
$GPGSA,A,3,01,02,03,04,05,06,07,08,09,10,11,12,1.0,1.0,1.0*30
$GPRMC,081614.100,A,5544.303,N,03746.204,E,003.9,326.6,190822,000.0,W*7A
$GPGGA,081615.100,5544.304,N,03746.203,E,1,12,1.0,0.0,M,0.0,M,,*64
$GPGSA,A,3,01,02,03,04,05,06,07,08,09,10,11,12,1.0,1.0,1.0*30
$GPRMC,081615.100,A,5544.304,N,03746.203,E,003.9,326.6,190822,000.0,W*7B
$GPGGA,081616.100,5544.305,N,03746.203,E,1,12,1.0,0.0,M,0.0,M,,*66
$GPGSA,A,3,01,02,03,04,05,06,07,08,09,10,11,12,1.0,1.0,1.0*30
$GPRMC,081616.100,A,5544.305,N,03746.203,E,003.9,326.6,190822,000.0,W*79
$GPGGA,081617.100,5544.306,N,03746.202,E,1,12,1.0,0.0,M,0.0,M,,*65
$GPGSA,A,3,01,02,03,04,05,06,07,08,09,10,11,12,1.0,1.0,1.0*30
$GPRMC,081617.100,A,5544.306,N,03746.202,E,003.9,326.6,190822,000.0,W*7A
$GPGGA,081618.100,5544.308,N,03746.201,E,1,12,1.0,0.0,M,0.0,M,,*67
$GPGSA,A,3,01,02,03,04,05,06,07,08,09,10,11,12,1.0,1.0,1.0*30
$GPRMC,081618.100,A,5544.308,N,03746.201,E,003.9,326.6,190822,000.0,W*78
$GPGGA,081619.100,5544.309,N,03746.201,E,1,12,1.0,0.0,M,0.0,M,,*67
$GPGSA,A,3,01,02,03,04,05,06,07,08,09,10,11,12,1.0,1.0,1.0*30
$GPRMC,081619.100,A,5544.309,N,03746.201,E,003.9,326.6,190822,000.0,W*78
$GPGGA,081620.100,5544.310,N,03746.200,E,1,12,1.0,0.0,M,0.0,M,,*64
$GPGSA,A,3,01,02,03,04,05,06,07,08,09,10,11,12,1.0,1.0,1.0*30
$GPRMC,081620.100,A,5544.310,N,03746.200,E,003.9,326.6,190822,000.0,W*7B
$GPGGA,081621.100,5544.311,N,03746.199,E,1,12,1.0,0.0,M,0.0,M,,*67
$GPGSA,A,3,01,02,03,04,05,06,07,08,09,10,11,12,1.0,1.0,1.0*30
$GPRMC,081621.100,A,5544.311,N,03746.199,E,003.9,326.6,190822,000.0,W*78
$GPGGA,081622.100,5544.312,N,03746.199,E,1,12,1.0,0.0,M,0.0,M,,*67
$GPGSA,A,3,01,02,03,04,05,06,07,08,09,10,11,12,1.0,1.0,1.0*30
$GPRMC,081622.100,A,5544.312,N,03746.199,E,003.9,326.6,190822,000.0,W*78
$GPGGA,081623.100,5544.313,N,03746.198,E,1,12,1.0,0.0,M,0.0,M,,*66
$GPGSA,A,3,01,02,03,04,05,06,07,08,09,10,11,12,1.0,1.0,1.0*30
$GPRMC,081623.100,A,5544.313,N,03746.198,E,003.9,326.6,190822,000.0,W*79
$GPGGA,081624.100,5544.314,N,03746.197,E,1,12,1.0,0.0,M,0.0,M,,*69
$GPGSA,A,3,01,02,03,04,05,06,07,08,09,10,11,12,1.0,1.0,1.0*30
$GPRMC,081624.100,A,5544.314,N,03746.197,E,003.9,326.6,190822,000.0,W*76
$GPGGA,081625.100,5544.315,N,03746.197,E,1,12,1.0,0.0,M,0.0,M,,*69
$GPGSA,A,3,01,02,03,04,05,06,07,08,09,10,11,12,1.0,1.0,1.0*30
$GPRMC,081625.100,A,5544.315,N,03746.197,E,003.9,326.6,190822,000.0,W*76
$GPGGA,081626.100,5544.316,N,03746.196,E,1,12,1.0,0.0,M,0.0,M,,*68
$GPGSA,A,3,01,02,03,04,05,06,07,08,09,10,11,12,1.0,1.0,1.0*30
$GPRMC,081626.100,A,5544.316,N,03746.196,E,003.9,326.6,190822,000.0,W*77
$GPGGA,081627.100,5544.317,N,03746.195,E,1,12,1.0,0.0,M,0.0,M,,*6B
$GPGSA,A,3,01,02,03,04,05,06,07,08,09,10,11,12,1.0,1.0,1.0*30
$GPRMC,081627.100,A,5544.317,N,03746.195,E,003.9,326.6,190822,000.0,W*74
$GPGGA,081628.100,5544.318,N,03746.195,E,1,12,1.0,0.0,M,0.0,M,,*6B
$GPGSA,A,3,01,02,03,04,05,06,07,08,09,10,11,12,1.0,1.0,1.0*30
$GPRMC,081628.100,A,5544.318,N,03746.195,E,003.9,326.6,190822,000.0,W*74
$GPGGA,081629.100,5544.319,N,03746.194,E,1,12,1.0,0.0,M,0.0,M,,*6A
$GPGSA,A,3,01,02,03,04,05,06,07,08,09,10,11,12,1.0,1.0,1.0*30
$GPRMC,081629.100,A,5544.319,N,03746.194,E,003.9,326.6,190822,000.0,W*75
$GPGGA,081630.100,5544.320,N,03746.193,E,1,12,1.0,0.0,M,0.0,M,,*6F
$GPGSA,A,3,01,02,03,04,05,06,07,08,09,10,11,12,1.0,1.0,1.0*30
$GPRMC,081630.100,A,5544.320,N,03746.193,E,003.9,326.6,190822,000.0,W*70
$GPGGA,081631.100,5544.321,N,03746.193,E,1,12,1.0,0.0,M,0.0,M,,*6F
$GPGSA,A,3,01,02,03,04,05,06,07,08,09,10,11,12,1.0,1.0,1.0*30
$GPRMC,081631.100,A,5544.321,N,03746.193,E,003.9,326.6,190822,000.0,W*70
$GPGGA,081632.100,5544.322,N,03746.192,E,1,12,1.0,0.0,M,0.0,M,,*6E
$GPGSA,A,3,01,02,03,04,05,06,07,08,09,10,11,12,1.0,1.0,1.0*30
$GPRMC,081632.100,A,5544.322,N,03746.192,E,003.9,326.6,190822,000.0,W*71
$GPGGA,081633.100,5544.323,N,03746.191,E,1,12,1.0,0.0,M,0.0,M,,*6D
$GPGSA,A,3,01,02,03,04,05,06,07,08,09,10,11,12,1.0,1.0,1.0*30
$GPRMC,081633.100,A,5544.323,N,03746.191,E,003.9,326.6,190822,000.0,W*72
$GPGGA,081634.100,5544.324,N,03746.191,E,1,12,1.0,0.0,M,0.0,M,,*6D
$GPGSA,A,3,01,02,03,04,05,06,07,08,09,10,11,12,1.0,1.0,1.0*30
$GPRMC,081634.100,A,5544.324,N,03746.191,E,003.9,326.6,190822,000.0,W*72
$GPGGA,081635.100,5544.325,N,03746.190,E,1,12,1.0,0.0,M,0.0,M,,*6C
$GPGSA,A,3,01,02,03,04,05,06,07,08,09,10,11,12,1.0,1.0,1.0*30
$GPRMC,081635.100,A,5544.325,N,03746.190,E,003.9,326.6,190822,000.0,W*73
$GPGGA,081636.100,5544.326,N,03746.189,E,1,12,1.0,0.0,M,0.0,M,,*64
$GPGSA,A,3,01,02,03,04,05,06,07,08,09,10,11,12,1.0,1.0,1.0*30
$GPRMC,081636.100,A,5544.326,N,03746.189,E,003.9,326.6,190822,000.0,W*7B
$GPGGA,081637.100,5544.327,N,03746.189,E,1,12,1.0,0.0,M,0.0,M,,*64
$GPGSA,A,3,01,02,03,04,05,06,07,08,09,10,11,12,1.0,1.0,1.0*30
$GPRMC,081637.100,A,5544.327,N,03746.189,E,003.9,326.6,190822,000.0,W*7B
$GPGGA,081638.100,5544.328,N,03746.188,E,1,12,1.0,0.0,M,0.0,M,,*65
$GPGSA,A,3,01,02,03,04,05,06,07,08,09,10,11,12,1.0,1.0,1.0*30
$GPRMC,081638.100,A,5544.328,N,03746.188,E,003.9,326.6,190822,000.0,W*7A
$GPGGA,081639.100,5544.329,N,03746.187,E,1,12,1.0,0.0,M,0.0,M,,*6A
$GPGSA,A,3,01,02,03,04,05,06,07,08,09,10,11,12,1.0,1.0,1.0*30
$GPRMC,081639.100,A,5544.329,N,03746.187,E,003.9,326.6,190822,000.0,W*75
$GPGGA,081640.100,5544.330,N,03746.186,E,1,12,1.0,0.0,M,0.0,M,,*6D
$GPGSA,A,3,01,02,03,04,05,06,07,08,09,10,11,12,1.0,1.0,1.0*30
$GPRMC,081640.100,A,5544.330,N,03746.186,E,003.9,326.6,190822,000.0,W*72
$GPGGA,081641.100,5544.331,N,03746.186,E,1,12,1.0,0.0,M,0.0,M,,*6D
$GPGSA,A,3,01,02,03,04,05,06,07,08,09,10,11,12,1.0,1.0,1.0*30
$GPRMC,081641.100,A,5544.331,N,03746.186,E,003.9,326.6,190822,000.0,W*72
$GPGGA,081642.100,5544.332,N,03746.185,E,1,12,1.0,0.0,M,0.0,M,,*6E
$GPGSA,A,3,01,02,03,04,05,06,07,08,09,10,11,12,1.0,1.0,1.0*30
$GPRMC,081642.100,A,5544.332,N,03746.185,E,003.9,326.6,190822,000.0,W*71
$GPGGA,081643.100,5544.333,N,03746.184,E,1,12,1.0,0.0,M,0.0,M,,*6F
$GPGSA,A,3,01,02,03,04,05,06,07,08,09,10,11,12,1.0,1.0,1.0*30
$GPRMC,081643.100,A,5544.333,N,03746.184,E,003.9,326.6,190822,000.0,W*70
$GPGGA,081644.100,5544.334,N,03746.184,E,1,12,1.0,0.0,M,0.0,M,,*6F
$GPGSA,A,3,01,02,03,04,05,06,07,08,09,10,11,12,1.0,1.0,1.0*30
$GPRMC,081644.100,A,5544.334,N,03746.184,E,003.9,326.6,190822,000.0,W*70
$GPGGA,081645.100,5544.335,N,03746.183,E,1,12,1.0,0.0,M,0.0,M,,*68
$GPGSA,A,3,01,02,03,04,05,06,07,08,09,10,11,12,1.0,1.0,1.0*30
$GPRMC,081645.100,A,5544.335,N,03746.183,E,003.9,326.6,190822,000.0,W*77
$GPGGA,081646.100,5544.336,N,03746.182,E,1,12,1.0,0.0,M,0.0,M,,*69
$GPGSA,A,3,01,02,03,04,05,06,07,08,09,10,11,12,1.0,1.0,1.0*30
$GPRMC,081646.100,A,5544.336,N,03746.182,E,003.9,326.6,190822,000.0,W*76
$GPGGA,081647.100,5544.337,N,03746.182,E,1,12,1.0,0.0,M,0.0,M,,*69
$GPGSA,A,3,01,02,03,04,05,06,07,08,09,10,11,12,1.0,1.0,1.0*30
$GPRMC,081647.100,A,5544.337,N,03746.182,E,003.9,326.6,190822,000.0,W*76
$GPGGA,081648.100,5544.338,N,03746.181,E,1,12,1.0,0.0,M,0.0,M,,*6A
$GPGSA,A,3,01,02,03,04,05,06,07,08,09,10,11,12,1.0,1.0,1.0*30
$GPRMC,081648.100,A,5544.338,N,03746.181,E,003.9,326.6,190822,000.0,W*75
$GPGGA,081649.100,5544.339,N,03746.180,E,1,12,1.0,0.0,M,0.0,M,,*6B
$GPGSA,A,3,01,02,03,04,05,06,07,08,09,10,11,12,1.0,1.0,1.0*30
$GPRMC,081649.100,A,5544.339,N,03746.180,E,003.9,326.6,190822,000.0,W*74
$GPGGA,081650.100,5544.340,N,03746.180,E,1,12,1.0,0.0,M,0.0,M,,*6D
$GPGSA,A,3,01,02,03,04,05,06,07,08,09,10,11,12,1.0,1.0,1.0*30
$GPRMC,081650.100,A,5544.340,N,03746.180,E,003.9,326.6,190822,000.0,W*72
$GPGGA,081651.100,5544.341,N,03746.179,E,1,12,1.0,0.0,M,0.0,M,,*6B
$GPGSA,A,3,01,02,03,04,05,06,07,08,09,10,11,12,1.0,1.0,1.0*30
$GPRMC,081651.100,A,5544.341,N,03746.179,E,003.9,326.6,190822,000.0,W*74
$GPGGA,081652.100,5544.342,N,03746.178,E,1,12,1.0,0.0,M,0.0,M,,*6A
$GPGSA,A,3,01,02,03,04,05,06,07,08,09,10,11,12,1.0,1.0,1.0*30
$GPRMC,081652.100,A,5544.342,N,03746.178,E,003.9,326.6,190822,000.0,W*75
$GPGGA,081653.100,5544.343,N,03746.178,E,1,12,1.0,0.0,M,0.0,M,,*6A
$GPGSA,A,3,01,02,03,04,05,06,07,08,09,10,11,12,1.0,1.0,1.0*30
$GPRMC,081653.100,A,5544.343,N,03746.178,E,003.9,326.6,190822,000.0,W*75
$GPGGA,081654.100,5544.344,N,03746.177,E,1,12,1.0,0.0,M,0.0,M,,*65
$GPGSA,A,3,01,02,03,04,05,06,07,08,09,10,11,12,1.0,1.0,1.0*30
$GPRMC,081654.100,A,5544.344,N,03746.177,E,003.9,326.6,190822,000.0,W*7A
$GPGGA,081655.100,5544.345,N,03746.176,E,1,12,1.0,0.0,M,0.0,M,,*64
$GPGSA,A,3,01,02,03,04,05,06,07,08,09,10,11,12,1.0,1.0,1.0*30
$GPRMC,081655.100,A,5544.345,N,03746.176,E,003.9,326.6,190822,000.0,W*7B
$GPGGA,081656.100,5544.346,N,03746.176,E,1,12,1.0,0.0,M,0.0,M,,*64
$GPGSA,A,3,01,02,03,04,05,06,07,08,09,10,11,12,1.0,1.0,1.0*30
$GPRMC,081656.100,A,5544.346,N,03746.176,E,003.9,326.6,190822,000.0,W*7B
$GPGGA,081657.100,5544.347,N,03746.175,E,1,12,1.0,0.0,M,0.0,M,,*67
$GPGSA,A,3,01,02,03,04,05,06,07,08,09,10,11,12,1.0,1.0,1.0*30
$GPRMC,081657.100,A,5544.347,N,03746.175,E,003.9,326.6,190822,000.0,W*78
$GPGGA,081658.100,5544.348,N,03746.174,E,1,12,1.0,0.0,M,0.0,M,,*66
$GPGSA,A,3,01,02,03,04,05,06,07,08,09,10,11,12,1.0,1.0,1.0*30
$GPRMC,081658.100,A,5544.348,N,03746.174,E,003.9,326.6,190822,000.0,W*79
$GPGGA,081659.100,5544.349,N,03746.174,E,1,12,1.0,0.0,M,0.0,M,,*66
$GPGSA,A,3,01,02,03,04,05,06,07,08,09,10,11,12,1.0,1.0,1.0*30
$GPRMC,081659.100,A,5544.349,N,03746.174,E,003.9,326.6,190822,000.0,W*79
$GPGGA,081700.100,5544.350,N,03746.173,E,1,12,1.0,0.0,M,0.0,M,,*64
$GPGSA,A,3,01,02,03,04,05,06,07,08,09,10,11,12,1.0,1.0,1.0*30
$GPRMC,081700.100,A,5544.350,N,03746.173,E,003.9,326.6,190822,000.0,W*7B
$GPGGA,081701.100,5544.351,N,03746.172,E,1,12,1.0,0.0,M,0.0,M,,*65
$GPGSA,A,3,01,02,03,04,05,06,07,08,09,10,11,12,1.0,1.0,1.0*30
$GPRMC,081701.100,A,5544.351,N,03746.172,E,003.9,326.6,190822,000.0,W*7A
$GPGGA,081702.100,5544.352,N,03746.172,E,1,12,1.0,0.0,M,0.0,M,,*65
$GPGSA,A,3,01,02,03,04,05,06,07,08,09,10,11,12,1.0,1.0,1.0*30
$GPRMC,081702.100,A,5544.352,N,03746.172,E,003.9,326.6,190822,000.0,W*7A
$GPGGA,081703.100,5544.353,N,03746.171,E,1,12,1.0,0.0,M,0.0,M,,*66
$GPGSA,A,3,01,02,03,04,05,06,07,08,09,10,11,12,1.0,1.0,1.0*30
$GPRMC,081703.100,A,5544.353,N,03746.171,E,003.9,326.6,190822,000.0,W*79
$GPGGA,081704.100,5544.354,N,03746.170,E,1,12,1.0,0.0,M,0.0,M,,*67
$GPGSA,A,3,01,02,03,04,05,06,07,08,09,10,11,12,1.0,1.0,1.0*30
$GPRMC,081704.100,A,5544.354,N,03746.170,E,003.9,326.6,190822,000.0,W*78
$GPGGA,081705.100,5544.355,N,03746.170,E,1,12,1.0,0.0,M,0.0,M,,*67
$GPGSA,A,3,01,02,03,04,05,06,07,08,09,10,11,12,1.0,1.0,1.0*30
$GPRMC,081705.100,A,5544.355,N,03746.170,E,003.9,326.6,190822,000.0,W*78
$GPGGA,081706.100,5544.356,N,03746.169,E,1,12,1.0,0.0,M,0.0,M,,*6F
$GPGSA,A,3,01,02,03,04,05,06,07,08,09,10,11,12,1.0,1.0,1.0*30
$GPRMC,081706.100,A,5544.356,N,03746.169,E,003.9,326.6,190822,000.0,W*70
$GPGGA,081707.100,5544.357,N,03746.168,E,1,12,1.0,0.0,M,0.0,M,,*6E
$GPGSA,A,3,01,02,03,04,05,06,07,08,09,10,11,12,1.0,1.0,1.0*30
$GPRMC,081707.100,A,5544.357,N,03746.168,E,003.9,326.6,190822,000.0,W*71
$GPGGA,081708.100,5544.358,N,03746.168,E,1,12,1.0,0.0,M,0.0,M,,*6E
$GPGSA,A,3,01,02,03,04,05,06,07,08,09,10,11,12,1.0,1.0,1.0*30
$GPRMC,081708.100,A,5544.358,N,03746.168,E,003.9,326.6,190822,000.0,W*71
$GPGGA,081709.100,5544.359,N,03746.167,E,1,12,1.0,0.0,M,0.0,M,,*61
$GPGSA,A,3,01,02,03,04,05,06,07,08,09,10,11,12,1.0,1.0,1.0*30
$GPRMC,081709.100,A,5544.359,N,03746.167,E,003.9,326.6,190822,000.0,W*7E
$GPGGA,081710.100,5544.360,N,03746.166,E,1,12,1.0,0.0,M,0.0,M,,*62
$GPGSA,A,3,01,02,03,04,05,06,07,08,09,10,11,12,1.0,1.0,1.0*30
$GPRMC,081710.100,A,5544.360,N,03746.166,E,003.9,326.6,190822,000.0,W*7D
$GPGGA,081711.100,5544.361,N,03746.166,E,1,12,1.0,0.0,M,0.0,M,,*62
$GPGSA,A,3,01,02,03,04,05,06,07,08,09,10,11,12,1.0,1.0,1.0*30
$GPRMC,081711.100,A,5544.361,N,03746.166,E,003.9,326.6,190822,000.0,W*7D
$GPGGA,081712.100,5544.362,N,03746.165,E,1,12,1.0,0.0,M,0.0,M,,*61
$GPGSA,A,3,01,02,03,04,05,06,07,08,09,10,11,12,1.0,1.0,1.0*30
$GPRMC,081712.100,A,5544.362,N,03746.165,E,003.9,326.6,190822,000.0,W*7E
$GPGGA,081713.100,5544.363,N,03746.164,E,1,12,1.0,0.0,M,0.0,M,,*60
$GPGSA,A,3,01,02,03,04,05,06,07,08,09,10,11,12,1.0,1.0,1.0*30
$GPRMC,081713.100,A,5544.363,N,03746.164,E,003.9,326.6,190822,000.0,W*7F
$GPGGA,081714.100,5544.364,N,03746.164,E,1,12,1.0,0.0,M,0.0,M,,*60
$GPGSA,A,3,01,02,03,04,05,06,07,08,09,10,11,12,1.0,1.0,1.0*30
$GPRMC,081714.100,A,5544.364,N,03746.164,E,003.9,326.6,190822,000.0,W*7F
$GPGGA,081715.100,5544.365,N,03746.163,E,1,12,1.0,0.0,M,0.0,M,,*67
$GPGSA,A,3,01,02,03,04,05,06,07,08,09,10,11,12,1.0,1.0,1.0*30
$GPRMC,081715.100,A,5544.365,N,03746.163,E,003.9,326.6,190822,000.0,W*78
$GPGGA,081716.100,5544.366,N,03746.162,E,1,12,1.0,0.0,M,0.0,M,,*66
$GPGSA,A,3,01,02,03,04,05,06,07,08,09,10,11,12,1.0,1.0,1.0*30
$GPRMC,081716.100,A,5544.366,N,03746.162,E,003.9,326.6,190822,000.0,W*79
$GPGGA,081717.100,5544.367,N,03746.162,E,1,12,1.0,0.0,M,0.0,M,,*66
$GPGSA,A,3,01,02,03,04,05,06,07,08,09,10,11,12,1.0,1.0,1.0*30
$GPRMC,081717.100,A,5544.367,N,03746.162,E,003.9,326.6,190822,000.0,W*79
$GPGGA,081718.100,5544.368,N,03746.161,E,1,12,1.0,0.0,M,0.0,M,,*65
$GPGSA,A,3,01,02,03,04,05,06,07,08,09,10,11,12,1.0,1.0,1.0*30
$GPRMC,081718.100,A,5544.368,N,03746.161,E,003.9,326.6,190822,000.0,W*7A
$GPGGA,081719.100,5544.369,N,03746.160,E,1,12,1.0,0.0,M,0.0,M,,*64
$GPGSA,A,3,01,02,03,04,05,06,07,08,09,10,11,12,1.0,1.0,1.0*30
$GPRMC,081719.100,A,5544.369,N,03746.160,E,003.9,326.6,190822,000.0,W*7B
$GPGGA,081720.100,5544.370,N,03746.160,E,1,12,1.0,0.0,M,0.0,M,,*66
$GPGSA,A,3,01,02,03,04,05,06,07,08,09,10,11,12,1.0,1.0,1.0*30
$GPRMC,081720.100,A,5544.370,N,03746.160,E,003.9,326.6,190822,000.0,W*79
$GPGGA,081721.100,5544.371,N,03746.159,E,1,12,1.0,0.0,M,0.0,M,,*6C
$GPGSA,A,3,01,02,03,04,05,06,07,08,09,10,11,12,1.0,1.0,1.0*30
$GPRMC,081721.100,A,5544.371,N,03746.159,E,003.9,326.6,190822,000.0,W*73
$GPGGA,081722.100,5544.372,N,03746.158,E,1,12,1.0,0.0,M,0.0,M,,*6D
$GPGSA,A,3,01,02,03,04,05,06,07,08,09,10,11,12,1.0,1.0,1.0*30
$GPRMC,081722.100,A,5544.372,N,03746.158,E,003.9,326.6,190822,000.0,W*72
$GPGGA,081723.100,5544.373,N,03746.158,E,1,12,1.0,0.0,M,0.0,M,,*6D
$GPGSA,A,3,01,02,03,04,05,06,07,08,09,10,11,12,1.0,1.0,1.0*30
$GPRMC,081723.100,A,5544.373,N,03746.158,E,003.9,326.6,190822,000.0,W*72
$GPGGA,081724.100,5544.374,N,03746.157,E,1,12,1.0,0.0,M,0.0,M,,*62
$GPGSA,A,3,01,02,03,04,05,06,07,08,09,10,11,12,1.0,1.0,1.0*30
$GPRMC,081724.100,A,5544.374,N,03746.157,E,003.9,326.6,190822,000.0,W*7D
$GPGGA,081725.100,5544.375,N,03746.156,E,1,12,1.0,0.0,M,0.0,M,,*63
$GPGSA,A,3,01,02,03,04,05,06,07,08,09,10,11,12,1.0,1.0,1.0*30
$GPRMC,081725.100,A,5544.375,N,03746.156,E,003.9,326.6,190822,000.0,W*7C
$GPGGA,081726.100,5544.376,N,03746.156,E,1,12,1.0,0.0,M,0.0,M,,*63
$GPGSA,A,3,01,02,03,04,05,06,07,08,09,10,11,12,1.0,1.0,1.0*30
$GPRMC,081726.100,A,5544.376,N,03746.156,E,003.9,326.6,190822,000.0,W*7C
$GPGGA,081727.100,5544.377,N,03746.155,E,1,12,1.0,0.0,M,0.0,M,,*60
$GPGSA,A,3,01,02,03,04,05,06,07,08,09,10,11,12,1.0,1.0,1.0*30
$GPRMC,081727.100,A,5544.377,N,03746.155,E,003.9,326.6,190822,000.0,W*7F
$GPGGA,081728.100,5544.378,N,03746.154,E,1,12,1.0,0.0,M,0.0,M,,*61
$GPGSA,A,3,01,02,03,04,05,06,07,08,09,10,11,12,1.0,1.0,1.0*30
$GPRMC,081728.100,A,5544.378,N,03746.154,E,003.9,326.6,190822,000.0,W*7E
$GPGGA,081729.100,5544.379,N,03746.154,E,1,12,1.0,0.0,M,0.0,M,,*61
$GPGSA,A,3,01,02,03,04,05,06,07,08,09,10,11,12,1.0,1.0,1.0*30
$GPRMC,081729.100,A,5544.379,N,03746.154,E,003.9,326.6,190822,000.0,W*7E
$GPGGA,081730.100,5544.380,N,03746.153,E,1,12,1.0,0.0,M,0.0,M,,*68
$GPGSA,A,3,01,02,03,04,05,06,07,08,09,10,11,12,1.0,1.0,1.0*30
$GPRMC,081730.100,A,5544.380,N,03746.153,E,003.9,326.6,190822,000.0,W*77
$GPGGA,081731.100,5544.381,N,03746.152,E,1,12,1.0,0.0,M,0.0,M,,*69
$GPGSA,A,3,01,02,03,04,05,06,07,08,09,10,11,12,1.0,1.0,1.0*30
$GPRMC,081731.100,A,5544.381,N,03746.152,E,003.9,326.6,190822,000.0,W*76
$GPGGA,081732.100,5544.382,N,03746.152,E,1,12,1.0,0.0,M,0.0,M,,*69
$GPGSA,A,3,01,02,03,04,05,06,07,08,09,10,11,12,1.0,1.0,1.0*30
$GPRMC,081732.100,A,5544.382,N,03746.152,E,003.9,326.6,190822,000.0,W*76
$GPGGA,081733.100,5544.383,N,03746.151,E,1,12,1.0,0.0,M,0.0,M,,*6A
$GPGSA,A,3,01,02,03,04,05,06,07,08,09,10,11,12,1.0,1.0,1.0*30
$GPRMC,081733.100,A,5544.383,N,03746.151,E,003.9,326.6,190822,000.0,W*75
$GPGGA,081734.100,5544.384,N,03746.150,E,1,12,1.0,0.0,M,0.0,M,,*6B
$GPGSA,A,3,01,02,03,04,05,06,07,08,09,10,11,12,1.0,1.0,1.0*30
$GPRMC,081734.100,A,5544.384,N,03746.150,E,003.9,326.6,190822,000.0,W*74
$GPGGA,081735.100,5544.385,N,03746.150,E,1,12,1.0,0.0,M,0.0,M,,*6B
$GPGSA,A,3,01,02,03,04,05,06,07,08,09,10,11,12,1.0,1.0,1.0*30
$GPRMC,081735.100,A,5544.385,N,03746.150,E,003.9,326.6,190822,000.0,W*74
$GPGGA,081736.100,5544.386,N,03746.149,E,1,12,1.0,0.0,M,0.0,M,,*63
$GPGSA,A,3,01,02,03,04,05,06,07,08,09,10,11,12,1.0,1.0,1.0*30
$GPRMC,081736.100,A,5544.386,N,03746.149,E,003.9,326.6,190822,000.0,W*7C
$GPGGA,081737.100,5544.387,N,03746.148,E,1,12,1.0,0.0,M,0.0,M,,*62
$GPGSA,A,3,01,02,03,04,05,06,07,08,09,10,11,12,1.0,1.0,1.0*30
$GPRMC,081737.100,A,5544.387,N,03746.148,E,003.9,326.6,190822,000.0,W*7D
$GPGGA,081738.100,5544.388,N,03746.148,E,1,12,1.0,0.0,M,0.0,M,,*62
$GPGSA,A,3,01,02,03,04,05,06,07,08,09,10,11,12,1.0,1.0,1.0*30
$GPRMC,081738.100,A,5544.388,N,03746.148,E,003.9,326.6,190822,000.0,W*7D
$GPGGA,081739.100,5544.389,N,03746.147,E,1,12,1.0,0.0,M,0.0,M,,*6D
$GPGSA,A,3,01,02,03,04,05,06,07,08,09,10,11,12,1.0,1.0,1.0*30
$GPRMC,081739.100,A,5544.389,N,03746.147,E,003.9,326.6,190822,000.0,W*72
$GPGGA,081740.100,5544.390,N,03746.146,E,1,12,1.0,0.0,M,0.0,M,,*6A
$GPGSA,A,3,01,02,03,04,05,06,07,08,09,10,11,12,1.0,1.0,1.0*30
$GPRMC,081740.100,A,5544.390,N,03746.146,E,003.9,326.6,190822,000.0,W*75
$GPGGA,081741.100,5544.391,N,03746.146,E,1,12,1.0,0.0,M,0.0,M,,*6A
$GPGSA,A,3,01,02,03,04,05,06,07,08,09,10,11,12,1.0,1.0,1.0*30
$GPRMC,081741.100,A,5544.391,N,03746.146,E,003.9,326.6,190822,000.0,W*75
$GPGGA,081742.100,5544.392,N,03746.145,E,1,12,1.0,0.0,M,0.0,M,,*69
$GPGSA,A,3,01,02,03,04,05,06,07,08,09,10,11,12,1.0,1.0,1.0*30
$GPRMC,081742.100,A,5544.392,N,03746.145,E,003.9,326.6,190822,000.0,W*76
$GPGGA,081743.100,5544.393,N,03746.144,E,1,12,1.0,0.0,M,0.0,M,,*68
$GPGSA,A,3,01,02,03,04,05,06,07,08,09,10,11,12,1.0,1.0,1.0*30
$GPRMC,081743.100,A,5544.393,N,03746.144,E,003.9,326.6,190822,000.0,W*77
$GPGGA,081744.100,5544.394,N,03746.144,E,1,12,1.0,0.0,M,0.0,M,,*68
$GPGSA,A,3,01,02,03,04,05,06,07,08,09,10,11,12,1.0,1.0,1.0*30
$GPRMC,081744.100,A,5544.394,N,03746.144,E,003.9,326.6,190822,000.0,W*77
$GPGGA,081745.100,5544.395,N,03746.143,E,1,12,1.0,0.0,M,0.0,M,,*6F
$GPGSA,A,3,01,02,03,04,05,06,07,08,09,10,11,12,1.0,1.0,1.0*30
$GPRMC,081745.100,A,5544.395,N,03746.143,E,003.9,326.6,190822,000.0,W*70
$GPGGA,081746.100,5544.396,N,03746.142,E,1,12,1.0,0.0,M,0.0,M,,*6E
$GPGSA,A,3,01,02,03,04,05,06,07,08,09,10,11,12,1.0,1.0,1.0*30
$GPRMC,081746.100,A,5544.396,N,03746.142,E,003.9,326.6,190822,000.0,W*71
$GPGGA,081747.100,5544.398,N,03746.142,E,1,12,1.0,0.0,M,0.0,M,,*61
$GPGSA,A,3,01,02,03,04,05,06,07,08,09,10,11,12,1.0,1.0,1.0*30
$GPRMC,081747.100,A,5544.398,N,03746.142,E,003.9,326.6,190822,000.0,W*7E
$GPGGA,081748.100,5544.399,N,03746.141,E,1,12,1.0,0.0,M,0.0,M,,*6C
$GPGSA,A,3,01,02,03,04,05,06,07,08,09,10,11,12,1.0,1.0,1.0*30
$GPRMC,081748.100,A,5544.399,N,03746.141,E,003.9,326.6,190822,000.0,W*73
$GPGGA,081749.100,5544.400,N,03746.140,E,1,12,1.0,0.0,M,0.0,M,,*6B
$GPGSA,A,3,01,02,03,04,05,06,07,08,09,10,11,12,1.0,1.0,1.0*30
$GPRMC,081749.100,A,5544.400,N,03746.140,E,003.9,326.6,190822,000.0,W*74
$GPGGA,081750.100,5544.401,N,03746.140,E,1,12,1.0,0.0,M,0.0,M,,*62
$GPGSA,A,3,01,02,03,04,05,06,07,08,09,10,11,12,1.0,1.0,1.0*30
$GPRMC,081750.100,A,5544.401,N,03746.140,E,003.9,326.6,190822,000.0,W*7D
$GPGGA,081751.100,5544.402,N,03746.139,E,1,12,1.0,0.0,M,0.0,M,,*6E
$GPGSA,A,3,01,02,03,04,05,06,07,08,09,10,11,12,1.0,1.0,1.0*30
$GPRMC,081751.100,A,5544.402,N,03746.139,E,003.9,326.6,190822,000.0,W*71
$GPGGA,081752.100,5544.403,N,03746.138,E,1,12,1.0,0.0,M,0.0,M,,*6D
$GPGSA,A,3,01,02,03,04,05,06,07,08,09,10,11,12,1.0,1.0,1.0*30
$GPRMC,081752.100,A,5544.403,N,03746.138,E,003.9,326.6,190822,000.0,W*72
$GPGGA,081753.100,5544.404,N,03746.138,E,1,12,1.0,0.0,M,0.0,M,,*6B
$GPGSA,A,3,01,02,03,04,05,06,07,08,09,10,11,12,1.0,1.0,1.0*30
$GPRMC,081753.100,A,5544.404,N,03746.138,E,003.9,326.6,190822,000.0,W*74
$GPGGA,081754.100,5544.405,N,03746.137,E,1,12,1.0,0.0,M,0.0,M,,*62
$GPGSA,A,3,01,02,03,04,05,06,07,08,09,10,11,12,1.0,1.0,1.0*30
$GPRMC,081754.100,A,5544.405,N,03746.137,E,003.9,326.6,190822,000.0,W*7D
$GPGGA,081755.100,5544.406,N,03746.136,E,1,12,1.0,0.0,M,0.0,M,,*61
$GPGSA,A,3,01,02,03,04,05,06,07,08,09,10,11,12,1.0,1.0,1.0*30
$GPRMC,081755.100,A,5544.406,N,03746.136,E,003.9,326.6,190822,000.0,W*7E
$GPGGA,081756.100,5544.407,N,03746.136,E,1,12,1.0,0.0,M,0.0,M,,*63
$GPGSA,A,3,01,02,03,04,05,06,07,08,09,10,11,12,1.0,1.0,1.0*30
$GPRMC,081756.100,A,5544.407,N,03746.136,E,003.9,326.6,190822,000.0,W*7C
$GPGGA,081757.100,5544.408,N,03746.135,E,1,12,1.0,0.0,M,0.0,M,,*6E
$GPGSA,A,3,01,02,03,04,05,06,07,08,09,10,11,12,1.0,1.0,1.0*30
$GPRMC,081757.100,A,5544.408,N,03746.135,E,003.9,326.6,190822,000.0,W*71
$GPGGA,081758.100,5544.409,N,03746.134,E,1,12,1.0,0.0,M,0.0,M,,*61
$GPGSA,A,3,01,02,03,04,05,06,07,08,09,10,11,12,1.0,1.0,1.0*30
$GPRMC,081758.100,A,5544.409,N,03746.134,E,003.9,326.6,190822,000.0,W*7E
$GPGGA,081759.100,5544.410,N,03746.134,E,1,12,1.0,0.0,M,0.0,M,,*68
$GPGSA,A,3,01,02,03,04,05,06,07,08,09,10,11,12,1.0,1.0,1.0*30
$GPRMC,081759.100,A,5544.410,N,03746.134,E,003.9,326.6,190822,000.0,W*77
$GPGGA,081800.100,5544.411,N,03746.133,E,1,12,1.0,0.0,M,0.0,M,,*6D
$GPGSA,A,3,01,02,03,04,05,06,07,08,09,10,11,12,1.0,1.0,1.0*30
$GPRMC,081800.100,A,5544.411,N,03746.133,E,003.9,326.6,190822,000.0,W*72
$GPGGA,081801.100,5544.412,N,03746.132,E,1,12,1.0,0.0,M,0.0,M,,*6E
$GPGSA,A,3,01,02,03,04,05,06,07,08,09,10,11,12,1.0,1.0,1.0*30
$GPRMC,081801.100,A,5544.412,N,03746.132,E,003.9,326.6,190822,000.0,W*71
$GPGGA,081802.100,5544.413,N,03746.132,E,1,12,1.0,0.0,M,0.0,M,,*6C
$GPGSA,A,3,01,02,03,04,05,06,07,08,09,10,11,12,1.0,1.0,1.0*30
$GPRMC,081802.100,A,5544.413,N,03746.132,E,003.9,326.6,190822,000.0,W*73
$GPGGA,081803.100,5544.414,N,03746.131,E,1,12,1.0,0.0,M,0.0,M,,*69
$GPGSA,A,3,01,02,03,04,05,06,07,08,09,10,11,12,1.0,1.0,1.0*30
$GPRMC,081803.100,A,5544.414,N,03746.131,E,003.9,326.6,190822,000.0,W*76
$GPGGA,081804.100,5544.415,N,03746.130,E,1,12,1.0,0.0,M,0.0,M,,*6E
$GPGSA,A,3,01,02,03,04,05,06,07,08,09,10,11,12,1.0,1.0,1.0*30
$GPRMC,081804.100,A,5544.415,N,03746.130,E,003.9,326.6,190822,000.0,W*71
$GPGGA,081805.100,5544.416,N,03746.130,E,1,12,1.0,0.0,M,0.0,M,,*6C
$GPGSA,A,3,01,02,03,04,05,06,07,08,09,10,11,12,1.0,1.0,1.0*30
$GPRMC,081805.100,A,5544.416,N,03746.130,E,003.9,326.6,190822,000.0,W*73
$GPGGA,081806.100,5544.417,N,03746.129,E,1,12,1.0,0.0,M,0.0,M,,*66
$GPGSA,A,3,01,02,03,04,05,06,07,08,09,10,11,12,1.0,1.0,1.0*30
$GPRMC,081806.100,A,5544.417,N,03746.129,E,003.9,326.6,190822,000.0,W*79
$GPGGA,081807.100,5544.418,N,03746.128,E,1,12,1.0,0.0,M,0.0,M,,*69
$GPGSA,A,3,01,02,03,04,05,06,07,08,09,10,11,12,1.0,1.0,1.0*30
$GPRMC,081807.100,A,5544.418,N,03746.128,E,003.9,326.6,190822,000.0,W*76
$GPGGA,081808.100,5544.419,N,03746.128,E,1,12,1.0,0.0,M,0.0,M,,*67
$GPGSA,A,3,01,02,03,04,05,06,07,08,09,10,11,12,1.0,1.0,1.0*30
$GPRMC,081808.100,A,5544.419,N,03746.128,E,003.9,326.6,190822,000.0,W*78
$GPGGA,081809.100,5544.420,N,03746.127,E,1,12,1.0,0.0,M,0.0,M,,*63
$GPGSA,A,3,01,02,03,04,05,06,07,08,09,10,11,12,1.0,1.0,1.0*30
$GPRMC,081809.100,A,5544.420,N,03746.127,E,003.9,326.6,190822,000.0,W*7C
$GPGGA,081810.100,5544.421,N,03746.126,E,1,12,1.0,0.0,M,0.0,M,,*6B
$GPGSA,A,3,01,02,03,04,05,06,07,08,09,10,11,12,1.0,1.0,1.0*30
$GPRMC,081810.100,A,5544.421,N,03746.126,E,003.9,326.6,190822,000.0,W*74
$GPGGA,081811.100,5544.422,N,03746.126,E,1,12,1.0,0.0,M,0.0,M,,*69
$GPGSA,A,3,01,02,03,04,05,06,07,08,09,10,11,12,1.0,1.0,1.0*30
$GPRMC,081811.100,A,5544.422,N,03746.126,E,003.9,326.6,190822,000.0,W*76
$GPGGA,081812.100,5544.423,N,03746.125,E,1,12,1.0,0.0,M,0.0,M,,*68
$GPGSA,A,3,01,02,03,04,05,06,07,08,09,10,11,12,1.0,1.0,1.0*30
$GPRMC,081812.100,A,5544.423,N,03746.125,E,003.9,326.6,190822,000.0,W*77
$GPGGA,081813.100,5544.424,N,03746.124,E,1,12,1.0,0.0,M,0.0,M,,*6F
$GPGSA,A,3,01,02,03,04,05,06,07,08,09,10,11,12,1.0,1.0,1.0*30
$GPRMC,081813.100,A,5544.424,N,03746.124,E,003.9,326.6,190822,000.0,W*70
$GPGGA,081814.100,5544.425,N,03746.124,E,1,12,1.0,0.0,M,0.0,M,,*69
$GPGSA,A,3,01,02,03,04,05,06,07,08,09,10,11,12,1.0,1.0,1.0*30
$GPRMC,081814.100,A,5544.425,N,03746.124,E,003.9,326.6,190822,000.0,W*76
$GPGGA,081815.100,5544.426,N,03746.123,E,1,12,1.0,0.0,M,0.0,M,,*6C
$GPGSA,A,3,01,02,03,04,05,06,07,08,09,10,11,12,1.0,1.0,1.0*30
$GPRMC,081815.100,A,5544.426,N,03746.123,E,003.9,326.6,190822,000.0,W*73
$GPGGA,081816.100,5544.427,N,03746.122,E,1,12,1.0,0.0,M,0.0,M,,*6F
$GPGSA,A,3,01,02,03,04,05,06,07,08,09,10,11,12,1.0,1.0,1.0*30
$GPRMC,081816.100,A,5544.427,N,03746.122,E,003.9,326.6,190822,000.0,W*70
$GPGGA,081817.100,5544.428,N,03746.122,E,1,12,1.0,0.0,M,0.0,M,,*61
$GPGSA,A,3,01,02,03,04,05,06,07,08,09,10,11,12,1.0,1.0,1.0*30
$GPRMC,081817.100,A,5544.428,N,03746.122,E,003.9,326.6,190822,000.0,W*7E
$GPGGA,081818.100,5544.429,N,03746.121,E,1,12,1.0,0.0,M,0.0,M,,*6C
$GPGSA,A,3,01,02,03,04,05,06,07,08,09,10,11,12,1.0,1.0,1.0*30
$GPRMC,081818.100,A,5544.429,N,03746.121,E,003.9,326.6,190822,000.0,W*73
$GPGGA,081819.100,5544.430,N,03746.120,E,1,12,1.0,0.0,M,0.0,M,,*64
$GPGSA,A,3,01,02,03,04,05,06,07,08,09,10,11,12,1.0,1.0,1.0*30
$GPRMC,081819.100,A,5544.430,N,03746.120,E,003.9,326.6,190822,000.0,W*7B
$GPGGA,081820.100,5544.431,N,03746.120,E,1,12,1.0,0.0,M,0.0,M,,*6F
$GPGSA,A,3,01,02,03,04,05,06,07,08,09,10,11,12,1.0,1.0,1.0*30
$GPRMC,081820.100,A,5544.431,N,03746.120,E,003.9,326.6,190822,000.0,W*70
$GPGGA,081821.100,5544.432,N,03746.119,E,1,12,1.0,0.0,M,0.0,M,,*67
$GPGSA,A,3,01,02,03,04,05,06,07,08,09,10,11,12,1.0,1.0,1.0*30
$GPRMC,081821.100,A,5544.432,N,03746.119,E,003.9,326.6,190822,000.0,W*78
$GPGGA,081822.100,5544.433,N,03746.118,E,1,12,1.0,0.0,M,0.0,M,,*64
$GPGSA,A,3,01,02,03,04,05,06,07,08,09,10,11,12,1.0,1.0,1.0*30
$GPRMC,081822.100,A,5544.433,N,03746.118,E,003.9,326.6,190822,000.0,W*7B
$GPGGA,081823.100,5544.434,N,03746.118,E,1,12,1.0,0.0,M,0.0,M,,*62
$GPGSA,A,3,01,02,03,04,05,06,07,08,09,10,11,12,1.0,1.0,1.0*30
$GPRMC,081823.100,A,5544.434,N,03746.118,E,003.9,326.6,190822,000.0,W*7D
$GPGGA,081824.100,5544.435,N,03746.117,E,1,12,1.0,0.0,M,0.0,M,,*6B
$GPGSA,A,3,01,02,03,04,05,06,07,08,09,10,11,12,1.0,1.0,1.0*30
$GPRMC,081824.100,A,5544.435,N,03746.117,E,003.9,326.6,190822,000.0,W*74
$GPGGA,081825.100,5544.436,N,03746.116,E,1,12,1.0,0.0,M,0.0,M,,*68
$GPGSA,A,3,01,02,03,04,05,06,07,08,09,10,11,12,1.0,1.0,1.0*30
$GPRMC,081825.100,A,5544.436,N,03746.116,E,003.9,326.6,190822,000.0,W*77
$GPGGA,081826.100,5544.437,N,03746.116,E,1,12,1.0,0.0,M,0.0,M,,*6A
$GPGSA,A,3,01,02,03,04,05,06,07,08,09,10,11,12,1.0,1.0,1.0*30
$GPRMC,081826.100,A,5544.437,N,03746.116,E,003.9,326.6,190822,000.0,W*75
$GPGGA,081827.100,5544.438,N,03746.115,E,1,12,1.0,0.0,M,0.0,M,,*67
$GPGSA,A,3,01,02,03,04,05,06,07,08,09,10,11,12,1.0,1.0,1.0*30
$GPRMC,081827.100,A,5544.438,N,03746.115,E,003.9,326.6,190822,000.0,W*78
$GPGGA,081828.100,5544.439,N,03746.114,E,1,12,1.0,0.0,M,0.0,M,,*68
$GPGSA,A,3,01,02,03,04,05,06,07,08,09,10,11,12,1.0,1.0,1.0*30
$GPRMC,081828.100,A,5544.439,N,03746.114,E,003.9,326.6,190822,000.0,W*77
$GPGGA,081829.100,5544.440,N,03746.113,E,1,12,1.0,0.0,M,0.0,M,,*60
$GPGSA,A,3,01,02,03,04,05,06,07,08,09,10,11,12,1.0,1.0,1.0*30
$GPRMC,081829.100,A,5544.440,N,03746.113,E,003.9,326.6,190822,000.0,W*7F
$GPGGA,081830.100,5544.441,N,03746.113,E,1,12,1.0,0.0,M,0.0,M,,*69
$GPGSA,A,3,01,02,03,04,05,06,07,08,09,10,11,12,1.0,1.0,1.0*30
$GPRMC,081830.100,A,5544.441,N,03746.113,E,003.9,326.6,190822,000.0,W*76
$GPGGA,081831.100,5544.442,N,03746.112,E,1,12,1.0,0.0,M,0.0,M,,*6A
$GPGSA,A,3,01,02,03,04,05,06,07,08,09,10,11,12,1.0,1.0,1.0*30
$GPRMC,081831.100,A,5544.442,N,03746.112,E,003.9,326.6,190822,000.0,W*75
$GPGGA,081832.100,5544.443,N,03746.111,E,1,12,1.0,0.0,M,0.0,M,,*6B
$GPGSA,A,3,01,02,03,04,05,06,07,08,09,10,11,12,1.0,1.0,1.0*30
$GPRMC,081832.100,A,5544.443,N,03746.111,E,003.9,326.6,190822,000.0,W*74
$GPGGA,081833.100,5544.444,N,03746.111,E,1,12,1.0,0.0,M,0.0,M,,*6D
$GPGSA,A,3,01,02,03,04,05,06,07,08,09,10,11,12,1.0,1.0,1.0*30
$GPRMC,081833.100,A,5544.444,N,03746.111,E,003.9,326.6,190822,000.0,W*72
$GPGGA,081834.100,5544.445,N,03746.110,E,1,12,1.0,0.0,M,0.0,M,,*6A
$GPGSA,A,3,01,02,03,04,05,06,07,08,09,10,11,12,1.0,1.0,1.0*30
$GPRMC,081834.100,A,5544.445,N,03746.110,E,003.9,326.6,190822,000.0,W*75
$GPGGA,081835.100,5544.446,N,03746.109,E,1,12,1.0,0.0,M,0.0,M,,*60
$GPGSA,A,3,01,02,03,04,05,06,07,08,09,10,11,12,1.0,1.0,1.0*30
$GPRMC,081835.100,A,5544.446,N,03746.109,E,003.9,326.6,190822,000.0,W*7F
$GPGGA,081836.100,5544.447,N,03746.109,E,1,12,1.0,0.0,M,0.0,M,,*62
$GPGSA,A,3,01,02,03,04,05,06,07,08,09,10,11,12,1.0,1.0,1.0*30
$GPRMC,081836.100,A,5544.447,N,03746.109,E,003.9,326.6,190822,000.0,W*7D
$GPGGA,081837.100,5544.448,N,03746.108,E,1,12,1.0,0.0,M,0.0,M,,*6D
$GPGSA,A,3,01,02,03,04,05,06,07,08,09,10,11,12,1.0,1.0,1.0*30
$GPRMC,081837.100,A,5544.448,N,03746.108,E,003.9,326.6,190822,000.0,W*72
$GPGGA,081838.100,5544.449,N,03746.107,E,1,12,1.0,0.0,M,0.0,M,,*6C
$GPGSA,A,3,01,02,03,04,05,06,07,08,09,10,11,12,1.0,1.0,1.0*30
$GPRMC,081838.100,A,5544.449,N,03746.107,E,003.9,326.6,190822,000.0,W*73
$GPGGA,081839.100,5544.450,N,03746.107,E,1,12,1.0,0.0,M,0.0,M,,*65
$GPGSA,A,3,01,02,03,04,05,06,07,08,09,10,11,12,1.0,1.0,1.0*30
$GPRMC,081839.100,A,5544.450,N,03746.107,E,003.9,326.6,190822,000.0,W*7A
$GPGGA,081840.100,5544.451,N,03746.106,E,1,12,1.0,0.0,M,0.0,M,,*6B
$GPGSA,A,3,01,02,03,04,05,06,07,08,09,10,11,12,1.0,1.0,1.0*30
$GPRMC,081840.100,A,5544.451,N,03746.106,E,003.9,326.6,190822,000.0,W*74
$GPGGA,081841.100,5544.452,N,03746.105,E,1,12,1.0,0.0,M,0.0,M,,*6A
$GPGSA,A,3,01,02,03,04,05,06,07,08,09,10,11,12,1.0,1.0,1.0*30
$GPRMC,081841.100,A,5544.452,N,03746.105,E,003.9,326.6,190822,000.0,W*75
$GPGGA,081842.100,5544.453,N,03746.105,E,1,12,1.0,0.0,M,0.0,M,,*68
$GPGSA,A,3,01,02,03,04,05,06,07,08,09,10,11,12,1.0,1.0,1.0*30
$GPRMC,081842.100,A,5544.453,N,03746.105,E,003.9,326.6,190822,000.0,W*77
$GPGGA,081843.100,5544.454,N,03746.104,E,1,12,1.0,0.0,M,0.0,M,,*6F
$GPGSA,A,3,01,02,03,04,05,06,07,08,09,10,11,12,1.0,1.0,1.0*30
$GPRMC,081843.100,A,5544.454,N,03746.104,E,003.9,326.6,190822,000.0,W*70
$GPGGA,081844.100,5544.455,N,03746.103,E,1,12,1.0,0.0,M,0.0,M,,*6E
$GPGSA,A,3,01,02,03,04,05,06,07,08,09,10,11,12,1.0,1.0,1.0*30
$GPRMC,081844.100,A,5544.455,N,03746.103,E,003.9,326.6,190822,000.0,W*71
$GPGGA,081845.100,5544.456,N,03746.103,E,1,12,1.0,0.0,M,0.0,M,,*6C
$GPGSA,A,3,01,02,03,04,05,06,07,08,09,10,11,12,1.0,1.0,1.0*30
$GPRMC,081845.100,A,5544.456,N,03746.103,E,003.9,326.6,190822,000.0,W*73
$GPGGA,081846.100,5544.457,N,03746.102,E,1,12,1.0,0.0,M,0.0,M,,*6F
$GPGSA,A,3,01,02,03,04,05,06,07,08,09,10,11,12,1.0,1.0,1.0*30
$GPRMC,081846.100,A,5544.457,N,03746.102,E,003.9,326.6,190822,000.0,W*70
$GPGGA,081847.100,5544.458,N,03746.101,E,1,12,1.0,0.0,M,0.0,M,,*62
$GPGSA,A,3,01,02,03,04,05,06,07,08,09,10,11,12,1.0,1.0,1.0*30
$GPRMC,081847.100,A,5544.458,N,03746.101,E,003.9,326.6,190822,000.0,W*7D
$GPGGA,081848.100,5544.459,N,03746.101,E,1,12,1.0,0.0,M,0.0,M,,*6C
$GPGSA,A,3,01,02,03,04,05,06,07,08,09,10,11,12,1.0,1.0,1.0*30
$GPRMC,081848.100,A,5544.459,N,03746.101,E,003.9,326.6,190822,000.0,W*73
$GPGGA,081849.100,5544.460,N,03746.100,E,1,12,1.0,0.0,M,0.0,M,,*66
$GPGSA,A,3,01,02,03,04,05,06,07,08,09,10,11,12,1.0,1.0,1.0*30
$GPRMC,081849.100,A,5544.460,N,03746.100,E,003.9,326.6,190822,000.0,W*79
$GPGGA,081850.100,5544.461,N,03746.099,E,1,12,1.0,0.0,M,0.0,M,,*6E
$GPGSA,A,3,01,02,03,04,05,06,07,08,09,10,11,12,1.0,1.0,1.0*30
$GPRMC,081850.100,A,5544.461,N,03746.099,E,003.9,326.6,190822,000.0,W*71
$GPGGA,081851.100,5544.462,N,03746.099,E,1,12,1.0,0.0,M,0.0,M,,*6C
$GPGSA,A,3,01,02,03,04,05,06,07,08,09,10,11,12,1.0,1.0,1.0*30
$GPRMC,081851.100,A,5544.462,N,03746.099,E,003.9,326.6,190822,000.0,W*73
$GPGGA,081852.100,5544.463,N,03746.098,E,1,12,1.0,0.0,M,0.0,M,,*6F
$GPGSA,A,3,01,02,03,04,05,06,07,08,09,10,11,12,1.0,1.0,1.0*30
$GPRMC,081852.100,A,5544.463,N,03746.098,E,003.9,326.6,190822,000.0,W*70
$GPGGA,081853.100,5544.464,N,03746.097,E,1,12,1.0,0.0,M,0.0,M,,*66
$GPGSA,A,3,01,02,03,04,05,06,07,08,09,10,11,12,1.0,1.0,1.0*30
$GPRMC,081853.100,A,5544.464,N,03746.097,E,003.9,326.6,190822,000.0,W*79
$GPGGA,081854.100,5544.465,N,03746.097,E,1,12,1.0,0.0,M,0.0,M,,*60
$GPGSA,A,3,01,02,03,04,05,06,07,08,09,10,11,12,1.0,1.0,1.0*30
$GPRMC,081854.100,A,5544.465,N,03746.097,E,003.9,326.6,190822,000.0,W*7F
