$GPRMC,081358.100,A,5544.263,N,03745.980,E,003.9,082.9,190822,000.0,W*76
$GPRMC,081359.100,A,5544.263,N,03745.982,E,003.9,082.9,190822,000.0,W*75
$GPRMC,081400.100,A,5544.263,N,03745.983,E,003.9,082.9,190822,000.0,W*7F
$GPRMC,081401.100,A,5544.263,N,03745.985,E,003.9,082.9,190822,000.0,W*78
$GPRMC,081402.100,A,5544.264,N,03745.987,E,003.9,082.9,190822,000.0,W*7E
$GPRMC,081403.100,A,5544.264,N,03745.989,E,003.9,082.9,190822,000.0,W*71
$GPRMC,081404.100,A,5544.264,N,03745.991,E,003.9,082.9,190822,000.0,W*7F
$GPRMC,081405.100,A,5544.264,N,03745.993,E,003.9,082.9,190822,000.0,W*7C
$GPRMC,081406.100,A,5544.265,N,03745.995,E,003.9,082.9,190822,000.0,W*78
$GPRMC,081407.100,A,5544.265,N,03745.997,E,003.9,082.9,190822,000.0,W*7B
$GPRMC,081408.100,A,5544.265,N,03745.998,E,003.9,082.9,190822,000.0,W*7B
$GPRMC,081409.100,A,5544.265,N,03746.000,E,003.9,082.9,190822,000.0,W*71
$GPRMC,081410.100,A,5544.265,N,03746.002,E,003.9,082.9,190822,000.0,W*7B
$GPRMC,081411.100,A,5544.266,N,03746.004,E,003.9,082.9,190822,000.0,W*7F
$GPRMC,081412.100,A,5544.266,N,03746.006,E,003.9,082.9,190822,000.0,W*7E
$GPRMC,081413.100,A,5544.266,N,03746.008,E,003.9,082.9,190822,000.0,W*71
$GPRMC,081414.100,A,5544.266,N,03746.010,E,003.9,082.9,190822,000.0,W*7F
$GPRMC,081415.100,A,5544.267,N,03746.012,E,003.9,082.9,190822,000.0,W*7D
$GPRMC,081416.100,A,5544.267,N,03746.013,E,003.9,082.9,190822,000.0,W*7F
$GPRMC,081417.100,A,5544.267,N,03746.015,E,003.9,082.9,190822,000.0,W*78
$GPRMC,081418.100,A,5544.267,N,03746.017,E,003.9,082.9,190822,000.0,W*75
$GPRMC,081419.100,A,5544.268,N,03746.019,E,003.9,082.9,190822,000.0,W*75
$GPRMC,081420.100,A,5544.268,N,03746.021,E,003.9,082.9,190822,000.0,W*74
$GPRMC,081421.100,A,5544.268,N,03746.023,E,003.9,082.9,190822,000.0,W*77
$GPRMC,081422.100,A,5544.268,N,03746.025,E,003.9,082.9,190822,000.0,W*72
$GPRMC,081423.100,A,5544.268,N,03746.027,E,003.9,082.9,190822,000.0,W*71
$GPRMC,081424.100,A,5544.269,N,03746.028,E,003.9,082.9,190822,000.0,W*78
$GPRMC,081425.100,A,5544.269,N,03746.030,E,003.9,082.9,190822,000.0,W*70
$GPRMC,081426.100,A,5544.269,N,03746.032,E,003.9,082.9,190822,000.0,W*71
$GPRMC,081427.100,A,5544.269,N,03746.034,E,003.9,082.9,190822,000.0,W*76
$GPRMC,081428.100,A,5544.270,N,03746.036,E,003.9,082.9,190822,000.0,W*73
$GPRMC,081429.100,A,5544.270,N,03746.038,E,003.9,082.9,190822,000.0,W*7C
$GPRMC,081430.100,A,5544.270,N,03746.040,E,003.9,082.9,190822,000.0,W*7B
$GPRMC,081431.100,A,5544.270,N,03746.042,E,003.9,082.9,190822,000.0,W*78
$GPRMC,081432.100,A,5544.271,N,03746.043,E,003.9,082.9,190822,000.0,W*7B
$GPRMC,081433.100,A,5544.271,N,03746.045,E,003.9,082.9,190822,000.0,W*7C
$GPRMC,081434.100,A,5544.271,N,03746.047,E,003.9,082.9,190822,000.0,W*79
$GPRMC,081435.100,A,5544.271,N,03746.049,E,003.9,082.9,190822,000.0,W*76
$GPRMC,081436.100,A,5544.271,N,03746.051,E,003.9,082.9,190822,000.0,W*7C
$GPRMC,081437.100,A,5544.272,N,03746.053,E,003.9,082.9,190822,000.0,W*7C
$GPRMC,081438.100,A,5544.272,N,03746.055,E,003.9,082.9,190822,000.0,W*75
$GPRMC,081439.100,A,5544.272,N,03746.057,E,003.9,082.9,190822,000.0,W*76
$GPRMC,081440.100,A,5544.272,N,03746.058,E,003.9,082.9,190822,000.0,W*77
$GPRMC,081441.100,A,5544.273,N,03746.060,E,003.9,082.9,190822,000.0,W*7C
$GPRMC,081442.100,A,5544.273,N,03746.062,E,003.9,082.9,190822,000.0,W*7D
$GPRMC,081443.100,A,5544.273,N,03746.064,E,003.9,082.9,190822,000.0,W*7A
$GPRMC,081444.100,A,5544.273,N,03746.066,E,003.9,082.9,190822,000.0,W*7F
$GPRMC,081445.100,A,5544.274,N,03746.068,E,003.9,082.9,190822,000.0,W*77
$GPRMC,081446.100,A,5544.274,N,03746.070,E,003.9,082.9,190822,000.0,W*7D
$GPRMC,081447.100,A,5544.274,N,03746.072,E,003.9,082.9,190822,000.0,W*7E
$GPRMC,081448.100,A,5544.274,N,03746.073,E,003.9,082.9,190822,000.0,W*70
$GPRMC,081449.100,A,5544.274,N,03746.075,E,003.9,082.9,190822,000.0,W*77
$GPRMC,081450.100,A,5544.275,N,03746.077,E,003.9,082.9,190822,000.0,W*7C
$GPRMC,081451.100,A,5544.275,N,03746.079,E,003.9,082.9,190822,000.0,W*73
$GPRMC,081452.100,A,5544.275,N,03746.081,E,003.9,082.9,190822,000.0,W*77
$GPRMC,081453.100,A,5544.275,N,03746.083,E,003.9,082.9,190822,000.0,W*74
$GPRMC,081454.100,A,5544.276,N,03746.085,E,003.9,082.9,190822,000.0,W*76
$GPRMC,081455.100,A,5544.276,N,03746.086,E,003.9,082.9,190822,000.0,W*74
$GPRMC,081456.100,A,5544.276,N,03746.088,E,003.9,082.9,190822,000.0,W*79
$GPRMC,081457.100,A,5544.276,N,03746.090,E,003.9,082.9,190822,000.0,W*71
$GPRMC,081458.100,A,5544.277,N,03746.092,E,003.9,082.9,190822,000.0,W*7D
$GPRMC,081459.100,A,5544.277,N,03746.094,E,003.9,082.9,190822,000.0,W*7A
$GPRMC,081500.100,A,5544.277,N,03746.096,E,003.9,082.9,190822,000.0,W*75
$GPRMC,081501.100,A,5544.277,N,03746.098,E,003.9,082.9,190822,000.0,W*7A
$GPRMC,081502.100,A,5544.277,N,03746.100,E,003.9,082.9,190822,000.0,W*79
$GPRMC,081503.100,A,5544.278,N,03746.101,E,003.9,082.9,190822,000.0,W*76
$GPRMC,081504.100,A,5544.278,N,03746.103,E,003.9,082.9,190822,000.0,W*73
$GPRMC,081505.100,A,5544.278,N,03746.105,E,003.9,082.9,190822,000.0,W*74
$GPRMC,081506.100,A,5544.278,N,03746.107,E,003.9,082.9,190822,000.0,W*75
$GPRMC,081507.100,A,5544.279,N,03746.109,E,003.9,082.9,190822,000.0,W*7B
$GPRMC,081508.100,A,5544.279,N,03746.111,E,003.9,082.9,190822,000.0,W*7D
$GPRMC,081509.100,A,5544.279,N,03746.113,E,003.9,082.9,190822,000.0,W*7E
$GPRMC,081510.100,A,5544.279,N,03746.115,E,003.9,082.9,190822,000.0,W*70
$GPRMC,081511.100,A,5544.280,N,03746.116,E,003.9,082.9,190822,000.0,W*74
$GPRMC,081512.100,A,5544.280,N,03746.118,E,003.9,082.9,190822,000.0,W*79
$GPRMC,081513.100,A,5544.280,N,03746.120,E,003.9,082.9,190822,000.0,W*73
$GPRMC,081514.100,A,5544.280,N,03746.122,E,003.9,082.9,190822,000.0,W*76
$GPRMC,081515.100,A,5544.280,N,03746.124,E,003.9,082.9,190822,000.0,W*71
$GPRMC,081516.100,A,5544.281,N,03746.126,E,003.9,082.9,190822,000.0,W*71
$GPRMC,081517.100,A,5544.281,N,03746.128,E,003.9,082.9,190822,000.0,W*7E
$GPRMC,081518.100,A,5544.281,N,03746.130,E,003.9,082.9,190822,000.0,W*78
$GPRMC,081519.100,A,5544.281,N,03746.131,E,003.9,082.9,190822,000.0,W*78
$GPRMC,081520.100,A,5544.282,N,03746.133,E,003.9,082.9,190822,000.0,W*73
$GPRMC,081521.100,A,5544.282,N,03746.135,E,003.9,082.9,190822,000.0,W*74
$GPRMC,081522.100,A,5544.282,N,03746.137,E,003.9,082.9,190822,000.0,W*75
$GPRMC,081523.100,A,5544.282,N,03746.139,E,003.9,082.9,190822,000.0,W*7A
$GPRMC,081524.100,A,5544.283,N,03746.141,E,003.9,082.9,190822,000.0,W*73
$GPRMC,081525.100,A,5544.283,N,03746.143,E,003.9,082.9,190822,000.0,W*70
$GPRMC,081526.100,A,5544.283,N,03746.145,E,003.9,082.9,190822,000.0,W*75
$GPRMC,081527.100,A,5544.283,N,03746.146,E,003.9,082.9,190822,000.0,W*77
$GPRMC,081528.100,A,5544.283,N,03746.148,E,003.9,082.9,190822,000.0,W*76
$GPRMC,081529.100,A,5544.284,N,03746.150,E,003.9,082.9,190822,000.0,W*79
$GPRMC,081530.100,A,5544.284,N,03746.152,E,003.9,082.9,190822,000.0,W*73
$GPRMC,081531.100,A,5544.284,N,03746.154,E,003.9,082.9,190822,000.0,W*74
$GPRMC,081532.100,A,5544.284,N,03746.156,E,003.9,082.9,190822,000.0,W*75
$GPRMC,081533.100,A,5544.285,N,03746.158,E,003.9,082.9,190822,000.0,W*7B
$GPRMC,081534.100,A,5544.285,N,03746.160,E,003.9,082.9,190822,000.0,W*77
$GPRMC,081535.100,A,5544.285,N,03746.161,E,003.9,082.9,190822,000.0,W*77
$GPRMC,081536.100,A,5544.285,N,03746.163,E,003.9,082.9,190822,000.0,W*76
$GPRMC,081537.100,A,5544.286,N,03746.165,E,003.9,082.9,190822,000.0,W*72
$GPRMC,081538.100,A,5544.286,N,03746.167,E,003.9,082.9,190822,000.0,W*7F
$GPRMC,081539.100,A,5544.286,N,03746.169,E,003.9,082.9,190822,000.0,W*70
$GPRMC,081540.100,A,5544.286,N,03746.171,E,003.9,082.9,190822,000.0,W*77
$GPRMC,081541.100,A,5544.286,N,03746.173,E,003.9,082.9,190822,000.0,W*74
$GPRMC,081542.100,A,5544.287,N,03746.174,E,003.9,082.9,190822,000.0,W*71
$GPRMC,081543.100,A,5544.287,N,03746.176,E,003.9,082.9,190822,000.0,W*72
$GPRMC,081544.100,A,5544.287,N,03746.178,E,003.9,082.9,190822,000.0,W*7B
$GPRMC,081545.100,A,5544.287,N,03746.180,E,003.9,082.9,190822,000.0,W*7D
$GPRMC,081546.100,A,5544.288,N,03746.182,E,003.9,082.9,190822,000.0,W*73
$GPRMC,081547.100,A,5544.288,N,03746.184,E,003.9,082.9,190822,000.0,W*74
$GPRMC,081548.100,A,5544.288,N,03746.186,E,003.9,082.9,190822,000.0,W*79
$GPRMC,081549.100,A,5544.288,N,03746.188,E,003.9,082.9,190822,000.0,W*76
$GPRMC,081550.100,A,5544.289,N,03746.189,E,003.9,082.9,190822,000.0,W*7E
$GPRMC,081551.100,A,5544.289,N,03746.191,E,003.9,082.9,190822,000.0,W*76
$GPRMC,081552.100,A,5544.289,N,03746.193,E,003.9,082.9,190822,000.0,W*77
$GPRMC,081553.100,A,5544.289,N,03746.195,E,003.9,082.9,190822,000.0,W*70
$GPRMC,081554.100,A,5544.289,N,03746.197,E,003.9,082.9,190822,000.0,W*75
$GPRMC,081555.100,A,5544.290,N,03746.199,E,003.9,082.9,190822,000.0,W*72
$GPRMC,081556.100,A,5544.290,N,03746.201,E,003.9,082.9,190822,000.0,W*73
$GPRMC,081557.100,A,5544.290,N,03746.203,E,003.9,082.9,190822,000.0,W*70
$GPRMC,081558.100,A,5544.290,N,03746.204,E,003.9,082.9,190822,000.0,W*78
$GPRMC,081559.100,A,5544.291,N,03746.206,E,003.9,082.9,190822,000.0,W*7A
$GPRMC,081600.100,A,5544.291,N,03746.208,E,003.9,082.9,190822,000.0,W*7B
$GPRMC,081601.100,A,5544.291,N,03746.210,E,003.9,082.9,190822,000.0,W*73
$GPRMC,081602.100,A,5544.291,N,03746.212,E,003.9,326.6,190822,000.0,W*70
$GPRMC,081603.100,A,5544.292,N,03746.211,E,003.9,326.6,190822,000.0,W*71
$GPRMC,081604.100,A,5544.293,N,03746.211,E,003.9,326.6,190822,000.0,W*77
$GPRMC,081605.100,A,5544.294,N,03746.210,E,003.9,326.6,190822,000.0,W*70
$GPRMC,081606.100,A,5544.295,N,03746.209,E,003.9,326.6,190822,000.0,W*7A
$GPRMC,081607.100,A,5544.296,N,03746.209,E,003.9,326.6,190822,000.0,W*78
$GPRMC,081608.100,A,5544.297,N,03746.208,E,003.9,326.6,190822,000.0,W*77
$GPRMC,081609.100,A,5544.298,N,03746.207,E,003.9,326.6,190822,000.0,W*76
$GPRMC,081610.100,A,5544.299,N,03746.207,E,003.9,326.6,190822,000.0,W*7F
$GPRMC,081611.100,A,5544.300,N,03746.206,E,003.9,326.6,190822,000.0,W*7E
$GPRMC,081612.100,A,5544.301,N,03746.205,E,003.9,326.6,190822,000.0,W*7F
$GPRMC,081613.100,A,5544.302,N,03746.205,E,003.9,326.6,190822,000.0,W*7D
$GPRMC,081614.100,A,5544.303,N,03746.204,E,003.9,326.6,190822,000.0,W*7A
$GPRMC,081615.100,A,5544.304,N,03746.203,E,003.9,326.6,190822,000.0,W*7B
$GPRMC,081616.100,A,5544.305,N,03746.203,E,003.9,326.6,190822,000.0,W*79
$GPRMC,081617.100,A,5544.306,N,03746.202,E,003.9,326.6,190822,000.0,W*7A
$GPRMC,081618.100,A,5544.308,N,03746.201,E,003.9,326.6,190822,000.0,W*78
$GPRMC,081619.100,A,5544.309,N,03746.201,E,003.9,326.6,190822,000.0,W*78
$GPRMC,081620.100,A,5544.310,N,03746.200,E,003.9,326.6,190822,000.0,W*7B
$GPRMC,081621.100,A,5544.311,N,03746.199,E,003.9,326.6,190822,000.0,W*78
$GPRMC,081622.100,A,5544.312,N,03746.199,E,003.9,326.6,190822,000.0,W*78
$GPRMC,081623.100,A,5544.313,N,03746.198,E,003.9,326.6,190822,000.0,W*79
$GPRMC,081624.100,A,5544.314,N,03746.197,E,003.9,326.6,190822,000.0,W*76
$GPRMC,081625.100,A,5544.315,N,03746.197,E,003.9,326.6,190822,000.0,W*76
$GPRMC,081626.100,A,5544.316,N,03746.196,E,003.9,326.6,190822,000.0,W*77
$GPRMC,081627.100,A,5544.317,N,03746.195,E,003.9,326.6,190822,000.0,W*74
$GPRMC,081628.100,A,5544.318,N,03746.195,E,003.9,326.6,190822,000.0,W*74
$GPRMC,081629.100,A,5544.319,N,03746.194,E,003.9,326.6,190822,000.0,W*75
$GPRMC,081630.100,A,5544.320,N,03746.193,E,003.9,326.6,190822,000.0,W*70
$GPRMC,081631.100,A,5544.321,N,03746.193,E,003.9,326.6,190822,000.0,W*70
$GPRMC,081632.100,A,5544.322,N,03746.192,E,003.9,326.6,190822,000.0,W*71
$GPRMC,081633.100,A,5544.323,N,03746.191,E,003.9,326.6,190822,000.0,W*72
$GPRMC,081634.100,A,5544.324,N,03746.191,E,003.9,326.6,190822,000.0,W*72
$GPRMC,081635.100,A,5544.325,N,03746.190,E,003.9,326.6,190822,000.0,W*73
$GPRMC,081636.100,A,5544.326,N,03746.189,E,003.9,326.6,190822,000.0,W*7B
$GPRMC,081637.100,A,5544.327,N,03746.189,E,003.9,326.6,190822,000.0,W*7B
$GPRMC,081638.100,A,5544.328,N,03746.188,E,003.9,326.6,190822,000.0,W*7A
$GPRMC,081639.100,A,5544.329,N,03746.187,E,003.9,326.6,190822,000.0,W*75
$GPRMC,081640.100,A,5544.330,N,03746.186,E,003.9,326.6,190822,000.0,W*72
$GPRMC,081641.100,A,5544.331,N,03746.186,E,003.9,326.6,190822,000.0,W*72
$GPRMC,081642.100,A,5544.332,N,03746.185,E,003.9,326.6,190822,000.0,W*71
$GPRMC,081643.100,A,5544.333,N,03746.184,E,003.9,326.6,190822,000.0,W*70
$GPRMC,081644.100,A,5544.334,N,03746.184,E,003.9,326.6,190822,000.0,W*70
$GPRMC,081645.100,A,5544.335,N,03746.183,E,003.9,326.6,190822,000.0,W*77
$GPRMC,081646.100,A,5544.336,N,03746.182,E,003.9,326.6,190822,000.0,W*76
$GPRMC,081647.100,A,5544.337,N,03746.182,E,003.9,326.6,190822,000.0,W*76
$GPRMC,081648.100,A,5544.338,N,03746.181,E,003.9,326.6,190822,000.0,W*75
$GPRMC,081649.100,A,5544.339,N,03746.180,E,003.9,326.6,190822,000.0,W*74
$GPRMC,081650.100,A,5544.340,N,03746.180,E,003.9,326.6,190822,000.0,W*72
$GPRMC,081651.100,A,5544.341,N,03746.179,E,003.9,326.6,190822,000.0,W*74
$GPRMC,081652.100,A,5544.342,N,03746.178,E,003.9,326.6,190822,000.0,W*75
$GPRMC,081653.100,A,5544.343,N,03746.178,E,003.9,326.6,190822,000.0,W*75
$GPRMC,081654.100,A,5544.344,N,03746.177,E,003.9,326.6,190822,000.0,W*7A
$GPRMC,081655.100,A,5544.345,N,03746.176,E,003.9,326.6,190822,000.0,W*7B
$GPRMC,081656.100,A,5544.346,N,03746.176,E,003.9,326.6,190822,000.0,W*7B
$GPRMC,081657.100,A,5544.347,N,03746.175,E,003.9,326.6,190822,000.0,W*78
$GPRMC,081658.100,A,5544.348,N,03746.174,E,003.9,326.6,190822,000.0,W*79
$GPRMC,081659.100,A,5544.349,N,03746.174,E,003.9,326.6,190822,000.0,W*79
$GPRMC,081700.100,A,5544.350,N,03746.173,E,003.9,326.6,190822,000.0,W*7B
$GPRMC,081701.100,A,5544.351,N,03746.172,E,003.9,326.6,190822,000.0,W*7A
$GPRMC,081702.100,A,5544.352,N,03746.172,E,003.9,326.6,190822,000.0,W*7A
$GPRMC,081703.100,A,5544.353,N,03746.171,E,003.9,326.6,190822,000.0,W*79
$GPRMC,081704.100,A,5544.354,N,03746.170,E,003.9,326.6,190822,000.0,W*78
$GPRMC,081705.100,A,5544.355,N,03746.170,E,003.9,326.6,190822,000.0,W*78
$GPRMC,081706.100,A,5544.356,N,03746.169,E,003.9,326.6,190822,000.0,W*70
$GPRMC,081707.100,A,5544.357,N,03746.168,E,003.9,326.6,190822,000.0,W*71
$GPRMC,081708.100,A,5544.358,N,03746.168,E,003.9,326.6,190822,000.0,W*71
$GPRMC,081709.100,A,5544.359,N,03746.167,E,003.9,326.6,190822,000.0,W*7E
$GPRMC,081710.100,A,5544.360,N,03746.166,E,003.9,326.6,190822,000.0,W*7D
$GPRMC,081711.100,A,5544.361,N,03746.166,E,003.9,326.6,190822,000.0,W*7D
$GPRMC,081712.100,A,5544.362,N,03746.165,E,003.9,326.6,190822,000.0,W*7E
$GPRMC,081713.100,A,5544.363,N,03746.164,E,003.9,326.6,190822,000.0,W*7F
$GPRMC,081714.100,A,5544.364,N,03746.164,E,003.9,326.6,190822,000.0,W*7F
$GPRMC,081715.100,A,5544.365,N,03746.163,E,003.9,326.6,190822,000.0,W*78
$GPRMC,081716.100,A,5544.366,N,03746.162,E,003.9,326.6,190822,000.0,W*79
$GPRMC,081717.100,A,5544.367,N,03746.162,E,003.9,326.6,190822,000.0,W*79
$GPRMC,081718.100,A,5544.368,N,03746.161,E,003.9,326.6,190822,000.0,W*7A
$GPRMC,081719.100,A,5544.369,N,03746.160,E,003.9,326.6,190822,000.0,W*7B
$GPRMC,081720.100,A,5544.370,N,03746.160,E,003.9,326.6,190822,000.0,W*79
$GPRMC,081721.100,A,5544.371,N,03746.159,E,003.9,326.6,190822,000.0,W*73
$GPRMC,081722.100,A,5544.372,N,03746.158,E,003.9,326.6,190822,000.0,W*72
$GPRMC,081723.100,A,5544.373,N,03746.158,E,003.9,326.6,190822,000.0,W*72
$GPRMC,081724.100,A,5544.374,N,03746.157,E,003.9,326.6,190822,000.0,W*7D
$GPRMC,081725.100,A,5544.375,N,03746.156,E,003.9,326.6,190822,000.0,W*7C
$GPRMC,081726.100,A,5544.376,N,03746.156,E,003.9,326.6,190822,000.0,W*7C
$GPRMC,081727.100,A,5544.377,N,03746.155,E,003.9,326.6,190822,000.0,W*7F
$GPRMC,081728.100,A,5544.378,N,03746.154,E,003.9,326.6,190822,000.0,W*7E
$GPRMC,081729.100,A,5544.379,N,03746.154,E,003.9,326.6,190822,000.0,W*7E
$GPRMC,081730.100,A,5544.380,N,03746.153,E,003.9,326.6,190822,000.0,W*77
$GPRMC,081731.100,A,5544.381,N,03746.152,E,003.9,326.6,190822,000.0,W*76
$GPRMC,081732.100,A,5544.382,N,03746.152,E,003.9,326.6,190822,000.0,W*76
$GPRMC,081733.100,A,5544.383,N,03746.151,E,003.9,326.6,190822,000.0,W*75
$GPRMC,081734.100,A,5544.384,N,03746.150,E,003.9,326.6,190822,000.0,W*74
$GPRMC,081735.100,A,5544.385,N,03746.150,E,003.9,326.6,190822,000.0,W*74
$GPRMC,081736.100,A,5544.386,N,03746.149,E,003.9,326.6,190822,000.0,W*7C
$GPRMC,081737.100,A,5544.387,N,03746.148,E,003.9,326.6,190822,000.0,W*7D
$GPRMC,081738.100,A,5544.388,N,03746.148,E,003.9,326.6,190822,000.0,W*7D
$GPRMC,081739.100,A,5544.389,N,03746.147,E,003.9,326.6,190822,000.0,W*72
$GPRMC,081740.100,A,5544.390,N,03746.146,E,003.9,326.6,190822,000.0,W*75
$GPRMC,081741.100,A,5544.391,N,03746.146,E,003.9,326.6,190822,000.0,W*75
$GPRMC,081742.100,A,5544.392,N,03746.145,E,003.9,326.6,190822,000.0,W*76
$GPRMC,081743.100,A,5544.393,N,03746.144,E,003.9,326.6,190822,000.0,W*77
$GPRMC,081744.100,A,5544.394,N,03746.144,E,003.9,326.6,190822,000.0,W*77
$GPRMC,081745.100,A,5544.395,N,03746.143,E,003.9,326.6,190822,000.0,W*70
$GPRMC,081746.100,A,5544.396,N,03746.142,E,003.9,326.6,190822,000.0,W*71
$GPRMC,081747.100,A,5544.398,N,03746.142,E,003.9,326.6,190822,000.0,W*7E
$GPRMC,081748.100,A,5544.399,N,03746.141,E,003.9,326.6,190822,000.0,W*73
$GPRMC,081749.100,A,5544.400,N,03746.140,E,003.9,326.6,190822,000.0,W*74
$GPRMC,081750.100,A,5544.401,N,03746.140,E,003.9,326.6,190822,000.0,W*7D
$GPRMC,081751.100,A,5544.402,N,03746.139,E,003.9,326.6,190822,000.0,W*71
$GPRMC,081752.100,A,5544.403,N,03746.138,E,003.9,326.6,190822,000.0,W*72
$GPRMC,081753.100,A,5544.404,N,03746.138,E,003.9,326.6,190822,000.0,W*74
$GPRMC,081754.100,A,5544.405,N,03746.137,E,003.9,326.6,190822,000.0,W*7D
$GPRMC,081755.100,A,5544.406,N,03746.136,E,003.9,326.6,190822,000.0,W*7E
$GPRMC,081756.100,A,5544.407,N,03746.136,E,003.9,326.6,190822,000.0,W*7C
$GPRMC,081757.100,A,5544.408,N,03746.135,E,003.9,326.6,190822,000.0,W*71
$GPRMC,081758.100,A,5544.409,N,03746.134,E,003.9,326.6,190822,000.0,W*7E
$GPRMC,081759.100,A,5544.410,N,03746.134,E,003.9,326.6,190822,000.0,W*77
$GPRMC,081800.100,A,5544.411,N,03746.133,E,003.9,326.6,190822,000.0,W*72
$GPRMC,081801.100,A,5544.412,N,03746.132,E,003.9,326.6,190822,000.0,W*71
$GPRMC,081802.100,A,5544.413,N,03746.132,E,003.9,326.6,190822,000.0,W*73
$GPRMC,081803.100,A,5544.414,N,03746.131,E,003.9,326.6,190822,000.0,W*76
$GPRMC,081804.100,A,5544.415,N,03746.130,E,003.9,326.6,190822,000.0,W*71
$GPRMC,081805.100,A,5544.416,N,03746.130,E,003.9,326.6,190822,000.0,W*73
$GPRMC,081806.100,A,5544.417,N,03746.129,E,003.9,326.6,190822,000.0,W*79
$GPRMC,081807.100,A,5544.418,N,03746.128,E,003.9,326.6,190822,000.0,W*76
$GPRMC,081808.100,A,5544.419,N,03746.128,E,003.9,326.6,190822,000.0,W*78
$GPRMC,081809.100,A,5544.420,N,03746.127,E,003.9,326.6,190822,000.0,W*7C
$GPRMC,081810.100,A,5544.421,N,03746.126,E,003.9,326.6,190822,000.0,W*74
$GPRMC,081811.100,A,5544.422,N,03746.126,E,003.9,326.6,190822,000.0,W*76
$GPRMC,081812.100,A,5544.423,N,03746.125,E,003.9,326.6,190822,000.0,W*77
$GPRMC,081813.100,A,5544.424,N,03746.124,E,003.9,326.6,190822,000.0,W*70
$GPRMC,081814.100,A,5544.425,N,03746.124,E,003.9,326.6,190822,000.0,W*76
$GPRMC,081815.100,A,5544.426,N,03746.123,E,003.9,326.6,190822,000.0,W*73
$GPRMC,081816.100,A,5544.427,N,03746.122,E,003.9,326.6,190822,000.0,W*70
$GPRMC,081817.100,A,5544.428,N,03746.122,E,003.9,326.6,190822,000.0,W*7E
$GPRMC,081818.100,A,5544.429,N,03746.121,E,003.9,326.6,190822,000.0,W*73
$GPRMC,081819.100,A,5544.430,N,03746.120,E,003.9,326.6,190822,000.0,W*7B
$GPRMC,081820.100,A,5544.431,N,03746.120,E,003.9,326.6,190822,000.0,W*70
$GPRMC,081821.100,A,5544.432,N,03746.119,E,003.9,326.6,190822,000.0,W*78
$GPRMC,081822.100,A,5544.433,N,03746.118,E,003.9,326.6,190822,000.0,W*7B
$GPRMC,081823.100,A,5544.434,N,03746.118,E,003.9,326.6,190822,000.0,W*7D
$GPRMC,081824.100,A,5544.435,N,03746.117,E,003.9,326.6,190822,000.0,W*74
$GPRMC,081825.100,A,5544.436,N,03746.116,E,003.9,326.6,190822,000.0,W*77
$GPRMC,081826.100,A,5544.437,N,03746.116,E,003.9,326.6,190822,000.0,W*75
$GPRMC,081827.100,A,5544.438,N,03746.115,E,003.9,326.6,190822,000.0,W*78
$GPRMC,081828.100,A,5544.439,N,03746.114,E,003.9,326.6,190822,000.0,W*77
$GPRMC,081829.100,A,5544.440,N,03746.113,E,003.9,326.6,190822,000.0,W*7F
$GPRMC,081830.100,A,5544.441,N,03746.113,E,003.9,326.6,190822,000.0,W*76
$GPRMC,081831.100,A,5544.442,N,03746.112,E,003.9,326.6,190822,000.0,W*75
$GPRMC,081832.100,A,5544.443,N,03746.111,E,003.9,326.6,190822,000.0,W*74
$GPRMC,081833.100,A,5544.444,N,03746.111,E,003.9,326.6,190822,000.0,W*72
$GPRMC,081834.100,A,5544.445,N,03746.110,E,003.9,326.6,190822,000.0,W*75
$GPRMC,081835.100,A,5544.446,N,03746.109,E,003.9,326.6,190822,000.0,W*7F
$GPRMC,081836.100,A,5544.447,N,03746.109,E,003.9,326.6,190822,000.0,W*7D
$GPRMC,081837.100,A,5544.448,N,03746.108,E,003.9,326.6,190822,000.0,W*72
$GPRMC,081838.100,A,5544.449,N,03746.107,E,003.9,326.6,190822,000.0,W*73
$GPRMC,081839.100,A,5544.450,N,03746.107,E,003.9,326.6,190822,000.0,W*7A
$GPRMC,081840.100,A,5544.451,N,03746.106,E,003.9,326.6,190822,000.0,W*74
$GPRMC,081841.100,A,5544.452,N,03746.105,E,003.9,326.6,190822,000.0,W*75
$GPRMC,081842.100,A,5544.453,N,03746.105,E,003.9,326.6,190822,000.0,W*77
$GPRMC,081843.100,A,5544.454,N,03746.104,E,003.9,326.6,190822,000.0,W*70
$GPRMC,081844.100,A,5544.455,N,03746.103,E,003.9,326.6,190822,000.0,W*71
$GPRMC,081845.100,A,5544.456,N,03746.103,E,003.9,326.6,190822,000.0,W*73
$GPRMC,081846.100,A,5544.457,N,03746.102,E,003.9,326.6,190822,000.0,W*70
$GPRMC,081847.100,A,5544.458,N,03746.101,E,003.9,326.6,190822,000.0,W*7D
$GPRMC,081848.100,A,5544.459,N,03746.101,E,003.9,326.6,190822,000.0,W*73
$GPRMC,081849.100,A,5544.460,N,03746.100,E,003.9,326.6,190822,000.0,W*79
$GPRMC,081850.100,A,5544.461,N,03746.099,E,003.9,326.6,190822,000.0,W*71
$GPRMC,081851.100,A,5544.462,N,03746.099,E,003.9,326.6,190822,000.0,W*73
$GPRMC,081852.100,A,5544.463,N,03746.098,E,003.9,326.6,190822,000.0,W*70
$GPRMC,081853.100,A,5544.464,N,03746.097,E,003.9,326.6,190822,000.0,W*79
$GPRMC,081854.100,A,5544.465,N,03746.097,E,003.9,326.6,190822,000.0,W*7F
$GPRMC,081855.100,A,5544.466,N,03746.096,E,003.9,326.6,190822,000.0,W*7C
$GPRMC,081856.100,A,5544.467,N,03746.095,E,003.9,326.6,190822,000.0,W*7D
$GPRMC,081857.100,A,5544.468,N,03746.095,E,003.9,326.6,190822,000.0,W*73
$GPRMC,081858.100,A,5544.469,N,03746.094,E,003.9,326.6,190822,000.0,W*7C
$GPRMC,081859.100,A,5544.470,N,03746.093,E,003.9,326.6,190822,000.0,W*72
$GPRMC,081900.100,A,5544.471,N,03746.093,E,003.9,326.6,190822,000.0,W*7E
$GPRMC,081901.100,A,5544.472,N,03746.092,E,003.9,326.6,190822,000.0,W*7D
$GPRMC,081902.100,A,5544.473,N,03746.091,E,003.9,326.6,190822,000.0,W*7C
$GPRMC,081903.100,A,5544.474,N,03746.091,E,003.9,326.6,190822,000.0,W*7A
$GPRMC,081904.100,A,5544.475,N,03746.090,E,003.9,326.6,190822,000.0,W*7D
$GPRMC,081905.100,A,5544.476,N,03746.089,E,003.9,326.6,190822,000.0,W*77
$GPRMC,081906.100,A,5544.477,N,03746.089,E,003.9,326.6,190822,000.0,W*75
$GPRMC,081907.100,A,5544.478,N,03746.088,E,003.9,326.6,190822,000.0,W*7A
$GPRMC,081908.100,A,5544.479,N,03746.087,E,003.9,326.6,190822,000.0,W*7B
$GPRMC,081909.100,A,5544.480,N,03746.087,E,003.9,326.6,190822,000.0,W*7C
$GPRMC,081910.100,A,5544.481,N,03746.086,E,003.9,326.6,190822,000.0,W*74
$GPRMC,081911.100,A,5544.482,N,03746.085,E,003.9,326.6,190822,000.0,W*75
$GPRMC,081912.100,A,5544.483,N,03746.085,E,003.9,326.6,190822,000.0,W*77
$GPRMC,081913.100,A,5544.484,N,03746.084,E,003.9,326.6,190822,000.0,W*70
$GPRMC,081914.100,A,5544.485,N,03746.083,E,003.9,326.6,190822,000.0,W*71
$GPRMC,081915.100,A,5544.486,N,03746.083,E,003.9,326.6,190822,000.0,W*73
$GPRMC,081916.100,A,5544.487,N,03746.082,E,003.9,326.6,190822,000.0,W*70
$GPRMC,081917.100,A,5544.489,N,03746.081,E,003.9,326.6,190822,000.0,W*7C
$GPRMC,081918.100,A,5544.490,N,03746.081,E,003.9,326.6,190822,000.0,W*7B
$GPRMC,081919.100,A,5544.491,N,03746.080,E,003.9,326.6,190822,000.0,W*7A
$GPRMC,081920.100,A,5544.492,N,03746.079,E,003.9,326.6,190822,000.0,W*75
$GPRMC,081921.100,A,5544.493,N,03746.079,E,003.9,326.6,190822,000.0,W*75
$GPRMC,081922.100,A,5544.494,N,03746.078,E,003.9,326.6,190822,000.0,W*70
$GPRMC,081923.100,A,5544.495,N,03746.077,E,003.9,326.6,190822,000.0,W*7F
$GPRMC,081924.100,A,5544.496,N,03746.077,E,003.9,326.6,190822,000.0,W*7B
$GPRMC,081925.100,A,5544.497,N,03746.076,E,003.9,326.6,190822,000.0,W*7A
$GPRMC,081926.100,A,5544.498,N,03746.075,E,003.9,326.6,190822,000.0,W*75
$GPRMC,081927.100,A,5544.499,N,03746.075,E,003.9,326.6,190822,000.0,W*75
$GPRMC,081928.100,A,5544.500,N,03746.074,E,003.9,326.6,190822,000.0,W*7A
$GPRMC,081929.100,A,5544.501,N,03746.073,E,003.9,326.6,190822,000.0,W*7D
$GPRMC,081930.100,A,5544.502,N,03746.073,E,003.9,326.6,190822,000.0,W*76
$GPRMC,081931.100,A,5544.503,N,03746.072,E,003.9,326.6,190822,000.0,W*77
$GPRMC,081932.100,A,5544.504,N,03746.071,E,003.9,326.6,190822,000.0,W*70
$GPRMC,081933.100,A,5544.505,N,03746.071,E,003.9,326.6,190822,000.0,W*70
$GPRMC,081934.100,A,5544.506,N,03746.070,E,003.9,326.6,190822,000.0,W*75
$GPRMC,081935.100,A,5544.507,N,03746.069,E,003.9,326.6,190822,000.0,W*7D
$GPRMC,081936.100,A,5544.508,N,03746.069,E,003.9,326.6,190822,000.0,W*71
$GPRMC,081937.100,A,5544.509,N,03746.068,E,003.9,326.6,190822,000.0,W*70
$GPRMC,081938.100,A,5544.510,N,03746.067,E,003.9,326.6,190822,000.0,W*78
$GPRMC,081939.100,A,5544.511,N,03746.067,E,003.9,326.6,190822,000.0,W*78
$GPRMC,081940.100,A,5544.512,N,03746.066,E,003.9,326.6,190822,000.0,W*74
$GPRMC,081941.100,A,5544.513,N,03746.065,E,003.9,326.6,190822,000.0,W*77
$GPRMC,081942.100,A,5544.514,N,03746.065,E,003.9,326.6,190822,000.0,W*73
$GPRMC,081943.100,A,5544.515,N,03746.064,E,003.9,326.6,190822,000.0,W*72
$GPRMC,081944.100,A,5544.516,N,03746.063,E,003.9,326.6,190822,000.0,W*71
$GPRMC,081945.100,A,5544.517,N,03746.063,E,003.9,326.6,190822,000.0,W*71
$GPRMC,081946.100,A,5544.518,N,03746.062,E,003.9,326.6,190822,000.0,W*7C
$GPRMC,081947.100,A,5544.519,N,03746.061,E,003.9,326.6,190822,000.0,W*7F
$GPRMC,081948.100,A,5544.520,N,03746.061,E,003.9,326.6,190822,000.0,W*7A
$GPRMC,081949.100,A,5544.521,N,03746.060,E,003.9,326.6,190822,000.0,W*7B
$GPRMC,081950.100,A,5544.522,N,03746.059,E,003.9,326.6,190822,000.0,W*7A
$GPRMC,081951.100,A,5544.523,N,03746.059,E,003.9,326.6,190822,000.0,W*7A
$GPRMC,081952.100,A,5544.524,N,03746.058,E,003.9,326.6,190822,000.0,W*7F
$GPRMC,081953.100,A,5544.525,N,03746.057,E,003.9,326.6,190822,000.0,W*70
$GPRMC,081954.100,A,5544.526,N,03746.057,E,003.9,326.6,190822,000.0,W*74
$GPRMC,081955.100,A,5544.527,N,03746.056,E,003.9,326.6,190822,000.0,W*75
$GPRMC,081956.100,A,5544.528,N,03746.055,E,003.9,326.6,190822,000.0,W*7A
$GPRMC,081957.100,A,5544.529,N,03746.055,E,003.9,326.6,190822,000.0,W*7A
$GPRMC,081958.100,A,5544.530,N,03746.054,E,003.9,326.6,190822,000.0,W*7C
$GPRMC,081959.100,A,5544.531,N,03746.053,E,003.9,326.6,190822,000.0,W*7B
$GPRMC,082000.100,A,5544.532,N,03746.053,E,003.9,326.6,190822,000.0,W*7E
$GPRMC,082001.100,A,5544.533,N,03746.052,E,003.9,326.6,190822,000.0,W*7F
$GPRMC,082002.100,A,5544.534,N,03746.051,E,003.9,326.6,190822,000.0,W*78
$GPRMC,082003.100,A,5544.535,N,03746.051,E,003.9,326.6,190822,000.0,W*78
$GPRMC,082004.100,A,5544.536,N,03746.050,E,003.9,326.6,190822,000.0,W*7D
$GPRMC,082005.100,A,5544.537,N,03746.049,E,003.9,326.6,190822,000.0,W*75
$GPRMC,082006.100,A,5544.538,N,03746.049,E,003.9,326.6,190822,000.0,W*79
$GPRMC,082007.100,A,5544.539,N,03746.048,E,003.9,326.6,190822,000.0,W*78
$GPRMC,082008.100,A,5544.540,N,03746.047,E,003.9,326.6,190822,000.0,W*76
$GPRMC,082009.100,A,5544.541,N,03746.047,E,003.9,326.6,190822,000.0,W*76
$GPRMC,082010.100,A,5544.542,N,03746.046,E,003.9,326.6,190822,000.0,W*7C
$GPRMC,082011.100,A,5544.543,N,03746.045,E,003.9,326.6,190822,000.0,W*7F
$GPRMC,082012.100,A,5544.544,N,03746.045,E,003.9,326.6,190822,000.0,W*7B
$GPRMC,082013.100,A,5544.545,N,03746.044,E,003.9,326.6,190822,000.0,W*7A
$GPRMC,082014.100,A,5544.546,N,03746.043,E,003.9,326.6,190822,000.0,W*79
$GPRMC,082015.100,A,5544.547,N,03746.043,E,003.9,326.6,190822,000.0,W*79
$GPRMC,082016.100,A,5544.548,N,03746.042,E,003.9,326.6,190822,000.0,W*74
$GPRMC,082017.100,A,5544.549,N,03746.041,E,003.9,326.6,190822,000.0,W*77
$GPRMC,082018.100,A,5544.550,N,03746.040,E,003.9,326.6,190822,000.0,W*71
$GPRMC,082019.100,A,5544.551,N,03746.040,E,003.9,326.6,190822,000.0,W*71
$GPRMC,082020.100,A,5544.552,N,03746.039,E,003.9,326.6,190822,000.0,W*76
$GPRMC,082021.100,A,5544.553,N,03746.038,E,003.9,326.6,190822,000.0,W*77
$GPRMC,082022.100,A,5544.554,N,03746.038,E,003.9,326.6,190822,000.0,W*73
$GPRMC,082023.100,A,5544.555,N,03746.037,E,003.9,326.6,190822,000.0,W*7C
$GPRMC,082024.100,A,5544.556,N,03746.036,E,003.9,326.6,190822,000.0,W*79
$GPRMC,082025.100,A,5544.557,N,03746.036,E,003.9,326.6,190822,000.0,W*79
$GPRMC,082026.100,A,5544.558,N,03746.035,E,003.9,326.6,190822,000.0,W*76
$GPRMC,082027.100,A,5544.559,N,03746.034,E,003.9,326.6,190822,000.0,W*77
$GPRMC,082028.100,A,5544.560,N,03746.034,E,003.9,326.6,190822,000.0,W*72
$GPRMC,082029.100,A,5544.561,N,03746.033,E,003.9,326.6,190822,000.0,W*75
$GPRMC,082030.100,A,5544.562,N,03746.032,E,003.9,326.6,190822,000.0,W*7F
$GPRMC,082031.100,A,5544.563,N,03746.032,E,003.9,326.6,190822,000.0,W*7F
$GPRMC,082032.100,A,5544.564,N,03746.031,E,003.9,326.6,190822,000.0,W*78
$GPRMC,082033.100,A,5544.565,N,03746.030,E,003.9,326.6,190822,000.0,W*79
$GPRMC,082034.100,A,5544.566,N,03746.030,E,003.9,326.6,190822,000.0,W*7D
$GPRMC,082035.100,A,5544.567,N,03746.029,E,003.9,326.6,190822,000.0,W*75
$GPRMC,082036.100,A,5544.568,N,03746.028,E,003.9,326.6,190822,000.0,W*78
$GPRMC,082037.100,A,5544.569,N,03746.028,E,003.9,326.6,190822,000.0,W*78
$GPRMC,082038.100,A,5544.570,N,03746.027,E,003.9,326.6,190822,000.0,W*70
$GPRMC,082039.100,A,5544.571,N,03746.026,E,003.9,326.6,190822,000.0,W*71
$GPRMC,082040.100,A,5544.572,N,03746.026,E,003.9,326.6,190822,000.0,W*7C
$GPRMC,082041.100,A,5544.573,N,03746.025,E,003.9,326.6,190822,000.0,W*7F
$GPRMC,082042.100,A,5544.574,N,03746.024,E,003.9,326.6,190822,000.0,W*7A
$GPRMC,082043.100,A,5544.575,N,03746.024,E,003.9,326.6,190822,000.0,W*7A
$GPRMC,082044.100,A,5544.576,N,03746.023,E,003.9,326.6,190822,000.0,W*79
$GPRMC,082045.100,A,5544.577,N,03746.022,E,003.9,326.6,190822,000.0,W*78
$GPRMC,082046.100,A,5544.579,N,03746.022,E,003.9,326.6,190822,000.0,W*75
$GPRMC,082047.100,A,5544.580,N,03746.021,E,003.9,326.6,190822,000.0,W*71
$GPRMC,082048.100,A,5544.581,N,03746.020,E,003.9,326.6,190822,000.0,W*7E
$GPRMC,082049.100,A,5544.582,N,03746.020,E,003.9,326.6,190822,000.0,W*7C
$GPRMC,082050.100,A,5544.583,N,03746.019,E,003.9,326.6,190822,000.0,W*7F
$GPRMC,082051.100,A,5544.584,N,03746.018,E,003.9,326.6,190822,000.0,W*78
$GPRMC,082052.100,A,5544.585,N,03746.018,E,003.9,326.6,190822,000.0,W*7A
$GPRMC,082053.100,A,5544.586,N,03746.017,E,003.9,326.6,190822,000.0,W*77
$GPRMC,082054.100,A,5544.587,N,03746.016,E,003.9,326.6,190822,000.0,W*70
$GPRMC,082055.100,A,5544.588,N,03746.016,E,003.9,326.6,190822,000.0,W*7E
$GPRMC,082056.100,A,5544.589,N,03746.015,E,003.9,326.6,190822,000.0,W*7F
$GPRMC,082057.100,A,5544.590,N,03746.014,E,003.9,326.6,190822,000.0,W*77
$GPRMC,082058.100,A,5544.591,N,03746.014,E,003.9,326.6,190822,000.0,W*79
$GPRMC,082059.100,A,5544.592,N,03746.013,E,003.9,326.6,190822,000.0,W*7C
$GPRMC,082100.100,A,5544.593,N,03746.012,E,003.9,326.6,190822,000.0,W*71
$GPRMC,082101.100,A,5544.594,N,03746.012,E,003.9,326.6,190822,000.0,W*77
$GPRMC,082102.100,A,5544.595,N,03746.011,E,003.9,326.6,190822,000.0,W*76
$GPRMC,082103.100,A,5544.596,N,03746.010,E,003.9,326.6,190822,000.0,W*75
$GPRMC,082104.100,A,5544.597,N,03746.010,E,003.9,326.6,190822,000.0,W*73
$GPRMC,082105.100,A,5544.598,N,03746.009,E,003.9,326.6,190822,000.0,W*75
$GPRMC,082106.100,A,5544.599,N,03746.008,E,003.9,326.6,190822,000.0,W*76
$GPRMC,082107.100,A,5544.600,N,03746.008,E,003.9,326.6,190822,000.0,W*74
$GPRMC,082108.100,A,5544.601,N,03746.007,E,003.9,326.6,190822,000.0,W*75
$GPRMC,082109.100,A,5544.602,N,03746.006,E,003.9,326.6,190822,000.0,W*76
$GPRMC,082110.100,A,5544.603,N,03746.006,E,003.9,326.6,190822,000.0,W*7F
$GPRMC,082111.100,A,5544.604,N,03746.005,E,003.9,326.6,190822,000.0,W*7A
$GPRMC,082112.100,A,5544.605,N,03746.004,E,003.9,326.6,190822,000.0,W*79
$GPRMC,082113.100,A,5544.606,N,03746.004,E,003.9,326.6,190822,000.0,W*7B
$GPRMC,082114.100,A,5544.607,N,03746.003,E,003.9,326.6,190822,000.0,W*7A
$GPRMC,082115.100,A,5544.608,N,03746.002,E,003.9,326.6,190822,000.0,W*75
$GPRMC,082116.100,A,5544.609,N,03746.002,E,003.9,326.6,190822,000.0,W*77
$GPRMC,082117.100,A,5544.610,N,03746.001,E,003.9,326.6,190822,000.0,W*7D
$GPRMC,082118.100,A,5544.611,N,03746.000,E,003.9,326.6,190822,000.0,W*72
$GPRMC,082119.100,A,5544.612,N,03746.000,E,003.9,326.6,190822,000.0,W*70
$GPRMC,082120.100,A,5544.613,N,03745.999,E,003.9,326.6,190822,000.0,W*71
$GPRMC,082121.100,A,5544.614,N,03745.998,E,003.9,326.6,190822,000.0,W*76
$GPRMC,082122.100,A,5544.615,N,03745.998,E,003.9,326.6,190822,000.0,W*74
$GPRMC,082123.100,A,5544.616,N,03745.997,E,003.9,326.6,190822,000.0,W*79
$GPRMC,082124.100,A,5544.617,N,03745.996,E,003.9,326.6,190822,000.0,W*7E
$GPRMC,082125.100,A,5544.618,N,03745.996,E,003.9,326.6,190822,000.0,W*70
$GPRMC,082126.100,A,5544.619,N,03745.995,E,003.9,326.6,190822,000.0,W*71
$GPRMC,082127.100,A,5544.620,N,03745.994,E,003.9,326.6,190822,000.0,W*7B
$GPRMC,082128.100,A,5544.621,N,03745.994,E,003.9,326.6,190822,000.0,W*75
$GPRMC,082129.100,A,5544.622,N,03745.993,E,003.9,326.6,190822,000.0,W*70
$GPRMC,082130.100,A,5544.623,N,03745.992,E,003.9,326.6,190822,000.0,W*78
$GPRMC,082131.100,A,5544.624,N,03745.992,E,003.9,326.6,190822,000.0,W*7E
$GPRMC,082132.100,A,5544.625,N,03745.991,E,003.9,326.6,190822,000.0,W*7F
$GPRMC,082133.100,A,5544.626,N,03745.990,E,003.9,326.6,190822,000.0,W*7C
$GPRMC,082134.100,A,5544.627,N,03745.990,E,003.9,326.6,190822,000.0,W*7A
$GPRMC,082135.100,A,5544.628,N,03745.989,E,003.9,326.6,190822,000.0,W*7C
$GPRMC,082136.100,A,5544.629,N,03745.988,E,003.9,326.6,190822,000.0,W*7F
$GPRMC,082137.100,A,5544.630,N,03745.988,E,003.9,326.6,190822,000.0,W*76
$GPRMC,082138.100,A,5544.631,N,03745.987,E,003.9,326.6,190822,000.0,W*77
$GPRMC,082139.100,A,5544.632,N,03745.986,E,003.9,326.6,190822,000.0,W*74
$GPRMC,082140.100,A,5544.633,N,03745.986,E,003.9,326.6,190822,000.0,W*7B
$GPRMC,082141.100,A,5544.634,N,03745.985,E,003.9,326.6,190822,000.0,W*7E
$GPRMC,082142.100,A,5544.635,N,03745.984,E,003.9,326.6,190822,000.0,W*7D
$GPRMC,082143.100,A,5544.636,N,03745.984,E,003.9,326.6,190822,000.0,W*7F
$GPRMC,082144.100,A,5544.637,N,03745.983,E,003.9,326.6,190822,000.0,W*7E
$GPRMC,082145.100,A,5544.638,N,03745.982,E,003.9,326.6,190822,000.0,W*71
$GPRMC,082146.100,A,5544.639,N,03745.982,E,003.9,326.6,190822,000.0,W*73
$GPRMC,082147.100,A,5544.640,N,03745.981,E,003.9,326.6,190822,000.0,W*7F
$GPRMC,082148.100,A,5544.641,N,03745.980,E,003.9,326.6,190822,000.0,W*70
$GPRMC,082149.100,A,5544.642,N,03745.980,E,003.9,326.6,190822,000.0,W*72
$GPRMC,082150.100,A,5544.643,N,03745.979,E,003.9,326.6,190822,000.0,W*7D
$GPRMC,082151.100,A,5544.644,N,03745.978,E,003.9,326.6,190822,000.0,W*7A
$GPRMC,082152.100,A,5544.645,N,03745.978,E,003.9,326.6,190822,000.0,W*78
$GPRMC,082153.100,A,5544.646,N,03745.977,E,003.9,326.6,190822,000.0,W*75
$GPRMC,082154.100,A,5544.647,N,03745.976,E,003.9,326.6,190822,000.0,W*72
$GPRMC,082155.100,A,5544.648,N,03745.976,E,003.9,326.6,190822,000.0,W*7C
$GPRMC,082156.100,A,5544.649,N,03745.975,E,003.9,326.6,190822,000.0,W*7D
$GPRMC,082157.100,A,5544.650,N,03745.974,E,003.9,326.6,190822,000.0,W*75
$GPRMC,082158.100,A,5544.651,N,03745.974,E,003.9,326.6,190822,000.0,W*7B
$GPRMC,082159.100,A,5544.652,N,03745.973,E,003.9,326.6,190822,000.0,W*7E
$GPRMC,082200.100,A,5544.653,N,03745.972,E,003.9,326.6,190822,000.0,W*71
$GPRMC,082201.100,A,5544.654,N,03745.972,E,003.9,326.6,190822,000.0,W*77
$GPRMC,082202.100,A,5544.655,N,03745.971,E,003.9,326.6,190822,000.0,W*76
$GPRMC,082203.100,A,5544.656,N,03745.970,E,003.9,326.6,190822,000.0,W*75
$GPRMC,082204.100,A,5544.657,N,03745.970,E,003.9,326.6,190822,000.0,W*73
$GPRMC,082205.100,A,5544.658,N,03745.969,E,003.9,326.6,190822,000.0,W*75
$GPRMC,082206.100,A,5544.659,N,03745.968,E,003.9,326.6,190822,000.0,W*76
$GPRMC,082207.100,A,5544.660,N,03745.967,E,003.9,326.6,190822,000.0,W*72
$GPRMC,082208.100,A,5544.661,N,03745.967,E,003.9,326.6,190822,000.0,W*7C
$GPRMC,082209.100,A,5544.662,N,03745.966,E,003.9,326.6,190822,000.0,W*7F
$GPRMC,082210.100,A,5544.663,N,03745.965,E,003.9,326.6,190822,000.0,W*75
$GPRMC,082211.100,A,5544.664,N,03745.965,E,003.9,326.6,190822,000.0,W*73
$GPRMC,082212.100,A,5544.665,N,03745.964,E,003.9,326.6,190822,000.0,W*70
$GPRMC,082213.100,A,5544.666,N,03745.963,E,003.9,326.6,190822,000.0,W*75
$GPRMC,082214.100,A,5544.667,N,03745.963,E,003.9,326.6,190822,000.0,W*73
$GPRMC,082215.100,A,5544.669,N,03745.962,E,003.9,326.6,190822,000.0,W*7D
$GPRMC,082216.100,A,5544.670,N,03745.961,E,003.9,326.6,190822,000.0,W*75
$GPRMC,082217.100,A,5544.671,N,03745.961,E,003.9,326.6,190822,000.0,W*75
$GPRMC,082218.100,A,5544.672,N,03745.960,E,003.9,326.6,190822,000.0,W*78
$GPRMC,082219.100,A,5544.673,N,03745.959,E,003.9,326.6,190822,000.0,W*72
$GPRMC,082220.100,A,5544.674,N,03745.959,E,003.9,326.6,190822,000.0,W*7F
$GPRMC,082221.100,A,5544.675,N,03745.958,E,003.9,326.6,190822,000.0,W*7E
$GPRMC,082222.100,A,5544.676,N,03745.957,E,003.9,326.6,190822,000.0,W*71
$GPRMC,082223.100,A,5544.677,N,03745.957,E,003.9,326.6,190822,000.0,W*71
$GPRMC,082224.100,A,5544.678,N,03745.956,E,003.9,326.6,190822,000.0,W*78
$GPRMC,082225.100,A,5544.679,N,03745.955,E,003.9,326.6,190822,000.0,W*7B
$GPRMC,082226.100,A,5544.680,N,03745.955,E,003.9,326.6,190822,000.0,W*7E
$GPRMC,082227.100,A,5544.681,N,03745.954,E,003.9,326.6,190822,000.0,W*7F
$GPRMC,082228.100,A,5544.682,N,03745.953,E,003.9,326.6,190822,000.0,W*74
$GPRMC,082229.100,A,5544.683,N,03745.953,E,003.9,326.6,190822,000.0,W*74
$GPRMC,082230.100,A,5544.684,N,03745.952,E,003.9,326.6,190822,000.0,W*7A
$GPRMC,082231.100,A,5544.685,N,03745.951,E,003.9,326.6,190822,000.0,W*79
$GPRMC,082232.100,A,5544.686,N,03745.951,E,003.9,326.6,190822,000.0,W*79
$GPRMC,082233.100,A,5544.687,N,03745.950,E,003.9,326.6,190822,000.0,W*78
$GPRMC,082234.100,A,5544.688,N,03745.949,E,003.9,326.6,190822,000.0,W*78
$GPRMC,082235.100,A,5544.689,N,03745.949,E,003.9,326.6,190822,000.0,W*78
$GPRMC,082236.100,A,5544.690,N,03745.948,E,003.9,326.6,190822,000.0,W*72
$GPRMC,082237.100,A,5544.691,N,03745.947,E,003.9,326.6,190822,000.0,W*7D
$GPRMC,082238.100,A,5544.692,N,03745.947,E,003.9,326.6,190822,000.0,W*71
$GPRMC,082239.100,A,5544.693,N,03745.946,E,003.9,326.6,190822,000.0,W*70
$GPRMC,082240.100,A,5544.694,N,03745.945,E,003.9,326.6,190822,000.0,W*7A
$GPRMC,082241.100,A,5544.695,N,03745.945,E,003.9,326.6,190822,000.0,W*7A
$GPRMC,082242.100,A,5544.696,N,03745.944,E,003.9,326.6,190822,000.0,W*7B
$GPRMC,082243.100,A,5544.697,N,03745.943,E,003.9,326.6,190822,000.0,W*7C
$GPRMC,082244.100,A,5544.698,N,03745.943,E,003.9,326.6,190822,000.0,W*74
$GPRMC,082245.100,A,5544.699,N,03745.942,E,003.9,326.6,190822,000.0,W*75
$GPRMC,082246.100,A,5544.700,N,03745.941,E,003.9,326.6,190822,000.0,W*74
$GPRMC,082247.100,A,5544.701,N,03745.941,E,003.9,326.6,190822,000.0,W*74
$GPRMC,082248.100,A,5544.702,N,03745.940,E,003.9,326.6,190822,000.0,W*79
$GPRMC,082249.100,A,5544.703,N,03745.939,E,003.9,326.6,190822,000.0,W*77
$GPRMC,082250.100,A,5544.704,N,03745.939,E,003.9,326.6,190822,000.0,W*78
$GPRMC,082251.100,A,5544.705,N,03745.938,E,003.9,326.6,190822,000.0,W*79
$GPRMC,082252.100,A,5544.706,N,03745.937,E,003.9,326.6,190822,000.0,W*76
$GPRMC,082253.100,A,5544.707,N,03745.937,E,003.9,326.6,190822,000.0,W*76
$GPRMC,082254.100,A,5544.708,N,03745.936,E,003.9,326.6,190822,000.0,W*7F
$GPRMC,082255.100,A,5544.709,N,03745.935,E,003.9,326.6,190822,000.0,W*7C
$GPRMC,082256.100,A,5544.710,N,03745.935,E,003.9,326.6,190822,000.0,W*77
$GPRMC,082257.100,A,5544.711,N,03745.934,E,003.9,326.6,190822,000.0,W*76
$GPRMC,082258.100,A,5544.712,N,03745.933,E,003.9,326.6,190822,000.0,W*7D
$GPRMC,082259.100,A,5544.713,N,03745.933,E,003.9,326.6,190822,000.0,W*7D
$GPRMC,082300.100,A,5544.714,N,03745.932,E,003.9,326.6,190822,000.0,W*76
$GPRMC,082301.100,A,5544.715,N,03745.931,E,003.9,326.6,190822,000.0,W*75
$GPRMC,082302.100,A,5544.716,N,03745.931,E,003.9,326.6,190822,000.0,W*75
$GPRMC,082303.100,A,5544.717,N,03745.930,E,003.9,326.6,190822,000.0,W*74
$GPRMC,082304.100,A,5544.718,N,03745.929,E,003.9,326.6,190822,000.0,W*74
$GPRMC,082305.100,A,5544.719,N,03745.929,E,003.9,326.6,190822,000.0,W*74
$GPRMC,082306.100,A,5544.720,N,03745.928,E,003.9,326.6,190822,000.0,W*7C
$GPRMC,082307.100,A,5544.721,N,03745.927,E,003.9,326.6,190822,000.0,W*73
$GPRMC,082308.100,A,5544.722,N,03745.927,E,003.9,326.6,190822,000.0,W*7F
$GPRMC,082309.100,A,5544.723,N,03745.926,E,003.9,326.6,190822,000.0,W*7E
$GPRMC,082310.100,A,5544.724,N,03745.925,E,003.9,326.6,190822,000.0,W*72
$GPRMC,082311.100,A,5544.725,N,03745.925,E,003.9,326.6,190822,000.0,W*72
$GPRMC,082312.100,A,5544.726,N,03745.924,E,003.9,326.6,190822,000.0,W*73
$GPRMC,082313.100,A,5544.727,N,03745.923,E,003.9,326.6,190822,000.0,W*74
$GPRMC,082314.100,A,5544.728,N,03745.923,E,003.9,326.6,190822,000.0,W*7C
$GPRMC,082315.100,A,5544.729,N,03745.922,E,003.9,326.6,190822,000.0,W*7D
$GPRMC,082316.100,A,5544.730,N,03745.921,E,003.9,326.6,190822,000.0,W*75
$GPRMC,082317.100,A,5544.731,N,03745.921,E,003.9,326.6,190822,000.0,W*75
$GPRMC,082318.100,A,5544.732,N,03745.920,E,003.9,326.6,190822,000.0,W*78
$GPRMC,082319.100,A,5544.733,N,03745.919,E,003.9,326.6,190822,000.0,W*72
$GPRMC,082320.100,A,5544.734,N,03745.919,E,003.9,326.6,190822,000.0,W*7F
$GPRMC,082321.100,A,5544.735,N,03745.918,E,003.9,326.6,190822,000.0,W*7E
$GPRMC,082322.100,A,5544.736,N,03745.917,E,003.9,326.6,190822,000.0,W*71
$GPRMC,082323.100,A,5544.737,N,03745.917,E,003.9,326.6,190822,000.0,W*71
$GPRMC,082324.100,A,5544.738,N,03745.916,E,003.9,326.6,190822,000.0,W*78
$GPRMC,082325.100,A,5544.739,N,03745.915,E,003.9,326.6,190822,000.0,W*7B
$GPRMC,082326.100,A,5544.740,N,03745.915,E,003.9,326.6,190822,000.0,W*76
$GPRMC,082327.100,A,5544.741,N,03745.914,E,003.9,326.6,190822,000.0,W*77
$GPRMC,082328.100,A,5544.742,N,03745.913,E,003.9,326.6,190822,000.0,W*7C
$GPRMC,082329.100,A,5544.743,N,03745.913,E,003.9,326.6,190822,000.0,W*7C
$GPRMC,082330.100,A,5544.744,N,03745.912,E,003.9,326.6,190822,000.0,W*72
$GPRMC,082331.100,A,5544.745,N,03745.911,E,003.9,326.6,190822,000.0,W*71
$GPRMC,082332.100,A,5544.746,N,03745.911,E,003.9,326.6,190822,000.0,W*71
$GPRMC,082333.100,A,5544.747,N,03745.910,E,003.9,326.6,190822,000.0,W*70
$GPRMC,082334.100,A,5544.748,N,03745.909,E,003.9,326.6,190822,000.0,W*70
$GPRMC,082335.100,A,5544.749,N,03745.909,E,003.9,326.6,190822,000.0,W*70
$GPRMC,082336.100,A,5544.750,N,03745.908,E,003.9,326.6,190822,000.0,W*7A
$GPRMC,082337.100,A,5544.751,N,03745.907,E,003.9,326.6,190822,000.0,W*75
$GPRMC,082338.100,A,5544.752,N,03745.907,E,003.9,326.6,190822,000.0,W*79
$GPRMC,082339.100,A,5544.753,N,03745.906,E,003.9,326.6,190822,000.0,W*78
$GPRMC,082340.100,A,5544.754,N,03745.905,E,003.9,326.6,190822,000.0,W*72
$GPRMC,082341.100,A,5544.755,N,03745.905,E,003.9,326.6,190822,000.0,W*72
$GPRMC,082342.100,A,5544.756,N,03745.904,E,003.9,326.6,190822,000.0,W*73
$GPRMC,082343.100,A,5544.757,N,03745.903,E,003.9,326.6,190822,000.0,W*74
$GPRMC,082344.100,A,5544.758,N,03745.903,E,003.9,326.6,190822,000.0,W*7C
$GPRMC,082345.100,A,5544.760,N,03745.902,E,003.9,326.6,190822,000.0,W*77
$GPRMC,082346.100,A,5544.761,N,03745.901,E,003.9,326.6,190822,000.0,W*76
$GPRMC,082347.100,A,5544.762,N,03745.901,E,003.9,326.6,190822,000.0,W*74
$GPRMC,082348.100,A,5544.763,N,03745.900,E,003.9,326.6,190822,000.0,W*7B
$GPRMC,082349.100,A,5544.764,N,03745.899,E,003.9,326.6,190822,000.0,W*7C
$GPRMC,082350.100,A,5544.765,N,03745.899,E,003.9,326.6,190822,000.0,W*75
$GPRMC,082351.100,A,5544.766,N,03745.898,E,003.9,326.6,190822,000.0,W*76
$GPRMC,082352.100,A,5544.767,N,03745.897,E,003.9,326.6,190822,000.0,W*7B
$GPRMC,082353.100,A,5544.768,N,03745.897,E,003.9,326.6,190822,000.0,W*75
$GPRMC,082354.100,A,5544.769,N,03745.896,E,003.9,326.6,190822,000.0,W*72
$GPRMC,082355.100,A,5544.770,N,03745.895,E,003.9,326.6,190822,000.0,W*78
$GPRMC,082356.100,A,5544.771,N,03745.894,E,003.9,326.6,190822,000.0,W*7B
$GPRMC,082357.100,A,5544.772,N,03745.894,E,003.9,326.6,190822,000.0,W*79
$GPRMC,082358.100,A,5544.773,N,03745.893,E,003.9,326.6,190822,000.0,W*70
$GPRMC,082359.100,A,5544.774,N,03745.892,E,003.9,326.6,190822,000.0,W*77
$GPRMC,082400.100,A,5544.775,N,03745.892,E,003.9,326.6,190822,000.0,W*7D
$GPRMC,082401.100,A,5544.776,N,03745.891,E,003.9,326.6,190822,000.0,W*7C
$GPRMC,082402.100,A,5544.777,N,03745.890,E,003.9,326.6,190822,000.0,W*7F
$GPRMC,082403.100,A,5544.778,N,03745.890,E,003.9,326.6,190822,000.0,W*71
$GPRMC,082404.100,A,5544.779,N,03745.889,E,003.9,326.6,190822,000.0,W*7F
$GPRMC,082405.100,A,5544.780,N,03745.888,E,003.9,326.6,190822,000.0,W*79
$GPRMC,082406.100,A,5544.781,N,03745.888,E,003.9,326.6,190822,000.0,W*7B
$GPRMC,082407.100,A,5544.782,N,03745.887,E,003.9,326.6,190822,000.0,W*76
$GPRMC,082408.100,A,5544.783,N,03745.886,E,003.9,326.6,190822,000.0,W*79
$GPRMC,082409.100,A,5544.784,N,03745.886,E,003.9,326.6,190822,000.0,W*7F
$GPRMC,082410.100,A,5544.785,N,03745.885,E,003.9,326.6,190822,000.0,W*75
$GPRMC,082411.100,A,5544.786,N,03745.884,E,003.9,326.6,190822,000.0,W*76
$GPRMC,082412.100,A,5544.787,N,03745.884,E,003.9,326.6,190822,000.0,W*74
$GPRMC,082413.100,A,5544.788,N,03745.883,E,003.9,326.6,190822,000.0,W*7D
$GPRMC,082414.100,A,5544.789,N,03745.882,E,003.9,326.6,190822,000.0,W*7A
$GPRMC,082415.100,A,5544.790,N,03745.882,E,003.9,326.6,190822,000.0,W*73
$GPRMC,082416.100,A,5544.791,N,03745.881,E,003.9,326.6,190822,000.0,W*72
$GPRMC,082417.100,A,5544.792,N,03745.880,E,003.9,326.6,190822,000.0,W*71
$GPRMC,082418.100,A,5544.793,N,03745.880,E,003.9,326.6,190822,000.0,W*7F
$GPRMC,082419.100,A,5544.794,N,03745.879,E,003.9,326.6,190822,000.0,W*7F
$GPRMC,082420.100,A,5544.795,N,03745.878,E,003.9,326.6,190822,000.0,W*75
$GPRMC,082421.100,A,5544.796,N,03745.878,E,003.9,326.6,190822,000.0,W*77
$GPRMC,082422.100,A,5544.797,N,03745.877,E,003.9,326.6,190822,000.0,W*7A
$GPRMC,082423.100,A,5544.798,N,03745.876,E,003.9,326.6,190822,000.0,W*75
$GPRMC,082424.100,A,5544.799,N,03745.876,E,003.9,326.6,190822,000.0,W*73
$GPRMC,082425.100,A,5544.800,N,03745.875,E,003.9,326.6,190822,000.0,W*7E
$GPRMC,082426.100,A,5544.801,N,03745.874,E,003.9,326.6,190822,000.0,W*7D
$GPRMC,082427.100,A,5544.802,N,03745.874,E,003.9,326.6,190822,000.0,W*7F
$GPRMC,082428.100,A,5544.803,N,03745.873,E,003.9,326.6,190822,000.0,W*76
$GPRMC,082429.100,A,5544.804,N,03745.872,E,003.9,326.6,190822,000.0,W*71
$GPRMC,082430.100,A,5544.805,N,03745.872,E,003.9,326.6,190822,000.0,W*78
$GPRMC,082431.100,A,5544.806,N,03745.871,E,003.9,326.6,190822,000.0,W*79
$GPRMC,082432.100,A,5544.807,N,03745.870,E,003.9,326.6,190822,000.0,W*7A
$GPRMC,082433.100,A,5544.808,N,03745.870,E,003.9,326.6,190822,000.0,W*74
$GPRMC,082434.100,A,5544.809,N,03745.869,E,003.9,326.6,190822,000.0,W*7A
$GPRMC,082435.100,A,5544.810,N,03745.868,E,003.9,326.6,190822,000.0,W*72
$GPRMC,082436.100,A,5544.811,N,03745.868,E,003.9,326.6,190822,000.0,W*70
$GPRMC,082437.100,A,5544.812,N,03745.867,E,003.9,326.6,190822,000.0,W*7D
$GPRMC,082438.100,A,5544.813,N,03745.866,E,003.9,326.6,190822,000.0,W*72
$GPRMC,082439.100,A,5544.814,N,03745.866,E,003.9,326.6,190822,000.0,W*74
$GPRMC,082440.100,A,5544.815,N,03745.865,E,003.9,326.6,190822,000.0,W*78
$GPRMC,082441.100,A,5544.816,N,03745.864,E,003.9,326.6,190822,000.0,W*7B
$GPRMC,082442.100,A,5544.817,N,03745.864,E,003.9,326.6,190822,000.0,W*79
$GPRMC,082443.100,A,5544.818,N,03745.863,E,003.9,326.6,190822,000.0,W*70
$GPRMC,082444.100,A,5544.819,N,03745.862,E,003.9,326.6,190822,000.0,W*77
$GPRMC,082445.100,A,5544.820,N,03745.862,E,003.9,326.6,190822,000.0,W*7C
$GPRMC,082446.100,A,5544.821,N,03745.861,E,003.9,326.6,190822,000.0,W*7D
$GPRMC,082447.100,A,5544.822,N,03745.860,E,003.9,079.6,190822,000.0,W*77
$GPRMC,082448.100,A,5544.823,N,03745.862,E,003.9,079.6,190822,000.0,W*7B
$GPRMC,082449.100,A,5544.823,N,03745.864,E,003.9,079.6,190822,000.0,W*7C
$GPRMC,082450.100,A,5544.823,N,03745.866,E,003.9,079.6,190822,000.0,W*76
$GPRMC,082451.100,A,5544.824,N,03745.868,E,003.9,079.6,190822,000.0,W*7E
$GPRMC,082452.100,A,5544.824,N,03745.869,E,003.9,079.6,190822,000.0,W*7C
$GPRMC,082453.100,A,5544.824,N,03745.871,E,003.9,079.6,190822,000.0,W*74
$GPRMC,082454.100,A,5544.825,N,03745.873,E,003.9,079.6,190822,000.0,W*70
$GPRMC,082455.100,A,5544.825,N,03745.875,E,003.9,079.6,190822,000.0,W*77
$GPRMC,082456.100,A,5544.825,N,03745.877,E,003.9,079.6,190822,000.0,W*76
$GPRMC,082457.100,A,5544.826,N,03745.879,E,003.9,079.6,190822,000.0,W*7A
$GPRMC,082458.100,A,5544.826,N,03745.880,E,003.9,079.6,190822,000.0,W*73
$GPRMC,082459.100,A,5544.826,N,03745.882,E,003.9,079.6,190822,000.0,W*70
$GPRMC,082500.100,A,5544.827,N,03745.884,E,003.9,079.6,190822,000.0,W*7A
$GPRMC,082501.100,A,5544.827,N,03745.886,E,003.9,079.6,190822,000.0,W*79
$GPRMC,082502.100,A,5544.827,N,03745.888,E,003.9,079.6,190822,000.0,W*74
$GPRMC,082503.100,A,5544.828,N,03745.890,E,003.9,079.6,190822,000.0,W*73
$GPRMC,082504.100,A,5544.828,N,03745.891,E,003.9,079.6,190822,000.0,W*75
$GPRMC,082505.100,A,5544.828,N,03745.893,E,003.9,079.6,190822,000.0,W*76
$GPRMC,082506.100,A,5544.829,N,03745.895,E,003.9,079.6,190822,000.0,W*72
$GPRMC,082507.100,A,5544.829,N,03745.897,E,003.9,079.6,190822,000.0,W*71
$GPRMC,082508.100,A,5544.829,N,03745.899,E,003.9,079.6,190822,000.0,W*70
$GPRMC,082509.100,A,5544.830,N,03745.900,E,003.9,079.6,190822,000.0,W*78
$GPRMC,082510.100,A,5544.830,N,03745.902,E,003.9,079.6,190822,000.0,W*72
$GPRMC,082511.100,A,5544.830,N,03745.904,E,003.9,079.6,190822,000.0,W*75
$GPRMC,082512.100,A,5544.831,N,03745.906,E,003.9,079.6,190822,000.0,W*75
$GPRMC,082513.100,A,5544.831,N,03745.908,E,003.9,079.6,190822,000.0,W*7A
$GPRMC,082514.100,A,5544.831,N,03745.910,E,003.9,079.6,190822,000.0,W*74
$GPRMC,082515.100,A,5544.832,N,03745.911,E,003.9,079.6,190822,000.0,W*77
$GPRMC,082516.100,A,5544.832,N,03745.913,E,003.9,079.6,190822,000.0,W*76
$GPRMC,082517.100,A,5544.832,N,03745.915,E,003.9,079.6,190822,000.0,W*71
$GPRMC,082518.100,A,5544.833,N,03745.917,E,003.9,079.6,190822,000.0,W*7D
$GPRMC,082519.100,A,5544.833,N,03745.919,E,003.9,079.6,190822,000.0,W*72
$GPRMC,082520.100,A,5544.833,N,03745.921,E,003.9,079.6,190822,000.0,W*73
$GPRMC,082521.100,A,5544.834,N,03745.922,E,003.9,079.6,190822,000.0,W*76
$GPRMC,082522.100,A,5544.834,N,03745.924,E,003.9,079.6,190822,000.0,W*73
$GPRMC,082523.100,A,5544.834,N,03745.926,E,003.9,079.6,190822,000.0,W*70
$GPRMC,082524.100,A,5544.835,N,03745.928,E,003.9,079.6,190822,000.0,W*78
$GPRMC,082525.100,A,5544.835,N,03745.930,E,003.9,079.6,190822,000.0,W*70
$GPRMC,082526.100,A,5544.835,N,03745.931,E,003.9,079.6,190822,000.0,W*72
$GPRMC,082527.100,A,5544.836,N,03745.933,E,003.9,079.6,190822,000.0,W*72
$GPRMC,082528.100,A,5544.836,N,03745.935,E,003.9,079.6,190822,000.0,W*7B
$GPRMC,082529.100,A,5544.836,N,03745.937,E,003.9,079.6,190822,000.0,W*78
$GPRMC,082530.100,A,5544.837,N,03745.939,E,003.9,079.6,190822,000.0,W*7F
$GPRMC,082531.100,A,5544.837,N,03745.941,E,003.9,079.6,190822,000.0,W*71
$GPRMC,082532.100,A,5544.837,N,03745.942,E,003.9,079.6,190822,000.0,W*71
$GPRMC,082533.100,A,5544.838,N,03745.944,E,003.9,079.6,190822,000.0,W*79
$GPRMC,082534.100,A,5544.838,N,03745.946,E,003.9,079.6,190822,000.0,W*7C
$GPRMC,082535.100,A,5544.838,N,03745.948,E,003.9,079.6,190822,000.0,W*73
$GPRMC,082536.100,A,5544.839,N,03745.950,E,003.9,079.6,190822,000.0,W*78
$GPRMC,082537.100,A,5544.839,N,03745.952,E,003.9,079.6,190822,000.0,W*7B
$GPRMC,082538.100,A,5544.839,N,03745.953,E,003.9,079.6,190822,000.0,W*75
$GPRMC,082539.100,A,5544.840,N,03745.955,E,003.9,079.6,190822,000.0,W*7C
$GPRMC,082540.100,A,5544.840,N,03745.957,E,003.9,079.6,190822,000.0,W*70
$GPRMC,082541.100,A,5544.840,N,03745.959,E,003.9,079.6,190822,000.0,W*7F
$GPRMC,082542.100,A,5544.841,N,03745.961,E,003.9,079.6,190822,000.0,W*76
$GPRMC,082543.100,A,5544.841,N,03745.962,E,003.9,079.6,190822,000.0,W*74
$GPRMC,082544.100,A,5544.841,N,03745.964,E,003.9,079.6,190822,000.0,W*75
$GPRMC,082545.100,A,5544.842,N,03745.966,E,003.9,079.6,190822,000.0,W*75
$GPRMC,082546.100,A,5544.842,N,03745.968,E,003.9,079.6,190822,000.0,W*78
$GPRMC,082547.100,A,5544.842,N,03745.970,E,003.9,079.6,190822,000.0,W*70
$GPRMC,082548.100,A,5544.843,N,03745.972,E,003.9,079.6,190822,000.0,W*7C
$GPRMC,082549.100,A,5544.843,N,03745.973,E,003.9,079.6,190822,000.0,W*7C
$GPRMC,082550.100,A,5544.843,N,03745.975,E,003.9,079.6,190822,000.0,W*72
$GPRMC,082551.100,A,5544.844,N,03745.977,E,003.9,079.6,190822,000.0,W*76
$GPRMC,082552.100,A,5544.844,N,03745.979,E,003.9,079.6,190822,000.0,W*7B
$GPRMC,082553.100,A,5544.844,N,03745.981,E,003.9,079.6,190822,000.0,W*7D
$GPRMC,082554.100,A,5544.845,N,03745.983,E,003.9,079.6,190822,000.0,W*79
$GPRMC,082555.100,A,5544.845,N,03745.984,E,003.9,079.6,190822,000.0,W*7F
$GPRMC,082556.100,A,5544.845,N,03745.986,E,003.9,079.6,190822,000.0,W*7E
$GPRMC,082557.100,A,5544.846,N,03745.988,E,003.9,079.6,190822,000.0,W*72
$GPRMC,082558.100,A,5544.846,N,03745.990,E,003.9,079.6,190822,000.0,W*74
$GPRMC,082559.100,A,5544.846,N,03745.992,E,003.9,079.6,190822,000.0,W*77
$GPRMC,082600.100,A,5544.847,N,03745.993,E,003.9,079.6,190822,000.0,W*78
$GPRMC,082601.100,A,5544.847,N,03745.995,E,003.9,079.6,190822,000.0,W*7F
$GPRMC,082602.100,A,5544.847,N,03745.997,E,003.9,079.6,190822,000.0,W*7E
$GPRMC,082603.100,A,5544.848,N,03745.999,E,003.9,079.6,190822,000.0,W*7E
$GPRMC,082604.100,A,5544.848,N,03746.001,E,003.9,079.6,190822,000.0,W*72
$GPRMC,082605.100,A,5544.848,N,03746.003,E,003.9,079.6,190822,000.0,W*71
$GPRMC,082606.100,A,5544.849,N,03746.004,E,003.9,079.6,190822,000.0,W*74
$GPRMC,082607.100,A,5544.849,N,03746.006,E,003.9,079.6,190822,000.0,W*77
$GPRMC,082608.100,A,5544.849,N,03746.008,E,003.9,079.6,190822,000.0,W*76
$GPRMC,082609.100,A,5544.849,N,03746.010,E,003.9,079.6,190822,000.0,W*7E
$GPRMC,082610.100,A,5544.850,N,03746.012,E,003.9,079.6,190822,000.0,W*7C
$GPRMC,082611.100,A,5544.850,N,03746.014,E,003.9,079.6,190822,000.0,W*7B
$GPRMC,082612.100,A,5544.850,N,03746.015,E,003.9,079.6,190822,000.0,W*79
$GPRMC,082613.100,A,5544.851,N,03746.017,E,003.9,079.6,190822,000.0,W*7B
$GPRMC,082614.100,A,5544.851,N,03746.019,E,003.9,079.6,190822,000.0,W*72
$GPRMC,082615.100,A,5544.851,N,03746.021,E,003.9,079.6,190822,000.0,W*78
$GPRMC,082616.100,A,5544.852,N,03746.023,E,003.9,079.6,190822,000.0,W*7A
$GPRMC,082617.100,A,5544.852,N,03746.024,E,003.9,079.6,190822,000.0,W*7C
$GPRMC,082618.100,A,5544.852,N,03746.026,E,003.9,079.6,190822,000.0,W*71
$GPRMC,082619.100,A,5544.853,N,03746.028,E,003.9,079.6,190822,000.0,W*7F
$GPRMC,082620.100,A,5544.853,N,03746.030,E,003.9,079.6,190822,000.0,W*7C
$GPRMC,082621.100,A,5544.853,N,03746.032,E,003.9,079.6,190822,000.0,W*7F
$GPRMC,082622.100,A,5544.854,N,03746.034,E,003.9,079.6,190822,000.0,W*7D
$GPRMC,082623.100,A,5544.854,N,03746.035,E,003.9,079.6,190822,000.0,W*7D
$GPRMC,082624.100,A,5544.854,N,03746.037,E,003.9,079.6,190822,000.0,W*78
$GPRMC,082625.100,A,5544.855,N,03746.039,E,003.9,079.6,190822,000.0,W*76
$GPRMC,082626.100,A,5544.855,N,03746.041,E,003.9,079.6,190822,000.0,W*7A
$GPRMC,082627.100,A,5544.855,N,03746.043,E,003.9,079.6,190822,000.0,W*79
$GPRMC,082628.100,A,5544.856,N,03746.045,E,003.9,079.6,190822,000.0,W*73
$GPRMC,082629.100,A,5544.856,N,03746.046,E,003.9,079.5,190822,000.0,W*72
$GPRMC,082630.100,A,5544.856,N,03746.048,E,003.9,079.5,190822,000.0,W*74
$GPRMC,082631.100,A,5544.857,N,03746.050,E,003.9,079.5,190822,000.0,W*7D
$GPRMC,082632.100,A,5544.857,N,03746.052,E,003.9,079.5,190822,000.0,W*7C
$GPRMC,082633.100,A,5544.858,N,03746.054,E,003.9,079.5,190822,000.0,W*74
$GPRMC,082634.100,A,5544.858,N,03746.055,E,003.9,079.5,190822,000.0,W*72
$GPRMC,082635.100,A,5544.858,N,03746.057,E,003.9,079.5,190822,000.0,W*71
$GPRMC,082636.100,A,5544.859,N,03746.059,E,003.9,079.5,190822,000.0,W*7D
$GPRMC,082637.100,A,5544.859,N,03746.061,E,003.9,079.5,190822,000.0,W*77
$GPRMC,082638.100,A,5544.859,N,03746.063,E,003.9,079.5,190822,000.0,W*7A
$GPRMC,082639.100,A,5544.860,N,03746.065,E,003.9,079.5,190822,000.0,W*77
$GPRMC,082640.100,A,5544.860,N,03746.066,E,003.9,079.5,190822,000.0,W*7A
$GPRMC,082641.100,A,5544.860,N,03746.068,E,003.9,079.5,190822,000.0,W*75
$GPRMC,082642.100,A,5544.861,N,03746.070,E,003.9,079.5,190822,000.0,W*7E
$GPRMC,082643.100,A,5544.861,N,03746.072,E,003.9,079.5,190822,000.0,W*7D
$GPRMC,082644.100,A,5544.861,N,03746.074,E,003.9,079.5,190822,000.0,W*7C
$GPRMC,082645.100,A,5544.862,N,03746.076,E,003.9,079.5,190822,000.0,W*7C
$GPRMC,082646.100,A,5544.862,N,03746.077,E,003.9,079.5,190822,000.0,W*7E
$GPRMC,082647.100,A,5544.862,N,03746.079,E,003.9,079.5,190822,000.0,W*71
$GPRMC,082648.100,A,5544.863,N,03746.081,E,003.9,079.5,190822,000.0,W*78
$GPRMC,082649.100,A,5544.863,N,03746.083,E,003.9,079.5,190822,000.0,W*7B
$GPRMC,082650.100,A,5544.863,N,03746.085,E,003.9,079.5,190822,000.0,W*75
$GPRMC,082651.100,A,5544.864,N,03746.086,E,003.9,079.5,190822,000.0,W*70
$GPRMC,082652.100,A,5544.864,N,03746.088,E,003.9,079.5,190822,000.0,W*7D
$GPRMC,082653.100,A,5544.864,N,03746.090,E,003.9,079.5,190822,000.0,W*75
$GPRMC,082654.100,A,5544.865,N,03746.092,E,003.9,079.5,190822,000.0,W*71
$GPRMC,082655.100,A,5544.865,N,03746.094,E,003.9,079.5,190822,000.0,W*76
$GPRMC,082656.100,A,5544.865,N,03746.096,E,003.9,079.5,190822,000.0,W*77
$GPRMC,082657.100,A,5544.866,N,03746.097,E,003.9,079.5,190822,000.0,W*74
$GPRMC,082658.100,A,5544.866,N,03746.099,E,003.9,079.5,190822,000.0,W*75
$GPRMC,082659.100,A,5544.866,N,03746.101,E,003.9,079.5,190822,000.0,W*74
$GPRMC,082700.100,A,5544.867,N,03746.103,E,003.9,079.5,190822,000.0,W*7A
$GPRMC,082701.100,A,5544.867,N,03746.105,E,003.9,079.5,190822,000.0,W*7D
$GPRMC,082702.100,A,5544.867,N,03746.106,E,003.9,079.5,190822,000.0,W*7D
$GPRMC,082703.100,A,5544.868,N,03746.108,E,003.9,079.5,190822,000.0,W*7D
$GPRMC,082704.100,A,5544.868,N,03746.110,E,003.9,079.5,190822,000.0,W*73
$GPRMC,082705.100,A,5544.868,N,03746.112,E,003.9,079.5,190822,000.0,W*70
$GPRMC,082706.100,A,5544.869,N,03746.114,E,003.9,079.5,190822,000.0,W*74
$GPRMC,082707.100,A,5544.869,N,03746.116,E,003.9,079.5,190822,000.0,W*77
$GPRMC,082708.100,A,5544.869,N,03746.117,E,003.9,079.5,190822,000.0,W*79
$GPRMC,082709.100,A,5544.870,N,03746.119,E,003.9,079.5,190822,000.0,W*7E
$GPRMC,082710.100,A,5544.870,N,03746.121,E,003.9,079.5,190822,000.0,W*7D
$GPRMC,082711.100,A,5544.870,N,03746.123,E,003.9,079.5,190822,000.0,W*7E
$GPRMC,082712.100,A,5544.871,N,03746.125,E,003.9,079.5,190822,000.0,W*7A
$GPRMC,082713.100,A,5544.871,N,03746.127,E,003.9,079.5,190822,000.0,W*79
$GPRMC,082714.100,A,5544.871,N,03746.128,E,003.9,079.5,190822,000.0,W*71
$GPRMC,082715.100,A,5544.872,N,03746.130,E,003.9,079.5,190822,000.0,W*7A
$GPRMC,082716.100,A,5544.872,N,03746.132,E,003.9,079.5,190822,000.0,W*7B
$GPRMC,082717.100,A,5544.872,N,03746.134,E,003.9,079.5,190822,000.0,W*7C
$GPRMC,082718.100,A,5544.873,N,03746.136,E,003.9,079.5,190822,000.0,W*70
$GPRMC,082719.100,A,5544.873,N,03746.137,E,003.9,079.5,190822,000.0,W*70
$GPRMC,082720.100,A,5544.873,N,03746.139,E,003.9,079.5,190822,000.0,W*74
$GPRMC,082721.100,A,5544.874,N,03746.141,E,003.9,079.5,190822,000.0,W*7D
$GPRMC,082722.100,A,5544.874,N,03746.143,E,003.9,079.5,190822,000.0,W*7C
$GPRMC,082723.100,A,5544.874,N,03746.145,E,003.9,079.5,190822,000.0,W*7B
$GPRMC,082724.100,A,5544.875,N,03746.147,E,003.9,079.5,190822,000.0,W*7F
$GPRMC,082725.100,A,5544.875,N,03746.148,E,003.9,079.5,190822,000.0,W*71
$GPRMC,082726.100,A,5544.875,N,03746.150,E,003.9,079.5,190822,000.0,W*7B
$GPRMC,082727.100,A,5544.876,N,03746.152,E,003.9,079.5,190822,000.0,W*7B
$GPRMC,082728.100,A,5544.876,N,03746.154,E,003.9,079.5,190822,000.0,W*72
$GPRMC,082729.100,A,5544.876,N,03746.156,E,003.9,079.5,190822,000.0,W*71
$GPRMC,082730.100,A,5544.877,N,03746.158,E,003.9,079.5,190822,000.0,W*76
$GPRMC,082731.100,A,5544.877,N,03746.159,E,003.9,079.5,190822,000.0,W*76
$GPRMC,082732.100,A,5544.877,N,03746.161,E,003.9,079.5,190822,000.0,W*7E
$GPRMC,082733.100,A,5544.878,N,03746.163,E,003.9,079.5,190822,000.0,W*72
$GPRMC,082734.100,A,5544.878,N,03746.165,E,003.9,079.5,190822,000.0,W*73
$GPRMC,082735.100,A,5544.878,N,03746.167,E,003.9,079.5,190822,000.0,W*70
$GPRMC,082736.100,A,5544.879,N,03746.168,E,003.9,079.5,190822,000.0,W*7D
$GPRMC,082737.100,A,5544.879,N,03746.170,E,003.9,079.5,190822,000.0,W*75
$GPRMC,082738.100,A,5544.879,N,03746.172,E,003.9,079.5,190822,000.0,W*78
